time,x_kalman,y_kalman,z_kalman,x_lh,y_lh,z_lh,roll,pitch,yaw,F,R,Z,motor.m1,motor.m2,motor.m3,motor.m4,rpm.m1,rpm.m2,rpm.m3,rpm.m4,controller.cmd_thrust,controller.cmd_roll,controller.cmd_pitch,controller.cmd_yaw
0.0,0.001233263872563839,-0.0018586855148896575,0.006427164189517498,0.0,0.0,0.0,-1.8425301313400269,-0.5399303436279297,-0.028942687436938286,-0.005688415840268135,2.8691489696502686,0.006427164189517498,52326.0,52002.0,56404.0,57176.0,0,0,0,0,54655.9296875,2965.0,9.0,67.0
0.02,-0.001148473471403122,0.00032693834509700537,0.006944073364138603,0.0,0.0,0.0,-1.9402374029159546,-0.43098434805870056,-0.03559654951095581,-0.005681216716766357,2.869152545928955,0.006944073364138603,55675.0,52565.0,54365.0,56683.0,0,0,0,0,55205.390625,-2616.0,-501.0,279.0
0.04,-0.0011561561841517687,-0.0017451816238462925,0.0063707553781569,0.0,0.0,0.0,-1.8353395462036133,-0.41311585903167725,-0.02485419251024723,-0.005823541898280382,2.8693060874938965,0.0063707553781569,58830.0,55072.0,52400.0,55118.0,0,0,0,0,55676.08984375,-5948.0,-1140.0,199.0
0.06,-0.0002617126447148621,-0.00047596479998901486,0.005523922387510538,0.0,0.0,0.0,-1.6762405633926392,-0.533259391784668,0.0327056460082531,-0.005766956601291895,2.869258403778076,0.005523922387510538,55190.0,62820.0,55334.0,47988.0,0,0,0,0,54507.3046875,-5097.0,-5458.0,-119.0
0.08,-0.0010244200238958001,-0.0003895673726219684,0.006454582791775465,0.0,0.0,0.0,-1.0701302289962769,-0.35889196395874023,0.059443678706884384,-0.005757029168307781,2.8692636489868164,0.0064764805138111115,53095.0,57197.0,53613.0,49447.0,0,0,0,0,51560.96484375,-1007.0,-8573.0,122.0
0.1,-0.0006307216826826334,-0.002779559697955847,0.011050031520426273,0.0,0.0,0.0,-0.2695258557796478,0.08185470104217529,0.05234460160136223,-0.0061934771947562695,2.869715929031372,0.008792711421847343,47546.0,52918.0,52598.0,48470.0,0,0,0,0,48619.0234375,-660.0,-4576.0,-266.0
0.12,-0.00022796526900492609,-0.0034565592650324106,0.013994631357491016,0.0,0.0,0.0,0.06595613807439804,0.4208412170410156,0.048163797706365585,-0.006191892083734274,2.8697168827056885,0.013994631357491016,42971.0,50367.0,50173.0,43909.0,0,0,0,0,46855.01953125,1292.0,-8999.0,-896.0
0.14,-0.003994246479123831,-0.007859505712985992,0.022156190127134323,0.0,0.0,0.0,0.2151682823896408,0.7058624029159546,-0.006284939590841532,0.022156190127134323,2.869751453399658,0.022156190127134323,43074.0,43266.0,42256.0,44116.0,0,0,0,0,43178.6796875,465.0,1040.0,-1449.0
0.16,-0.010538014583289623,0.0002749325067270547,0.032872263342142105,0.0,0.0,0.0,-0.21080340445041656,0.9377261400222778,-0.06514745950698853,0.016907306388020515,2.8703060150146484,0.027001114562153816,40059.0,42433.0,41003.0,41085.0,0,0,0,0,41145.46484375,-154.0,-2122.0,-1589.0
0.18,-0.01887499913573265,0.0009696506313048303,0.03885149210691452,0.0,0.0,0.0,-0.2618233561515808,0.7125162482261658,-0.14724110066890717,0.016528910025954247,2.8702573776245117,0.03885149210691452,37035.0,42739.0,37961.0,36745.0,0,0,0,0,38620.2890625,-2747.0,-5099.0,-2010.0
0.2,-0.01680828258395195,-0.004170997533947229,0.0540582612156868,0.0,0.0,0.0,0.1465170830488205,-0.0650055855512619,-0.27339544892311096,0.01623671129345894,2.8703665733337402,0.0540582612156868,34843.0,36749.0,36439.0,38025.0,0,0,0,0,36514.99609375,1015.0,558.0,-1895.0
0.22,-0.01496121659874916,-0.0023546707816421986,0.0698576271533966,0.0,0.0,0.0,0.2981378138065338,-0.7354770302772522,-0.3791762888431549,0.01676938124001026,2.870424747467041,0.0698576271533966,35513.0,37809.0,35753.0,37529.0,0,0,0,0,36651.63671875,-1806.0,-433.0,-2207.0
0.24,-0.014717914164066315,-0.001166280242614448,0.07594908773899078,0.0,0.0,0.0,0.27798032760620117,-1.458340048789978,-0.48415008187294006,0.010246507823467255,2.870924234390259,0.0764186903834343,35974.0,36696.0,33990.0,36032.0,0,0,0,0,35673.9453125,-111.0,155.0,-2244.0
0.26,-0.019137561321258545,0.0037448459770530462,0.09117045998573303,0.0,0.0,0.0,0.11379833519458771,-2.068603038787842,-0.5842166543006897,0.009917729534208775,2.8708741664886475,0.09117045998573303,34227.0,36207.0,33403.0,36571.0,0,0,0,0,35102.73828125,396.0,917.0,-2259.0
0.28,-0.017264220863580704,0.004644551780074835,0.10683411359786987,0.0,0.0,0.0,0.17116214334964752,-2.9422919750213623,-0.7044010758399963,0.00968567281961441,2.8711130619049072,0.1147039532661438,32628.0,33886.0,31306.0,34700.0,0,0,0,0,33130.3359375,-2002.0,-2395.0,-2056.0
0.3,-0.014712751843035221,0.004578359890729189,0.13063906133174896,0.0,0.0,0.0,0.3103262782096863,-3.8021159172058105,-0.8047043681144714,0.009721469134092331,2.9257280826568604,0.13063906133174896,32019.0,35049.0,32787.0,31581.0,0,0,0,0,32859.9765625,-3277.0,-4266.0,-1979.0
0.32,-0.017954979091882706,0.00121407734695822,0.1465298980474472,0.0,0.0,0.0,0.6333740949630737,-4.281348705291748,-0.8574175238609314,0.009916631504893303,2.926023483276367,0.1465298980474472,31800.0,35972.0,31380.0,31964.0,0,0,0,0,32779.59375,-1887.0,-369.0,-1957.0
0.34,-0.017046140506863594,0.0005202507600188255,0.16392874717712402,0.0,0.0,0.0,0.831585168838501,-4.803316593170166,-0.9308529496192932,0.01023902092128992,2.9278030395507812,0.16392874717712402,31384.0,34656.0,31546.0,32490.0,0,0,0,0,32519.341796875,-1566.0,-1303.0,-1617.0
0.36,-0.015139812603592873,0.0032271870877593756,0.17753030359745026,0.0,0.0,0.0,0.7834387421607971,-5.36275053024292,-1.017859697341919,0.009728970006108284,2.9381916522979736,0.1774817258119583,32333.0,33159.0,31453.0,34859.0,0,0,0,0,32951.83984375,132.0,701.0,-1559.0
0.38,-0.013974896632134914,0.003078067908063531,0.1926049292087555,0.0,0.0,0.0,0.7833510637283325,-5.862916946411133,-1.063225269317627,0.01000271923840046,2.9391279220581055,0.1926049292087555,32632.0,33826.0,31302.0,34552.0,0,0,0,0,33078.43359375,-50.0,-2354.0,-1471.0
0.4,-0.012644498609006405,0.0031931919511407614,0.20578347146511078,0.0,0.0,0.0,0.6933833956718445,-6.305990219116211,-1.1023688316345215,0.009974684566259384,2.939093589782715,0.20578347146511078,31201.0,34895.0,33763.0,34317.0,0,0,0,0,33544.9921875,533.0,-1234.0,-1330.0
0.42,-0.006574737839400768,0.006494475994259119,0.2172296941280365,0.0,0.0,0.0,0.48756566643714905,-6.777949810028076,-1.190539002418518,0.00944883469492197,2.9393272399902344,0.2172296941280365,32654.0,34906.0,33754.0,34990.0,0,0,0,0,34076.98828125,-655.0,-124.0,-1117.0
0.44,-0.003951425664126873,0.005930712912231684,0.22780707478523254,0.0,0.0,0.0,0.4555121660232544,-7.013607978820801,-1.2013205289840698,0.009182638488709927,2.938633918762207,0.22780707478523254,34152.0,35994.0,33258.0,35424.0,0,0,0,0,34707.33984375,-1787.0,-879.0,-1171.0
0.46,-0.0009994626743718982,0.005784959532320499,0.23852528631687164,0.0,0.0,0.0,0.4701807498931885,-7.175501823425293,-1.207518219947815,0.009138771332800388,2.9385812282562256,0.23852528631687164,34161.0,38073.0,33943.0,34419.0,0,0,0,0,35149.80078125,-1928.0,-2094.0,-1217.0
0.48,0.003106642048805952,0.005132380407303572,0.2524040639400482,0.0,0.0,0.0,0.5513240694999695,-7.283483505249023,-1.217719316482544,0.00908450223505497,2.9458227157592773,0.2503330707550049,34963.0,36353.0,33995.0,36297.0,0,0,0,0,35402.51171875,-570.0,-3326.0,-1043.0
0.5,0.00687274057418108,0.004814138635993004,0.2597862482070923,0.0,0.0,0.0,0.6008925437927246,-7.246685028076172,-1.2219213247299194,0.009049156680703163,2.9457805156707764,0.2597862482070923,34223.0,38371.0,35745.0,34977.0,0,0,0,0,35829.0078125,-1591.0,-3250.0,-1025.0
0.52,0.01160941831767559,0.003870613407343626,0.2685057520866394,0.0,0.0,0.0,0.6270865797996521,-7.1134033203125,-1.218375563621521,0.008947734721004963,2.9456586837768555,0.2685057520866394,34690.0,37656.0,35104.0,35634.0,0,0,0,0,35771.828125,-611.0,-1369.0,-1092.0
0.54,0.016327761113643646,0.0027013819199055433,0.2797267436981201,0.0,0.0,0.0,0.6057966351509094,-6.9662041664123535,-1.2073723077774048,0.009449698030948639,2.946995973587036,0.2797267436981201,36421.0,35117.0,34085.0,38181.0,0,0,0,0,35951.5625,-563.0,2737.0,-1043.0
0.56,0.02232789620757103,0.0016456193989142776,0.2883146107196808,0.0,0.0,0.0,0.5642635822296143,-6.87723970413208,-1.2095515727996826,0.009515324607491493,2.945704698562622,0.2883146107196808,35546.0,38424.0,34954.0,36028.0,0,0,0,0,36238.51953125,-1131.0,492.0,-1238.0
0.58,0.027983972802758217,0.001011787448078394,0.2951030433177948,0.0,0.0,0.0,0.4879133701324463,-6.821378231048584,-1.2136551141738892,0.009355640038847923,2.9453020095825195,0.2951030433177948,35380.0,38474.0,35852.0,36798.0,0,0,0,0,36626.44140625,-1299.0,-5201.0,-1087.0
0.6,0.03501126542687416,-0.00043952895794063807,0.3024578392505646,0.0,0.0,0.0,0.4299188554286957,-6.659245491027832,-1.215826153755188,0.00925169512629509,2.9451870918273926,0.3024578392505646,33885.0,41545.0,37647.0,34291.0,0,0,0,0,36842.08984375,-1352.0,-4411.0,-1235.0
0.62,0.04174371063709259,-0.002180124633014202,0.30932506918907166,0.0,0.0,0.0,0.3480191230773926,-6.331772327423096,-1.2114851474761963,0.009173993021249771,2.9446985721588135,0.30883991718292236,35565.0,40547.0,36451.0,35777.0,0,0,0,0,37085.1484375,-1054.0,-2157.0,-1175.0
0.64,0.04901029169559479,-0.003751456970348954,0.3151714503765106,0.0,0.0,0.0,0.25628921389579773,-5.995361328125,-1.2142729759216309,0.009112535044550896,2.9446308612823486,0.3151714503765106,36334.0,38646.0,35870.0,37990.0,0,0,0,0,37210.03515625,-636.0,-596.0,-1256.0
0.66,0.05653172731399536,-0.005077723413705826,0.3212634027004242,0.0,0.0,0.0,0.1300903856754303,-5.766099452972412,-1.2220358848571777,0.00907562579959631,2.9445903301239014,0.3212634027004242,36108.0,38986.0,36028.0,37254.0,0,0,0,0,37094.91796875,-740.0,-2114.0,-1284.0
0.68,0.06456571072340012,-0.006712194066494703,0.32911914587020874,0.0,0.0,0.0,-0.018679073080420494,-5.547433853149414,-1.225358247756958,0.009246018715202808,2.9438419342041016,0.32911914587020874,36196.0,40394.0,35564.0,35850.0,0,0,0,0,37001.46875,-2848.0,-7431.0,-1298.0
0.7,0.07257024198770523,-0.008400890976190567,0.33501794934272766,0.0,0.0,0.0,-0.1558331847190857,-5.174671173095703,-1.232067346572876,0.009233624674379826,2.943828582763672,0.33501794934272766,33871.0,41201.0,38073.0,34943.0,0,0,0,0,37022.796875,-537.0,-2327.0,-1079.0
0.72,0.08119405061006546,-0.009941832162439823,0.33871594071388245,0.0,0.0,0.0,-0.26133719086647034,-4.682838439941406,-1.237400770187378,0.00909139309078455,2.943300724029541,0.33871594071388245,36013.0,39725.0,36761.0,37165.0,0,0,0,0,37416.3984375,237.0,-1683.0,-1130.0
0.74,0.0909811332821846,-0.012034035287797451,0.3454314172267914,0.0,0.0,0.0,-0.4145926535129547,-4.2733235359191895,-1.2326148748397827,0.009125630371272564,2.941473960876465,0.3454314172267914,36361.0,39629.0,35767.0,36739.0,0,0,0,0,37124.46875,-546.0,-1439.0,-1214.0
0.76,0.10021880269050598,-0.01375193614512682,0.3507869839668274,0.0,0.0,0.0,-0.6073171496391296,-3.977705955505371,-1.229377269744873,0.009079584851861,2.941209554672241,0.3497319519519806,35416.0,40300.0,36958.0,36638.0,0,0,0,0,37328.62890625,-937.0,-1158.0,-1250.0
0.78,0.10979453474283218,-0.016280915588140488,0.3548043370246887,0.0,0.0,0.0,-0.7636263370513916,-3.6644325256347656,-1.2272789478302002,0.009040411561727524,2.9411680698394775,0.3548043370246887,35499.0,40155.0,36861.0,36881.0,0,0,0,0,37349.515625,-175.0,-2091.0,-1279.0
0.8,0.11949363350868225,-0.017896423116326332,0.35976603627204895,0.0,0.0,0.0,-0.9061437249183655,-3.2805075645446777,-1.2369099855422974,0.009013764560222626,2.9388880729675293,0.3620763123035431,32623.0,40585.0,38675.0,35453.0,0,0,0,0,36834.43359375,-625.0,-6055.0,-1347.0
0.82,0.129145085811615,-0.020218856632709503,0.3634328842163086,0.0,0.0,0.0,-1.0470679998397827,-2.779905319213867,-1.233933925628662,0.009085648693144321,2.93817400932312,0.3634328842163086,35276.0,40816.0,37434.0,36762.0,0,0,0,0,37572.5703125,647.0,-2545.0,-1457.0
0.84,0.139889657497406,-0.02246030606329441,0.36795860528945923,0.0,0.0,0.0,-1.2426247596740723,-2.289163589477539,-1.2393174171447754,0.009039199911057949,2.938124656677246,0.36795860528945923,36102.0,39634.0,36852.0,37652.0,0,0,0,0,37560.98828125,-1271.0,-1426.0,-1259.0
0.86,0.1447562873363495,-0.023683397099375725,0.3702234923839569,0.0,0.0,0.0,-1.3450487852096558,-2.1059021949768066,-1.2424260377883911,0.009062976576387882,2.93788743019104,0.3702964782714844,35812.0,40980.0,36644.0,36156.0,0,0,0,0,37398.05859375,-2416.0,-2133.0,-1222.0
0.88,0.15998156368732452,-0.02673044428229332,0.37723439931869507,0.0,0.0,0.0,-1.5972423553466797,-1.7095555067062378,-1.247004747390747,0.00910513661801815,2.9347681999206543,0.37723439931869507,35305.0,40299.0,37533.0,36167.0,0,0,0,0,37326.96484375,-1295.0,-5950.0,-987.0
0.9,0.16987338662147522,-0.028548218309879303,0.3816945254802704,0.0,0.0,0.0,-1.6967486143112183,-1.350219488143921,-1.23448646068573,0.009119383059442043,2.934783697128296,0.3816945254802704,35187.0,41909.0,38297.0,35843.0,0,0,0,0,37809.96875,1407.0,-3268.0,-914.0
0.92,0.18294872343540192,-0.030508574098348618,0.38272616267204285,0.0,0.0,0.0,-1.7947778701782227,-0.9739554524421692,-1.2169804573059082,0.009101328440010548,2.9343678951263428,0.38278135657310486,35334.0,39562.0,37444.0,36496.0,0,0,0,0,37209.1875,-221.0,-2881.0,-977.0
0.94,0.19294337928295135,-0.032835591584444046,0.38946667313575745,0.0,0.0,0.0,-1.9610639810562134,-0.6417437791824341,-1.1967285871505737,0.009129407815635204,2.932025671005249,0.3895300626754761,34936.0,39514.0,37086.0,36848.0,0,0,0,0,37096.7265625,-1370.0,-3885.0,-1020.0
0.96,0.20240625739097595,-0.03393667936325073,0.3895069658756256,0.0,0.0,0.0,-2.134428024291992,-0.44075098633766174,-1.1858004331588745,0.009234120137989521,2.931478977203369,0.3895637094974518,36270.0,40366.0,37250.0,37342.0,0,0,0,0,37807.2265625,-1484.0,-3441.0,-926.0
0.98,0.21295785903930664,-0.03582407161593437,0.3933023512363434,0.0,0.0,0.0,-2.222576141357422,-0.21481405198574066,-1.1723459959030151,0.009248757734894753,2.9314939975738525,0.39338943362236023,35431.0,39817.0,38439.0,37433.0,0,0,0,0,37780.66015625,-1124.0,-3883.0,-779.0
1.0,0.22150316834449768,-0.03719677776098251,0.4008063077926636,0.0,0.0,0.0,-2.2808573246002197,0.1072700247168541,-1.1507176160812378,0.009241326712071896,2.928954839706421,0.4008063077926636,33788.0,41024.0,39604.0,36300.0,0,0,0,0,37679.13671875,-350.0,-5420.0,-885.0
1.02,0.23347926139831543,-0.038794271647930145,0.4007245898246765,0.0,0.0,0.0,-2.3357925415039062,0.40825796127319336,-1.1287946701049805,0.009281208738684654,2.928360939025879,0.4007245898246765,35015.0,39905.0,38095.0,37365.0,0,0,0,0,37595.78515625,320.0,-2512.0,-1021.0
1.04,0.24346669018268585,-0.04014487564563751,0.40443819761276245,0.0,0.0,0.0,-2.412259101867676,0.7077679634094238,-1.1129865646362305,0.009293871000409126,2.9283742904663086,0.40443819761276245,35628.0,40452.0,37044.0,36896.0,0,0,0,0,37505.6015625,-523.0,-3779.0,-1437.0
1.06,0.24735426902770996,-0.04013962671160698,0.40328651666641235,0.0,0.0,0.0,-2.469449996948242,0.7873880863189697,-1.115561842918396,0.009374723769724369,2.9252405166625977,0.4082348942756653,34245.0,39943.0,37927.0,37161.0,0,0,0,0,37319.0859375,-114.0,-2780.0,-1517.0
1.08,0.26163408160209656,-0.040551669895648956,0.4119952321052551,0.0,0.0,0.0,-2.5739049911499023,0.8527856469154358,-1.1490384340286255,0.009397387504577637,2.9252679347991943,0.41200512647628784,34996.0,40312.0,37110.0,36642.0,0,0,0,0,37265.03515625,-2755.0,-2257.0,-1371.0
1.1,0.27278244495391846,-0.04236365854740143,0.41563740372657776,0.0,0.0,0.0,-2.5398616790771484,0.8882926106452942,-1.1641786098480225,0.009389666840434074,2.925246000289917,0.41554388403892517,33723.0,41949.0,38329.0,34931.0,0,0,0,0,37233.37109375,-2211.0,-6363.0,-1399.0
1.12,0.28218886256217957,-0.043524179607629776,0.4191611707210541,0.0,0.0,0.0,-2.401949644088745,0.9639301300048828,-1.1771719455718994,0.009413126856088638,2.9229021072387695,0.42239609360694885,34326.0,39540.0,36248.0,35942.0,0,0,0,0,36514.296875,-9.0,-1606.0,-1458.0
1.14,0.2917831242084503,-0.043916892260313034,0.42634737491607666,0.0,0.0,0.0,-2.276796817779541,1.0206468105316162,-1.1980944871902466,0.009420838207006454,2.922910451889038,0.42634737491607666,35771.0,38553.0,35613.0,38287.0,0,0,0,0,37056.65234375,-1965.0,-983.0,-1908.0
1.16,0.30208727717399597,-0.04416302219033241,0.42675989866256714,0.0,0.0,0.0,-2.228126287460327,0.866619884967804,-1.234248161315918,0.009456157684326172,2.9225378036499023,0.42675989866256714,36740.0,38938.0,34768.0,37890.0,0,0,0,0,37084.53515625,-3140.0,-1831.0,-1734.0
1.18,0.31248342990875244,-0.04463988542556763,0.4301520586013794,0.0,0.0,0.0,-2.1193833351135254,0.6323428750038147,-1.2772722244262695,0.00947391428053379,2.9205284118652344,0.4336850047111511,35739.0,40479.0,34553.0,34821.0,0,0,0,0,36398.546875,-195.0,-930.0,-1509.0
1.2,0.31828010082244873,-0.04493575915694237,0.4355418086051941,0.0,0.0,0.0,-2.0242979526519775,0.5257301330566406,-1.2935104370117188,0.00951003935188055,2.9199934005737305,0.4328839182853699,33707.0,41457.0,38335.0,35701.0,0,0,0,0,37300.42578125,581.0,-4555.0,-1318.0
1.22,0.33315470814704895,-0.04520526900887489,0.43595564365386963,0.0,0.0,0.0,-1.8189170360565186,0.4034978151321411,-1.3111727237701416,0.009512524120509624,2.9199960231781006,0.43595564365386963,33236.0,40486.0,39154.0,36596.0,0,0,0,0,37368.37890625,-212.0,-1107.0,-1132.0
1.24,0.34224966168403625,-0.045052673667669296,0.4389077126979828,0.0,0.0,0.0,-1.8085169792175293,0.43717390298843384,-1.3061394691467285,0.009529214352369308,2.9198522567749023,0.43691903352737427,35669.0,39239.0,36501.0,37447.0,0,0,0,0,37214.9921875,-1557.0,-2843.0,-1036.0
1.26,0.3507174849510193,-0.044656965881586075,0.4425402879714966,0.0,0.0,0.0,-1.8384051322937012,0.3399328589439392,-1.2997167110443115,0.00956836249679327,2.91784930229187,0.4425402879714966,35699.0,40017.0,36647.0,36621.0,0,0,0,0,37246.1640625,-1653.0,-1406.0,-830.0
1.28,0.3622373044490814,-0.044820744544267654,0.44552725553512573,0.0,0.0,0.0,-1.779736876487732,0.14699745178222656,-1.2824064493179321,0.009569534100592136,2.9178507328033447,0.44552725553512573,36068.0,39104.0,36526.0,37458.0,0,0,0,0,37289.34765625,-768.0,-1276.0,-652.0
1.3,0.36847013235092163,-0.046390727162361145,0.4402884244918823,0.0,0.0,0.0,-1.6320626735687256,0.08824600279331207,-1.2547369003295898,0.00960677582770586,2.9172067642211914,0.4402884244918823,36447.0,43085.0,39353.0,36395.0,0,0,0,0,38820.23046875,-309.0,-4799.0,-432.0
1.32,0.37783434987068176,-0.04611942544579506,0.445902943611145,0.0,0.0,0.0,-1.5106557607650757,0.09337887912988663,-1.2139970064163208,0.009650452062487602,2.9151363372802734,0.445902943611145,34753.0,40547.0,39659.0,37509.0,0,0,0,0,38117.7890625,-830.0,-2541.0,-433.0
1.34,0.3872207999229431,-0.04722484573721886,0.4480976164340973,0.0,0.0,0.0,-1.4137803316116333,0.09079679846763611,-1.1674708127975464,0.009656724520027637,2.9151430130004883,0.4480976164340973,36986.0,39980.0,37302.0,37896.0,0,0,0,0,38041.2265625,-452.0,-610.0,-464.0
1.36,0.3954657316207886,-0.04801096394658089,0.45032989978790283,0.0,0.0,0.0,-1.377286434173584,-0.07416718453168869,-1.1262232065200806,0.35522326827049255,2.915147066116333,0.45032989978790283,37137.0,39915.0,36885.0,37771.0,0,0,0,0,37927.5703125,-681.0,-1885.0,-567.0
1.38,0.39887043833732605,-0.04787516966462135,0.456521600484848,0.0,0.0,0.0,-1.3280377388000488,-0.2566196322441101,-1.0887924432754517,0.3585563600063324,2.9141318798065186,0.456521600484848,36364.0,39620.0,35980.0,36688.0,0,0,0,0,37163.265625,215.0,-641.0,-625.0
1.4,0.41179904341697693,-0.04809078946709633,0.4579960107803345,0.0,0.0,0.0,-1.2791168689727783,-0.46338310837745667,-1.0629743337631226,0.36378204822540283,2.914079189300537,0.4579960107803345,33958.0,39808.0,38808.0,36822.0,0,0,0,0,37349.1484375,-1148.0,-7073.0,-571.0
1.42,0.40709272027015686,-0.0479373075067997,0.46069619059562683,0.0,0.0,0.0,-1.2409733533859253,-0.38266631960868835,-1.0373071432113647,0.36396053433418274,2.914057493209839,0.46069619059562683,33943.0,40069.0,38831.0,36361.0,0,0,0,0,37301.546875,-1514.0,-4076.0,-608.0
1.44,0.4093190133571625,-0.04526551067829132,0.463228315114975,0.0,0.0,0.0,-1.25449800491333,-0.3281401991844177,-1.0120412111282349,0.3684462606906891,2.9132511615753174,0.469823956489563,34128.0,37386.0,35824.0,36294.0,0,0,0,0,35908.4453125,-1522.0,-468.0,-776.0
1.46,0.41991087794303894,-0.046440355479717255,0.4739345610141754,0.0,0.0,0.0,-1.238839864730835,-0.5980490446090698,-0.9880355000495911,0.36758169531822205,2.913348436355591,0.4739345610141754,36496.0,36858.0,33474.0,36784.0,0,0,0,0,35903.4609375,-3202.0,2157.0,-951.0
1.48,0.44640228152275085,-0.04697667807340622,0.47673627734184265,0.0,0.0,0.0,-1.1617093086242676,-1.2443804740905762,-0.9717830419540405,0.36744052171707153,2.913405179977417,0.47673627734184265,37839.0,37519.0,32225.0,36481.0,0,0,0,0,36016.97265625,-963.0,3775.0,-1001.0
1.5,0.47141772508621216,-0.049034763127565384,0.4782696068286896,0.0,0.0,0.0,-0.9852727651596069,-1.8772441148757935,-0.969531774520874,0.3694898188114166,2.9131171703338623,0.48146024346351624,35189.0,39087.0,34743.0,34729.0,0,0,0,0,35937.49609375,-3171.0,-1862.0,-827.0
1.52,0.5070794820785522,-0.05004167556762695,0.4838087558746338,0.0,0.0,0.0,-0.8341465592384338,-2.298269271850586,-0.9543315768241882,0.369242787361145,2.913133144378662,0.4838087558746338,34516.0,39428.0,36044.0,34636.0,0,0,0,0,36156.359375,-694.0,-1150.0,-553.0
1.54,0.5289843082427979,-0.05326990410685539,0.4860847592353821,0.0,0.0,0.0,-0.7133021354675293,-2.1026885509490967,-0.9260522723197937,0.36911654472351074,2.913128137588501,0.4860847592353821,35615.0,39763.0,36263.0,35667.0,0,0,0,0,36827.6796875,-1615.0,-3367.0,-897.0
1.56,0.5467308163642883,-0.05730392038822174,0.4848071336746216,0.0,0.0,0.0,-0.6686355471611023,-1.9443901777267456,-0.9083406329154968,0.36886104941368103,2.912963628768921,0.48577651381492615,35713.0,38853.0,37041.0,36917.0,0,0,0,0,37131.67578125,259.0,-1450.0,-839.0
1.58,0.5806540250778198,-0.06128821149468422,0.4860270619392395,0.0,0.0,0.0,-0.6831995844841003,-1.4178197383880615,-0.8643400073051453,0.3685199022293091,1.864155888557434,0.48683783411979675,36143.0,39519.0,37101.0,36933.0,0,0,0,0,37424.96484375,-641.0,-1966.0,-868.0
1.6,0.6089470982551575,-0.0628136619925499,0.48813191056251526,0.0,0.0,0.0,-0.8081942796707153,-0.6725399494171143,-0.8202204704284668,0.36842021346092224,1.8646067380905151,0.4888703227043152,34966.0,40906.0,37966.0,36366.0,0,0,0,0,37551.41796875,-1083.0,-4502.0,-1013.0
1.62,0.6265676617622375,-0.06870665401220322,0.48946765065193176,0.0,0.0,0.0,-0.9245057702064514,0.35377126932144165,-0.790969729423523,0.3684180974960327,1.8646018505096436,0.4902055859565735,35173.0,43129.0,37905.0,34433.0,0,0,0,0,37660.6640625,-448.0,-3840.0,-1048.0
1.64,0.6195686459541321,-0.07080154865980148,0.49144941568374634,0.0,0.0,0.0,-1.0700087547302246,1.8574719429016113,-0.7898293137550354,0.368245929479599,0.7468422055244446,0.48933425545692444,34666.0,40898.0,39276.0,37604.0,0,0,0,0,38111.03515625,308.0,-4124.0,-1062.0
1.66,0.6115626692771912,-0.06871344149112701,0.4901960790157318,0.0,0.0,0.0,-1.2955557107925415,3.3363635540008545,-0.7826461791992188,0.36844515800476074,0.7472036480903625,0.49066174030303955,37013.0,39653.0,36935.0,38867.0,0,0,0,0,38117.91796875,-990.0,-1105.0,-1053.0
1.68,0.6129571795463562,-0.06922661513090134,0.491308331489563,0.0,0.0,0.0,-1.5844910144805908,4.437946796417236,-0.7766413688659668,0.3685263395309448,0.7473707795143127,0.4917577803134918,36309.0,40207.0,37613.0,38203.0,0,0,0,0,38083.59765625,-795.0,-1508.0,-1164.0
1.7,0.6077249646186829,-0.06029316782951355,0.490335077047348,0.0,0.0,0.0,-1.908316969871521,5.121505260467529,-0.7730488777160645,0.36826157569885254,0.7371346354484558,0.49070921540260315,34774.0,44324.0,39172.0,35310.0,0,0,0,0,38395.93359375,-987.0,-6138.0,-1096.0
1.72,0.6105284690856934,-0.06937308609485626,0.49118444323539734,0.0,0.0,0.0,-1.9303405284881592,5.32534646987915,-0.8175643086433411,0.36830267310142517,0.737223744392395,0.49155664443969727,36627.0,40555.0,37511.0,38823.0,0,0,0,0,38379.28125,612.0,-2187.0,-1053.0
1.74,0.6122938394546509,-0.0665072426199913,0.4919779300689697,0.0,0.0,0.0,-1.9726359844207764,5.264707088470459,-0.8378507494926453,0.36829161643981934,0.7372340559959412,0.49233007431030273,37717.0,40673.0,36671.0,38183.0,0,0,0,0,38311.0390625,-167.0,373.0,-1076.0
1.76,0.6194804906845093,-0.06966383755207062,0.493177592754364,0.0,0.0,0.0,-1.9191957712173462,4.872873783111572,-0.8660508394241333,0.3684007227420807,0.7343569993972778,0.4936186969280243,36883.0,38213.0,37059.0,40497.0,0,0,0,0,38163.64453125,-3.0,-105.0,-1208.0
1.78,0.6305327415466309,-0.06182491034269333,0.49404439330101013,0.0,0.0,0.0,-1.9810258150100708,4.1382269859313965,-0.8866634964942932,0.3683929741382599,0.7343378067016602,0.49449804425239563,38187.0,38871.0,38523.0,38771.0,0,0,0,0,38588.40625,-591.0,-3020.0,-1122.0
1.8,0.6250683069229126,-0.03415530547499657,0.4921029508113861,0.0,0.0,0.0,-2.2063190937042236,3.5027236938476562,-0.8842238783836365,0.36783814430236816,0.7325810790061951,0.49243614077568054,34345.0,42381.0,41017.0,36553.0,0,0,0,0,38574.44921875,281.0,-5948.0,-1183.0
1.82,0.6513153910636902,-0.026974864304065704,0.492805540561676,0.0,0.0,0.0,-2.1695404052734375,2.7503368854522705,-0.9010138511657715,0.3680155575275421,0.7312445640563965,0.4936251938343048,37604.0,39442.0,37416.0,39026.0,0,0,0,0,38372.4296875,-1473.0,-1260.0,-1063.0
1.84,0.6713799834251404,-0.022567886859178543,0.4944774806499481,0.0,0.0,0.0,-2.0041158199310303,2.2380430698394775,-0.9196961522102356,0.36812615394592285,0.731525719165802,0.49493131041526794,38663.0,39119.0,35285.0,39501.0,0,0,0,0,38142.609375,-1226.0,2291.0,-1077.0
1.86,0.6879810094833374,-0.02140774019062519,0.49544522166252136,0.0,0.0,0.0,-1.5656183958053589,1.6129258871078491,-0.9343843460083008,0.368181049823761,0.7315651774406433,0.49595749378204346,37267.0,39369.0,36531.0,38901.0,0,0,0,0,38017.90234375,210.0,664.0,-1166.0
1.88,0.7026429176330566,-0.011391842737793922,0.49642637372016907,0.0,0.0,0.0,-1.0082634687423706,1.0127439498901367,-0.9229235053062439,0.36820071935653687,0.7309463024139404,0.4972940981388092,36900.0,39186.0,36550.0,38760.0,0,0,0,0,37849.44140625,-684.0,-1221.0,-1167.0
1.9,0.7229118943214417,-0.006327404640614986,0.49625104665756226,0.0,0.0,0.0,-0.41434770822525024,0.6089220643043518,-0.9290686249732971,0.3681058883666992,0.7301689386367798,0.4967743158340454,35279.0,40889.0,38913.0,37195.0,0,0,0,0,38069.33203125,-762.0,-5184.0,-1031.0
1.92,0.7440820932388306,-0.004062956664711237,0.49730321764945984,0.0,0.0,0.0,0.1493605077266693,0.5175490379333496,-0.9292407035827637,0.3681645095348358,0.7302054166793823,0.4978348910808563,36109.0,40537.0,37953.0,37533.0,0,0,0,0,38033.18359375,-136.0,-1324.0,-1102.0
1.94,0.7631060481071472,0.007601514924317598,0.49826979637145996,0.0,0.0,0.0,0.5770819783210754,0.6464248895645142,-0.9042375683784485,0.3681504428386688,0.7301681637763977,0.4988105893135071,38056.0,39048.0,36056.0,38848.0,0,0,0,0,38002.25,-2244.0,484.0,-1092.0
1.96,0.7823140621185303,0.013704069890081882,0.49832335114479065,0.0,0.0,0.0,1.0265759229660034,0.8269051909446716,-0.8976706862449646,0.3681145906448364,0.7298675775527954,0.4988247752189636,37201.0,40787.0,36801.0,37767.0,0,0,0,0,38139.8984375,-1494.0,-1685.0,-1158.0
1.98,0.7981293797492981,0.018010323867201805,0.4993075132369995,0.0,0.0,0.0,1.5359158515930176,1.0074013471603394,-0.888084352016449,0.368129163980484,0.7298728823661804,0.49981024861335754,35880.0,42698.0,38420.0,35378.0,0,0,0,0,38094.56640625,-1580.0,-3892.0,-1140.0
2.0,0.7881295680999756,0.023764008656144142,0.4998537302017212,0.0,0.0,0.0,2.088012933731079,1.5004206895828247,-0.9077596068382263,0.3680326044559479,0.7296718955039978,0.5003922581672668,33705.0,42667.0,40715.0,35489.0,0,0,0,0,38144.0703125,-128.0,-6011.0,-1079.0
2.02,0.8111521601676941,0.027368713170289993,0.5011110901832581,0.0,0.0,0.0,2.656599521636963,1.899347186088562,-0.9271602630615234,0.3681090176105499,0.7293622493743896,0.5016148090362549,36328.0,40410.0,37388.0,38146.0,0,0,0,0,38068.234375,-164.0,-800.0,-1154.0
2.04,0.8212230801582336,0.028867457062005997,0.5021324753761292,0.0,0.0,0.0,3.1152219772338867,2.3156044483184814,-0.9461796283721924,0.3681183457374573,0.7293214797973633,0.5024505853652954,38255.0,39247.0,35653.0,38997.0,0,0,0,0,38038.78515625,-2277.0,1405.0,-1115.0
2.06,0.8249645829200745,0.030897434800863266,0.5029551982879639,0.0,0.0,0.0,3.4712748527526855,2.469653367996216,-0.951665461063385,0.3680882453918457,0.7292942404747009,0.5034762620925903,37908.0,41214.0,35778.0,37156.0,0,0,0,0,38014.72265625,-2494.0,380.0,-1118.0
2.08,0.849013090133667,0.03013891540467739,0.5039665102958679,0.0,0.0,0.0,3.847862958908081,2.2749669551849365,-0.9489995837211609,0.3681827485561371,0.7294545769691467,0.5044766068458557,36036.0,39734.0,37622.0,38696.0,0,0,0,0,38022.6484375,-786.0,-2163.0,-1162.0
2.1,0.8637495636940002,0.03103749454021454,0.5049982070922852,0.0,0.0,0.0,4.2171735763549805,2.1999123096466064,-0.9406842589378357,0.36822980642318726,0.7294971942901611,0.5054944157600403,34945.0,40889.0,38539.0,37303.0,0,0,0,0,37919.7265625,207.0,-3213.0,-1183.0
2.12,0.8784036636352539,0.031650155782699585,0.5067348480224609,0.0,0.0,0.0,4.447842121124268,2.2954046726226807,-0.9517940878868103,0.36826545000076294,0.7296859622001648,0.5072521567344666,35123.0,42061.0,38021.0,36459.0,0,0,0,0,37916.9375,-159.0,-4215.0,-1175.0
2.14,0.88800448179245,0.030561648309230804,0.5077649354934692,0.0,0.0,0.0,4.483354091644287,2.5062522888183594,-0.9728359580039978,0.3682602345943451,0.7292861342430115,0.5086675882339478,36790.0,39680.0,35986.0,38828.0,0,0,0,0,37821.66015625,507.0,346.0,-1157.0
2.16,0.8944357633590698,0.026467235758900642,0.5091866850852966,0.0,0.0,0.0,4.470195770263672,2.7502145767211914,-0.9978498220443726,0.36823591589927673,0.7292631268501282,0.5097144246101379,36905.0,41615.0,36775.0,37449.0,0,0,0,0,38186.16015625,-1369.0,-932.0,-1209.0
2.18,0.9032336473464966,0.024736814200878143,0.5082560181617737,0.0,0.0,0.0,4.393887996673584,2.8582358360290527,-1.0048564672470093,0.36823639273643494,0.7288939952850342,0.5086660385131836,36999.0,39715.0,37201.0,38961.0,0,0,0,0,38219.42578125,39.0,-406.0,-1124.0
2.2,0.9140971302986145,0.024173909798264503,0.5090669393539429,0.0,0.0,0.0,4.306869983673096,2.900672197341919,-1.0052872896194458,0.3682403862476349,0.7286801338195801,0.5097337961196899,35740.0,41776.0,38246.0,37062.0,0,0,0,0,38206.625,1076.0,-1686.0,-1080.0
2.22,0.9296324253082275,0.017895307391881943,0.5105696320533752,0.0,0.0,0.0,4.119899272918701,2.8833963871002197,-1.0073381662368774,0.3682655096054077,0.7287905812263489,0.5109841227531433,36309.0,39395.0,37773.0,39027.0,0,0,0,0,38126.44140625,259.0,-1952.0,-1036.0
2.24,0.9352230429649353,0.014649671502411366,0.5113664865493774,0.0,0.0,0.0,3.856523036956787,3.0510616302490234,-1.0002623796463013,0.36824384331703186,0.7287647724151611,0.5117377638816833,37224.0,40396.0,36858.0,38066.0,0,0,0,0,38136.98046875,-1460.0,-107.0,-1150.0
2.26,0.9483715891838074,0.006296737119555473,0.5121415853500366,0.0,0.0,0.0,3.525399684906006,3.0796241760253906,-0.9961557388305664,0.3682331144809723,0.7287549376487732,0.5125434398651123,36932.0,38784.0,36932.0,39776.0,0,0,0,0,38106.5703125,-1306.0,-348.0,-1193.0
2.28,0.952947199344635,0.0004132934845983982,0.5129239559173584,0.0,0.0,0.0,3.12882399559021,3.058880567550659,-0.9791807532310486,0.3681795299053192,0.7285501956939697,0.512581467628479,37303.0,41149.0,36857.0,37639.0,0,0,0,0,38237.4609375,-2763.0,-3269.0,-1161.0
2.3,0.9592826962471008,-0.0087206419557333,0.512878954410553,0.0,0.0,0.0,2.6479721069335938,2.959678888320923,-0.9759683609008789,0.3681213855743408,0.7284895777702332,0.5132420063018799,35981.0,42551.0,38093.0,36271.0,0,0,0,0,38224.85546875,-24.0,-4151.0,-1141.0
2.32,0.9626972079277039,-0.01598132960498333,0.5135350227355957,0.0,0.0,0.0,2.11224102973938,2.9642531871795654,-0.9632940888404846,0.36801207065582275,0.7283774614334106,0.5138646960258484,35175.0,41331.0,38545.0,37037.0,0,0,0,0,38022.67578125,172.0,-2288.0,-1195.0
2.34,0.9684853553771973,-0.02068444713950157,0.5191305875778198,0.0,0.0,0.0,1.478064775466919,2.951986789703369,-0.944920539855957,0.367984414100647,0.7286034226417542,0.5197693705558777,36960.0,37880.0,35286.0,38730.0,0,0,0,0,37214.0625,-1183.0,-45.0,-1308.0
2.36,0.9722868204116821,-0.027664009481668472,0.5203503370285034,0.0,0.0,0.0,0.7999398112297058,2.808441162109375,-0.9349077939987183,0.36792081594467163,0.7285382151603699,0.5209965705871582,35654.0,39702.0,35766.0,37530.0,0,0,0,0,37163.00390625,-671.0,599.0,-1290.0
2.38,0.974511444568634,-0.03478013724088669,0.5215674042701721,0.0,0.0,0.0,0.09092544764280319,2.4555907249450684,-0.9409633874893188,0.34156739711761475,0.7284581065177917,0.5222064852714539,36140.0,40334.0,36122.0,36124.0,0,0,0,0,37180.921875,-984.0,-267.0,-1306.0
2.4,0.9770238399505615,-0.03493218123912811,0.5223601460456848,0.0,0.0,0.0,-0.6212565898895264,2.005825996398926,-0.9434422254562378,0.34114760160446167,0.7286589741706848,0.5229393839836121,34085.0,41149.0,37995.0,36147.0,0,0,0,0,37344.80859375,-530.0,-4106.0,-1342.0
2.42,0.9772875308990479,-0.043078795075416565,0.5234049558639526,0.0,0.0,0.0,-1.2020968198776245,1.6333750486373901,-0.9601912498474121,0.34105822443962097,0.7285569906234741,0.5239360332489014,35725.0,40309.0,36805.0,36941.0,0,0,0,0,37445.07421875,-939.0,-2467.0,-1323.0
2.44,0.9765108227729797,-0.04977966845035553,0.5243609547615051,0.0,0.0,0.0,-1.7990988492965698,1.3131319284439087,-0.9802908897399902,0.36885660886764526,0.7284569144248962,0.5248361825942993,36259.0,38745.0,36017.0,39151.0,0,0,0,0,37543.05078125,775.0,177.0,-1322.0
2.46,0.9766847491264343,-0.0569232776761055,0.5260557532310486,0.0,0.0,0.0,-2.3981471061706543,0.8624429106712341,-1.0110770463943481,0.36949974298477173,0.7281707525253296,0.5265217423439026,36513.0,40073.0,35891.0,37455.0,0,0,0,0,37483.7734375,-2500.0,426.0,-1422.0
2.48,0.9785811305046082,-0.05906876549124718,0.5269442796707153,0.0,0.0,0.0,-2.991349935531616,0.1914372444152832,-1.0430415868759155,0.36947765946388245,0.7281346917152405,0.5273675322532654,36124.0,39052.0,35402.0,38150.0,0,0,0,0,37182.32421875,284.0,-1309.0,-1539.0
2.5,0.9778774380683899,-0.06634467095136642,0.5294367074966431,0.0,0.0,0.0,-3.4758050441741943,-0.5156469345092773,-1.1011931896209717,0.3656741976737976,0.7281857132911682,0.529933512210846,33776.0,41398.0,37710.0,36012.0,0,0,0,0,37224.8984375,159.0,-3699.0,-1555.0
2.52,0.9772157073020935,-0.0698787048459053,0.530383288860321,0.0,0.0,0.0,-3.92500376701355,-1.1361868381500244,-1.1591252088546753,0.36530569195747375,0.7281636595726013,0.5303763151168823,35095.0,40195.0,36769.0,37389.0,0,0,0,0,37362.29296875,1026.0,-1406.0,-1597.0
2.54,0.9767929911613464,-0.07776868343353271,0.5287798047065735,0.0,0.0,0.0,-4.319267272949219,-1.6516056060791016,-1.2137750387191772,0.36634692549705505,0.727848470211029,0.5290655493736267,36039.0,38339.0,36401.0,40501.0,0,0,0,0,37820.86328125,693.0,1327.0,-1529.0
2.56,0.9767665266990662,-0.08043631911277771,0.5293155312538147,0.0,0.0,0.0,-4.767642498016357,-2.2369351387023926,-1.2768051624298096,0.366318941116333,0.7277953624725342,0.5295703411102295,36295.0,39849.0,36119.0,39217.0,0,0,0,0,37870.54296875,-1372.0,-969.0,-1584.0
2.58,0.9777859449386597,-0.0829254761338234,0.5298048853874207,0.0,0.0,0.0,-5.164496421813965,-2.958177328109741,-1.3443779945373535,0.3657110035419464,0.7278029918670654,0.5290907621383667,36647.0,39841.0,36261.0,39499.0,0,0,0,0,38062.64453125,-1905.0,-1916.0,-1577.0
2.6,0.9821444749832153,-0.08440126478672028,0.5305007100105286,0.0,0.0,0.0,-5.412524223327637,-3.6791982650756836,-1.4130994081497192,0.36558255553245544,0.7279571294784546,0.5307366251945496,35755.0,38745.0,36927.0,40085.0,0,0,0,0,37878.41796875,-1414.0,-2680.0,-1599.0
2.62,0.9824416041374207,-0.08402891457080841,0.5309568047523499,0.0,0.0,0.0,-5.5971784591674805,-4.286863803863525,-1.465519666671753,0.3655646741390228,0.7279170155525208,0.5311735272407532,34902.0,39634.0,37618.0,39510.0,0,0,0,0,37916.2734375,-948.0,-3916.0,-1702.0
2.64,0.9844492673873901,-0.08201529085636139,0.5313788056373596,0.0,0.0,0.0,-5.716290473937988,-4.724240303039551,-1.4964697360992432,0.36555325984954834,0.727891206741333,0.5315762758255005,36158.0,40614.0,36828.0,38996.0,0,0,0,0,38149.1640625,-40.0,-73.0,-1611.0
2.66,0.9899260401725769,-0.08234496414661407,0.5304071307182312,0.0,0.0,0.0,-5.747313976287842,-5.100334644317627,-1.52812922000885,0.3647637367248535,0.7275179624557495,0.5272445678710938,37337.0,40241.0,36867.0,40611.0,0,0,0,0,38764.45703125,48.0,-282.0,-1629.0
2.68,0.9935580492019653,-0.07949761301279068,0.5272011160850525,0.0,0.0,0.0,-5.7494611740112305,-5.575169563293457,-1.5469506978988647,0.364755779504776,0.7275054454803467,0.5271660685539246,37843.0,41113.0,36333.0,39791.0,0,0,0,0,38770.48046875,-1328.0,-1712.0,-1734.0
2.7,1.0011019706726074,-0.07636670023202896,0.5271159410476685,0.0,0.0,0.0,-5.642693519592285,-6.062838077545166,-1.57266104221344,0.3647494912147522,0.727507472038269,0.5270912647247314,36682.0,41802.0,37100.0,39276.0,0,0,0,0,38715.59375,-1184.0,-402.0,-1852.0
2.72,1.0150700807571411,-0.0611904002726078,0.5287355184555054,0.0,0.0,0.0,-5.47413969039917,-6.428685665130615,-1.5941916704177856,0.36418387293815613,0.7278708219528198,0.5288461446762085,34188.0,41312.0,38586.0,39142.0,0,0,0,0,38307.0703125,966.0,-2116.0,-1973.0
2.74,1.019426941871643,-0.05606985464692116,0.5289666652679443,0.0,0.0,0.0,-5.167607307434082,-6.4917497634887695,-1.605568528175354,0.36416977643966675,0.7278488278388977,0.5291121006011963,35517.0,40627.0,37145.0,39571.0,0,0,0,0,38215.00390625,-535.0,-1257.0,-1844.0
2.76,1.024359941482544,-0.04929510876536369,0.5292555689811707,0.0,0.0,0.0,-4.837337970733643,-6.452480792999268,-1.6179698705673218,0.364163339138031,0.7278474569320679,0.5297303199768066,34755.0,43777.0,37723.0,35977.0,0,0,0,0,38058.78125,-3616.0,-3942.0,-1868.0
2.78,1.0339183807373047,-0.04328109696507454,0.5284941792488098,0.0,0.0,0.0,-4.352959156036377,-6.495222568511963,-1.6217176914215088,0.3633345663547516,0.7279195189476013,0.5286802649497986,36244.0,40820.0,36304.0,39232.0,0,0,0,0,38150.7890625,-2783.0,-1451.0,-1855.0
2.8,1.0397355556488037,-0.03763440251350403,0.5288814902305603,0.0,0.0,0.0,-3.69486665725708,-6.462504863739014,-1.6183620691299438,0.3633231520652771,0.7279020547866821,0.5291072130203247,35146.0,40608.0,34284.0,36602.0,0,0,0,0,36660.11328125,-1664.0,-925.0,-1929.0
2.82,1.0526421070098877,-0.0288285780698061,0.5368906259536743,0.0,0.0,0.0,-2.9449260234832764,-6.37139368057251,-1.6146388053894043,0.3632013499736786,0.7284892797470093,0.5375118851661682,33224.0,40830.0,35924.0,36262.0,0,0,0,0,36560.6875,-926.0,-3776.0,-1936.0
2.84,1.0612715482711792,-0.01735934242606163,0.5356937646865845,0.0,0.0,0.0,-2.1920089721679688,-6.142430305480957,-1.6150190830230713,0.36195123195648193,0.7286087274551392,0.5362702012062073,34282.0,41134.0,35600.0,36516.0,0,0,0,0,36883.73828125,-1513.0,-2759.0,-1913.0
2.86,1.0723954439163208,-0.010127031244337559,0.5367966890335083,0.0,0.0,0.0,-1.4464412927627563,-5.873266696929932,-1.6189318895339966,0.3619011640548706,0.7285614013671875,0.537327766418457,34979.0,40625.0,35137.0,36851.0,0,0,0,0,36898.328125,-2557.0,-3120.0,-1918.0
2.88,1.0834864377975464,-0.0008383965468965471,0.5378258228302002,0.0,0.0,0.0,-0.646182119846344,-5.5863776206970215,-1.6215441226959229,0.27728909254074097,0.728554904460907,0.5383478999137878,34451.0,40399.0,35461.0,37449.0,0,0,0,0,36940.52734375,-1204.0,-2836.0,-1872.0
2.9,1.0913699865341187,0.012371862307190895,0.5387935042381287,0.0,0.0,0.0,0.13363684713840485,-5.2605743408203125,-1.628901481628418,0.27478039264678955,0.7285852432250977,0.5363407135009766,34468.0,40980.0,36708.0,37776.0,0,0,0,0,37483.26171875,-311.0,-3125.0,-1814.0
2.92,1.1027828454971313,0.02049362286925316,0.5366255640983582,0.0,0.0,0.0,0.9306429028511047,-4.878956317901611,-1.6256877183914185,0.27473869919776917,0.7285598516464233,0.5369358658790588,33873.0,42145.0,37641.0,36565.0,0,0,0,0,37556.89453125,-975.0,-2839.0,-1764.0
2.94,1.116546869277954,0.027522115036845207,0.537166178226471,0.0,0.0,0.0,1.710842251777649,-4.4171528816223145,-1.6192330121994019,0.05287667736411095,0.7285389304161072,0.5374377965927124,36241.0,40233.0,35649.0,38297.0,0,0,0,0,37605.33203125,-2041.0,-457.0,-1657.0
2.96,1.1260614395141602,0.03357398509979248,0.537726640701294,0.0,0.0,0.0,2.4813647270202637,-3.948779344558716,-1.6083455085754395,0.052904389798641205,0.7285400629043579,0.537972629070282,36783.0,41385.0,35563.0,38345.0,0,0,0,0,38019.19921875,-2364.0,-1530.0,-1683.0
2.98,1.1323912143707275,0.04220561683177948,0.5356994867324829,0.0,0.0,0.0,3.2265820503234863,-3.5950984954833984,-1.5941005945205688,0.050890032202005386,0.7285692095756531,0.5358229279518127,36453.0,40233.0,35225.0,37749.0,0,0,0,0,37415.13671875,-2433.0,48.0,-1561.0
3.0,1.1433234214782715,0.04523136094212532,0.5391084551811218,0.0,0.0,0.0,3.9762046337127686,-3.319971799850464,-1.54320228099823,0.04427635669708252,0.7286863327026367,0.5394710898399353,36055.0,42063.0,35713.0,36025.0,0,0,0,0,37464.80078125,-2819.0,-2467.0,-1534.0
3.02,1.1503678560256958,0.045430418103933334,0.5398322343826294,0.0,0.0,0.0,4.642523288726807,-2.973212242126465,-1.5088778734207153,0.044336218386888504,0.7287055253982544,0.5401030778884888,34925.0,43209.0,38197.0,35481.0,0,0,0,0,37953.17578125,-1371.0,-5003.0,-1410.0
3.04,1.1608374118804932,0.05139712989330292,0.5373039841651917,0.0,0.0,0.0,5.200075626373291,-2.5233755111694336,-1.503043532371521,0.03959906846284866,0.728857696056366,0.5425547957420349,35285.0,39951.0,35775.0,36773.0,0,0,0,0,36946.4296875,-723.0,-2184.0,-1451.0
3.06,1.1696367263793945,0.051507581025362015,0.5430645942687988,0.0,0.0,0.0,5.705855846405029,-2.0114102363586426,-1.4338501691818237,0.03966400772333145,0.7288811206817627,0.5434744358062744,36080.0,41576.0,35004.0,35388.0,0,0,0,0,37012.70703125,-3356.0,-2712.0,-1525.0
3.08,1.17926824092865,0.051923636347055435,0.5439163446426392,0.0,0.0,0.0,6.020915985107422,-1.7554577589035034,-1.389382243156433,0.039705000817775726,0.7288942337036133,0.5442682504653931,36487.0,42831.0,34431.0,34959.0,0,0,0,0,37177.8046875,-3675.0,-4729.0,-1453.0
3.1,1.187195897102356,0.05398966744542122,0.5408429503440857,0.0,0.0,0.0,6.2757439613342285,-1.6393581628799438,-1.3601304292678833,0.03736770898103714,0.7289044260978699,0.5409731864929199,35492.0,40176.0,35850.0,36358.0,0,0,0,0,36969.625,-1209.0,-2486.0,-1358.0
3.12,1.193388819694519,0.05358179658651352,0.5460014939308167,0.0,0.0,0.0,6.488372802734375,-1.4356772899627686,-1.2875069379806519,0.03653615340590477,0.7290540933609009,0.5463601350784302,34626.0,39908.0,37088.0,37078.0,0,0,0,0,37175.22265625,140.0,-2805.0,-1295.0
3.14,1.203431487083435,0.05377238616347313,0.5466213822364807,0.0,0.0,0.0,6.509658336639404,-1.245404601097107,-1.2402622699737549,0.03652944415807724,0.7290520071983337,0.5468441843986511,33942.0,40124.0,38230.0,37296.0,0,0,0,0,37398.1640625,414.0,-3665.0,-1288.0
3.16,1.2109215259552002,0.05554499104619026,0.5481634140014648,0.0,0.0,0.0,6.353128433227539,-0.8851515650749207,-1.209005355834961,0.03408003970980644,0.7290940880775452,0.5445259809494019,34012.0,41334.0,39256.0,37034.0,0,0,0,0,37909.05078125,80.0,-4826.0,-1346.0
3.18,1.2185171842575073,0.05582882836461067,0.5445782542228699,0.0,0.0,0.0,6.107728481292725,-0.47704824805259705,-1.1863130331039429,0.03410054370760918,0.7290979623794556,0.5445540547370911,36038.0,41084.0,37596.0,37714.0,0,0,0,0,38108.2265625,-1238.0,-4346.0,-1329.0
3.2,1.2273876667022705,0.054329272359609604,0.5445133447647095,0.0,0.0,0.0,5.799966812133789,-0.10682009160518646,-1.156760334968567,0.03411426022648811,0.7290908694267273,0.5442663431167603,35469.0,41721.0,38617.0,37437.0,0,0,0,0,38311.8671875,-635.0,-4091.0,-1243.0
3.22,1.2351486682891846,0.051659468561410904,0.5441502332687378,0.0,0.0,0.0,5.467784881591797,0.20726145803928375,-1.1239912509918213,0.03412240371108055,0.7290821671485901,0.5439879894256592,37984.0,42210.0,37254.0,37776.0,0,0,0,0,38806.49609375,-3916.0,-4063.0,-1239.0
3.24,1.242247223854065,0.050053469836711884,0.5407915115356445,0.0,0.0,0.0,5.144674301147461,0.5324410796165466,-1.088219404220581,0.032367855310440063,0.7290838360786438,0.540509819984436,36322.0,43050.0,38950.0,37218.0,0,0,0,0,38885.0546875,-602.0,-3007.0,-1273.0
3.26,1.2502566576004028,0.04731903597712517,0.5388126373291016,0.0,0.0,0.0,4.782723903656006,0.8048484921455383,-1.044448971748352,0.03245071694254875,0.7290444374084473,0.5384429693222046,35518.0,41996.0,40128.0,39118.0,0,0,0,0,39190.3671875,1412.0,-2644.0,-1346.0
3.28,1.2562898397445679,0.048190150409936905,0.5381320714950562,0.0,0.0,0.0,4.1171441078186035,1.0694845914840698,-0.9950157999992371,0.03248191624879837,0.7290557622909546,0.537777841091156,35259.0,41013.0,40481.0,39579.0,0,0,0,0,39083.703125,2089.0,-1740.0,-1278.0
3.3,1.2645865678787231,0.03936512768268585,0.5379188060760498,0.0,0.0,0.0,3.3261938095092773,1.3366423845291138,-0.9585606455802917,0.03271140903234482,0.7290009260177612,0.5376235842704773,36959.0,43917.0,39327.0,37093.0,0,0,0,0,39324.65234375,-1059.0,-3460.0,-1225.0
3.32,1.2740845680236816,0.03682693466544151,0.5356056690216064,0.0,0.0,0.0,2.5063562393188477,1.5793958902359009,-0.9313561916351318,0.03290415555238724,0.7289648652076721,0.5352766513824463,38047.0,42899.0,38413.0,37369.0,0,0,0,0,39182.01171875,-3023.0,-2326.0,-1117.0
3.34,1.27769935131073,0.03451421484351158,0.5350085496902466,0.0,0.0,0.0,1.8093825578689575,1.950899362564087,-0.882519006729126,0.032904136925935745,0.728950560092926,0.5347585678100586,35652.0,40244.0,39140.0,38276.0,0,0,0,0,38328.40234375,223.0,-2866.0,-1113.0
3.36,1.287315011024475,0.03272325173020363,0.5398969650268555,0.0,0.0,0.0,1.012897253036499,2.207763433456421,-0.8227208256721497,0.03544671833515167,0.7289314270019531,0.5399001836776733,35656.0,40430.0,38508.0,37846.0,0,0,0,0,38110.75,482.0,-2373.0,-979.0
3.38,1.2967708110809326,0.025117166340351105,0.5367605090141296,0.0,0.0,0.0,0.045806221663951874,2.3581907749176025,-0.7555917501449585,0.03582366928458214,0.7288489937782288,0.5366572737693787,36702.0,40878.0,38606.0,38230.0,0,0,0,0,38604.03515625,-36.0,-2637.0,-999.0
3.4,1.3042540550231934,0.02107091434299946,0.5365707874298096,0.0,0.0,0.0,-0.9847755432128906,2.481684446334839,-0.702968955039978,0.035805217921733856,0.7288287878036499,0.5365198850631714,36615.0,41657.0,38521.0,37223.0,0,0,0,0,38504.05078125,-369.0,-2550.0,-947.0
3.42,1.308798909187317,0.016995076090097427,0.5344560742378235,0.0,0.0,0.0,-1.9697260856628418,2.638841152191162,-0.6257116198539734,0.03490368649363518,0.7288060188293457,0.5343846678733826,38429.0,42965.0,38153.0,35297.0,0,0,0,0,38711.703125,-4657.0,-4121.0,-749.0
3.44,1.3156288862228394,0.014663221314549446,0.5320334434509277,0.0,0.0,0.0,-2.7743303775787354,2.7371561527252197,-0.5414524674415588,0.03526816517114639,0.7287684679031372,0.5318564772605896,36900.0,40560.0,40156.0,38860.0,0,0,0,0,39119.9921875,-78.0,-2565.0,-698.0
3.46,1.3239213228225708,0.012161340564489365,0.5316929221153259,0.0,0.0,0.0,-3.570523500442505,2.7781662940979004,-0.45583608746528625,0.035262301564216614,0.7287623286247253,0.5315548777580261,36500.0,41080.0,40550.0,37942.0,0,0,0,0,39018.9453125,551.0,-4693.0,-730.0
3.48,1.3289839029312134,0.005912131164222956,0.528934121131897,0.0,0.0,0.0,-4.4592132568359375,2.8224422931671143,-0.3633667230606079,0.03421271592378616,0.7287346124649048,0.5287638902664185,37362.0,40360.0,40062.0,39208.0,0,0,0,0,39248.38671875,391.0,-1331.0,-614.0
3.5,1.3348289728164673,0.001231547212228179,0.5291551947593689,0.0,0.0,0.0,-5.359702110290527,2.864797353744507,-0.28610265254974365,0.03408384323120117,0.7287095189094543,0.529081404209137,37736.0,40916.0,39288.0,37972.0,0,0,0,0,38978.66796875,-680.0,-2688.0,-551.0
3.52,1.339532494544983,-0.0005631103995256126,0.5290243029594421,0.0,0.0,0.0,-6.106405735015869,2.901857376098633,-0.1991662085056305,0.03405845910310745,0.7286844849586487,0.5290228724479675,38805.0,41433.0,38093.0,36977.0,0,0,0,0,38827.41796875,-114.0,-2589.0,-161.0
3.54,1.3424161672592163,-0.0011455001076683402,0.5263366103172302,0.0,0.0,0.0,-6.665848255157471,2.936157703399658,-0.09967920184135437,0.033002857118844986,0.7286706566810608,0.5262941718101501,37273.0,40657.0,40147.0,37859.0,0,0,0,0,38984.7578125,1042.0,-2493.0,-318.0
3.56,1.3507379293441772,-0.003982928115874529,0.5268839597702026,0.0,0.0,0.0,-7.191671371459961,2.8796844482421875,-0.020532090216875076,0.03289484232664108,0.7286735773086548,0.5269303321838379,36905.0,40747.0,40153.0,37723.0,0,0,0,0,38882.7421875,78.0,-1800.0,-369.0
3.58,1.3563759326934814,-0.004807626828551292,0.5269867777824402,0.0,0.0,0.0,-7.8351240158081055,2.821895122528076,0.06118288263678551,0.03287835046648979,0.7286577224731445,0.5270736813545227,36915.0,39935.0,40065.0,38277.0,0,0,0,0,38798.66796875,226.0,-2093.0,-555.0
3.6,1.3612796068191528,-0.007913582026958466,0.5291489362716675,0.0,0.0,0.0,-8.417596817016602,2.764833688735962,0.11707622557878494,0.032654326409101486,0.7286492586135864,0.5293982028961182,37356.0,40664.0,39638.0,37502.0,0,0,0,0,38790.1640625,-1541.0,-3075.0,-209.0
3.62,1.3644628524780273,-0.007928110659122467,0.5259625911712646,0.0,0.0,0.0,-8.887959480285645,2.703031539916992,0.20514290034770966,0.031002623960375786,0.7286608219146729,0.5261196494102478,38694.0,41254.0,38516.0,36336.0,0,0,0,0,38700.0859375,-2547.0,-2270.0,-61.0
3.64,1.3697154521942139,-0.007987177930772305,0.5262923240661621,0.0,0.0,0.0,-9.087419509887695,2.6431541442871094,0.28578484058380127,0.030904442071914673,0.7286549210548401,0.5272562503814697,37241.0,39069.0,39491.0,38071.0,0,0,0,0,38468.44140625,-65.0,-3288.0,-146.0
3.66,1.3761792182922363,-0.004864139948040247,0.5274947881698608,0.0,0.0,0.0,-9.227972984313965,2.4709694385528564,0.35295426845550537,0.030897347256541252,0.7286494970321655,0.5277529954910278,36582.0,40706.0,41486.0,38642.0,0,0,0,0,39354.78125,681.0,-2176.0,-312.0
3.68,1.3811219930648804,-0.002162225777283311,0.5215283632278442,0.0,0.0,0.0,-9.509750366210938,2.278989315032959,0.4312884509563446,0.028353897854685783,0.7287031412124634,0.5215546488761902,37632.0,42000.0,40338.0,37426.0,0,0,0,0,39349.734375,-220.0,-928.0,-896.0
3.7,1.3867111206054688,2.2569927750737406e-05,0.5258083343505859,0.0,0.0,0.0,-9.765812873840332,2.134748697280884,0.42208805680274963,0.027828967198729515,0.7287222146987915,0.5261163115501404,37844.0,39466.0,38274.0,37796.0,0,0,0,0,38345.80859375,847.0,-27.0,-268.0
3.72,1.3903560638427734,0.0014113372890278697,0.5264556407928467,0.0,0.0,0.0,-9.816341400146484,2.0515265464782715,0.43821853399276733,0.02782474271953106,0.7287160158157349,0.5268099308013916,37055.0,40763.0,38901.0,36037.0,0,0,0,0,38189.59375,-2607.0,-352.0,-272.0
3.74,1.394242525100708,0.008215152658522129,0.5271364450454712,0.0,0.0,0.0,-9.713862419128418,1.9578319787979126,0.4721394181251526,0.02778429165482521,0.8544521331787109,0.5275329351425171,37088.0,38110.0,38920.0,38338.0,0,0,0,0,38114.59375,1245.0,-1877.0,-558.0
3.76,1.402455449104309,0.01784832403063774,0.5278769731521606,0.0,0.0,0.0,-9.562363624572754,1.8461467027664185,0.5093620419502258,0.027621811255812645,0.8565999269485474,0.531080424785614,35308.0,38262.0,38936.0,37674.0,0,0,0,0,37545.2421875,439.0,-1271.0,-417.0
3.78,1.4052097797393799,0.024409785866737366,0.5316047668457031,0.0,0.0,0.0,-9.491006851196289,1.7372254133224487,0.5077865719795227,0.027622312307357788,0.8566082715988159,0.5322093963623047,35877.0,39653.0,38213.0,36273.0,0,0,0,0,37504.11328125,-639.0,-2576.0,-389.0
3.8,1.4098567962646484,0.028036708012223244,0.5327742099761963,0.0,0.0,0.0,-9.357151985168457,1.6953604221343994,0.5140988230705261,0.027619479224085808,2.9331746101379395,0.5333214998245239,37122.0,39682.0,37000.0,36188.0,0,0,0,0,37498.88671875,-835.0,-2275.0,-421.0
3.82,1.412923812866211,0.035631656646728516,0.5338289737701416,0.0,0.0,0.0,-9.057249069213867,1.708341121673584,0.5285224318504333,0.02758113108575344,2.9337546825408936,0.5350616574287415,37913.0,40567.0,36197.0,34979.0,0,0,0,0,37414.52734375,-4151.0,-3533.0,-410.0
3.84,1.4161573648452759,0.04403288662433624,0.5355673432350159,0.0,0.0,0.0,-8.560952186584473,1.7039005756378174,0.5375066995620728,0.027554932981729507,2.933727741241455,0.5360792875289917,36694.0,39390.0,37580.0,36240.0,0,0,0,0,37476.67578125,-1117.0,-1867.0,-383.0
3.86,1.4179872274398804,0.05201820284128189,0.5359612703323364,0.0,0.0,0.0,-7.96469259262085,1.7161381244659424,0.5378237366676331,0.027498016133904457,2.9440932273864746,0.536378800868988,36324.0,38208.0,38730.0,38514.0,0,0,0,0,37944.2890625,-1430.0,-1931.0,-458.0
3.88,1.420611023902893,0.058983996510505676,0.5354845523834229,0.0,0.0,0.0,-7.482807159423828,1.683959722518921,0.5342311859130859,0.02750285528600216,2.9430882930755615,0.5357555747032166,36118.0,41106.0,39068.0,35976.0,0,0,0,0,38067.23828125,-540.0,-2832.0,-450.0
3.9,1.4219435453414917,0.06983529776334763,0.5359799265861511,0.0,0.0,0.0,-7.118899822235107,1.616744041442871,0.5225124955177307,0.02744520641863346,2.943051815032959,0.5362228751182556,36848.0,39936.0,38314.0,37306.0,0,0,0,0,38101.49609375,-1349.0,-625.0,-548.0
3.92,1.4266750812530518,0.07961297035217285,0.5364640951156616,0.0,0.0,0.0,-6.645300388336182,1.5724492073059082,0.5193129777908325,0.027476578950881958,2.940474271774292,0.5371710658073425,38364.0,41290.0,36688.0,35266.0,0,0,0,0,37902.01171875,-4761.0,-3021.0,-453.0
3.94,1.4281930923461914,0.09058712422847748,0.5379877090454102,0.0,0.0,0.0,-6.060096740722656,1.5287492275238037,0.5012944936752319,0.027447685599327087,2.9408299922943115,0.5382623076438904,37813.0,39467.0,36949.0,37303.0,0,0,0,0,37883.58203125,140.0,-33.0,-492.0
3.96,1.4293359518051147,0.10228929668664932,0.5384823083877563,0.0,0.0,0.0,-5.400040626525879,1.4712555408477783,0.4924076199531555,0.027401193976402283,2.940782070159912,0.5387520790100098,36048.0,39340.0,38428.0,37620.0,0,0,0,0,37859.734375,-553.0,-1855.0,-609.0
3.98,1.4315190315246582,0.11093319952487946,0.539074182510376,0.0,0.0,0.0,-4.85377311706543,1.3824321031570435,0.4771784543991089,0.02738344855606556,2.939469337463379,0.5363564491271973,37588.0,39410.0,37690.0,38356.0,0,0,0,0,38261.1484375,-262.0,-1748.0,-553.0
4.0,1.432637095451355,0.12376708537340164,0.5367518663406372,0.0,0.0,0.0,-4.430368900299072,1.3101615905761719,0.45065584778785706,0.027340635657310486,2.9379963874816895,0.5369112491607666,38066.0,40658.0,37232.0,36904.0,0,0,0,0,38215.27734375,-1742.0,-366.0,-565.0
4.02,1.433151364326477,0.1322668194770813,0.5371283292770386,0.0,0.0,0.0,-3.8712515830993652,1.2471654415130615,0.4263902008533478,0.027353689074516296,2.9376885890960693,0.5365005731582642,39796.0,42746.0,35906.0,34836.0,0,0,0,0,38321.62890625,-4220.0,-2185.0,-470.0
4.04,1.437006950378418,0.14365322887897491,0.5366546511650085,0.0,0.0,0.0,-3.2209646701812744,1.1034126281738281,0.41913798451423645,0.027371378615498543,2.937706708908081,0.5367926955223083,38198.0,39482.0,36784.0,37536.0,0,0,0,0,38000.046875,-1526.0,-1569.0,-535.0
4.06,1.4378516674041748,0.15396369993686676,0.5382762551307678,0.0,0.0,0.0,-2.5130600929260254,0.9760684370994568,0.4149229824542999,0.027432424947619438,2.9343063831329346,0.5385122299194336,35185.0,38749.0,39153.0,38745.0,0,0,0,0,37958.4609375,102.0,-2805.0,-546.0
4.08,1.4379212856292725,0.16700762510299683,0.5357571840286255,0.0,0.0,0.0,-2.026315689086914,0.8844178915023804,0.40381941199302673,0.027340753003954887,2.9331107139587402,0.5358527302742004,37390.0,40696.0,37864.0,37826.0,0,0,0,0,38444.546875,-2309.0,-3400.0,-599.0
4.1,1.440490961074829,0.17521236836910248,0.5360485315322876,0.0,0.0,0.0,-1.6504040956497192,0.8516286015510559,0.3928910195827484,0.027408242225646973,2.9331822395324707,0.5361694097518921,37280.0,41668.0,36964.0,35516.0,0,0,0,0,37857.93359375,-1973.0,-1611.0,-588.0
4.12,1.4430584907531738,0.18806494772434235,0.5387747883796692,0.0,0.0,0.0,-1.146769642829895,0.8268269300460815,0.39510735869407654,0.027481088414788246,2.9289047718048096,0.5390675663948059,39054.0,41274.0,35122.0,35762.0,0,0,0,0,37803.9765625,-5265.0,-1082.0,-511.0
4.14,1.444344401359558,0.19833049178123474,0.5373424291610718,0.0,0.0,0.0,-0.5591217875480652,0.8058590888977051,0.3817937672138214,0.027475370094180107,2.9282543659210205,0.5375477075576782,37912.0,42226.0,36994.0,35272.0,0,0,0,0,38101.08984375,-1538.0,-1472.0,-557.0
4.16,1.44637930393219,0.20781032741069794,0.5378162860870361,0.0,0.0,0.0,0.010473708622157574,0.7290852069854736,0.3846192955970764,0.027513304725289345,2.9282946586608887,0.5380319356918335,36565.0,39445.0,37739.0,36831.0,0,0,0,0,37645.4296875,-1427.0,-370.0,-548.0
4.18,1.4490649700164795,0.22122588753700256,0.540249228477478,0.0,0.0,0.0,0.36876580119132996,0.659538745880127,0.40062054991722107,0.027544084936380386,2.9256093502044678,0.5405882596969604,36803.0,39841.0,37125.0,36727.0,0,0,0,0,37624.5,-2556.0,-2849.0,-760.0
4.2,1.4506922960281372,0.23075254261493683,0.5378204584121704,0.0,0.0,0.0,0.5640166401863098,0.6049800515174866,0.3928613066673279,0.027547752484679222,2.924764394760132,0.5379790663719177,37882.0,40746.0,37324.0,36876.0,0,0,0,0,38207.0390625,-3368.0,-2988.0,-540.0
4.22,1.45314359664917,0.2416115701198578,0.5381539463996887,0.0,0.0,0.0,0.7826151251792908,0.5515389442443848,0.39362475275993347,0.027566108852624893,2.92478346824646,0.5382912158966064,39387.0,44215.0,36677.0,32693.0,0,0,0,0,38243.32421875,-5357.0,-3829.0,-553.0
4.24,1.4540534019470215,0.25207021832466125,0.5410502552986145,0.0,0.0,0.0,1.1184195280075073,0.5674957036972046,0.41046661138534546,0.027605421841144562,2.9221365451812744,0.5413451790809631,36741.0,40375.0,38127.0,35505.0,0,0,0,0,37687.9453125,-1182.0,-2895.0,-467.0
4.26,1.4586849212646484,0.26541733741760254,0.5416760444641113,0.0,0.0,0.0,1.4069792032241821,0.5743504166603088,0.4275699555873871,0.027614129707217216,2.9215216636657715,0.5390892028808594,36917.0,39703.0,37677.0,38367.0,0,0,0,0,38166.98046875,114.0,-750.0,-632.0
4.28,1.4625767469406128,0.2729824483394623,0.5394600033760071,0.0,0.0,0.0,1.4754670858383179,0.5568215847015381,0.4211081266403198,0.02766639180481434,2.9215750694274902,0.5394600033760071,37536.0,41318.0,37138.0,36676.0,0,0,0,0,38167.38671875,-1109.0,-847.0,-703.0
4.3,1.4638336896896362,0.2852017879486084,0.5418765544891357,0.0,0.0,0.0,1.3919464349746704,0.5093246102333069,0.4083353877067566,0.02767307311296463,2.9197404384613037,0.5418765544891357,36263.0,41135.0,37307.0,36047.0,0,0,0,0,37688.48828125,-2142.0,-2623.0,-741.0
4.32,1.4657989740371704,0.2949867844581604,0.5424474477767944,0.0,0.0,0.0,1.4042061567306519,0.5271344780921936,0.38965582847595215,0.02768421731889248,2.919313430786133,0.5405640006065369,38137.0,42243.0,35617.0,36059.0,0,0,0,0,38014.9296875,-3211.0,-1530.0,-709.0
4.34,1.4708174467086792,0.3036178648471832,0.5407827496528625,0.0,0.0,0.0,1.5114096403121948,0.592362105846405,0.35792577266693115,0.027721086516976357,2.9193508625030518,0.540948748588562,37677.0,40337.0,36377.0,37617.0,0,0,0,0,38002.45703125,-796.0,-601.0,-718.0
4.36,1.472620964050293,0.3134194612503052,0.5411317944526672,0.0,0.0,0.0,1.5681706666946411,0.6517593860626221,0.3391875922679901,0.027737203985452652,2.9174978733062744,0.5436066389083862,35457.0,40655.0,37069.0,36663.0,0,0,0,0,37461.96875,-1157.0,-1861.0,-876.0
4.38,1.4747637510299683,0.32367637753486633,0.5442593693733215,0.0,0.0,0.0,1.4085617065429688,0.6619001626968384,0.322706937789917,0.02774219773709774,2.9168763160705566,0.5410498976707458,37104.0,40898.0,35852.0,38282.0,0,0,0,0,38034.56640625,-1475.0,-990.0,-895.0
4.4,1.4776594638824463,0.33219024538993835,0.5413594245910645,0.0,0.0,0.0,1.1512008905410767,0.6957067251205444,0.27365511655807495,0.027754919603466988,2.916889190673828,0.5413594245910645,37540.0,40772.0,35738.0,38018.0,0,0,0,0,38017.48828125,-1846.0,-57.0,-981.0
