time,x_kalman,y_kalman,z_kalman,x_lh,y_lh,z_lh,roll,pitch,yaw,F,R,Z,motor.m1,motor.m2,motor.m3,motor.m4,rpm.m1,rpm.m2,rpm.m3,rpm.m4,controller.cmd_thrust,controller.cmd_roll,controller.cmd_pitch,controller.cmd_yaw
0.0,0.00040499921306036413,-0.0011138591216877103,0.018736299127340317,0.0,0.0,0.0,-1.6846814155578613,-0.25280866026878357,-0.012013578787446022,0.003428615862503648,2.889697551727295,0.01873902603983879,54264.0,53788.0,55424.0,55252.0,0,0,0,0,54682.23828125,3301.0,-673.0,210.0
0.02,0.0001557259092805907,-0.00227161287330091,0.018744833767414093,0.0,0.0,0.0,-1.6398162841796875,-0.25111788511276245,-0.013560255989432335,0.0034259886015206575,2.8896961212158203,0.018740901723504066,54453.0,54079.0,53357.0,53995.0,0,0,0,0,53971.80859375,599.0,369.0,-82.0
0.039,0.00020710357057396322,-0.0017455705674365163,0.024862006306648254,0.0,0.0,0.0,-1.7011010646820068,-0.24464721977710724,-0.01862983964383602,0.004186325240880251,2.8889522552490234,0.023443123325705528,55693.0,61157.0,52935.0,48619.0,0,0,0,0,54601.0,-6980.0,-7632.0,-321.0
0.059,0.0005011024186387658,-0.002275479957461357,0.023979194462299347,0.0,0.0,0.0,-1.589080572128296,-0.2787717580795288,-0.039549898356199265,0.004192032385617495,2.8889553546905518,0.02398846670985222,50262.0,61382.0,57308.0,48624.0,0,0,0,0,54394.24609375,-2739.0,-8685.0,-693.0
0.079,0.0001429908152204007,-0.0025642842520028353,0.025037791579961777,0.0,0.0,0.0,-1.0686800479888916,0.042689550668001175,-0.08537521958351135,0.00419660285115242,2.888957977294922,0.025047656148672104,50843.0,54239.0,52745.0,51957.0,0,0,0,0,52446.7734375,685.0,-2440.0,-617.0
0.099,-0.0016277426620945334,-0.00603107875213027,0.025259869173169136,0.0,0.0,0.0,-0.49528026580810547,0.6872218251228333,-0.17314757406711578,0.004505797289311886,2.888669967651367,0.025252413004636765,48204.0,53722.0,51688.0,48242.0,0,0,0,0,50464.46484375,-1601.0,-6516.0,-536.0
0.119,-0.0018249360146000981,-0.00443933205679059,0.029880205169320107,0.0,0.0,0.0,-0.3731827735900879,0.8749539852142334,-0.2462156116962433,0.004505989607423544,2.8886702060699463,0.029866626486182213,42461.0,53457.0,50129.0,43137.0,0,0,0,0,47296.140625,-177.0,-10638.0,-1077.0
0.139,-0.01087111048400402,-0.011168570257723331,0.0367715023458004,0.0,0.0,0.0,0.1211184412240982,1.4686977863311768,-0.3307948708534241,0.03652128577232361,2.8886425495147705,0.03652128577232361,44083.0,49217.0,43213.0,42623.0,0,0,0,0,44784.50390625,-4189.0,-669.0,-1012.0
0.159,-0.018029050901532173,-0.02274583838880062,0.04110855981707573,0.0,0.0,0.0,0.6107563376426697,2.111820697784424,-0.4808862805366516,0.031626373529434204,2.888899326324463,0.04080994427204132,38257.0,43185.0,42381.0,42485.0,0,0,0,0,41577.4375,1424.0,-3032.0,-933.0
0.179,-0.02223089523613453,-0.021145183593034744,0.05283898860216141,0.0,0.0,0.0,0.3699285089969635,2.0114104747772217,-0.6005188226699829,0.03179051727056503,2.8889174461364746,0.05248304456472397,33333.0,42711.0,41541.0,38115.0,0,0,0,0,38925.1796875,2393.0,-6688.0,-1436.0
0.199,-0.02744806371629238,-0.018430711701512337,0.06632271409034729,0.0,0.0,0.0,-0.16713905334472656,1.661962866783142,-0.7223275899887085,0.03132234886288643,2.8889729976654053,0.06658601015806198,33900.0,40274.0,36792.0,37762.0,0,0,0,0,37182.3984375,-482.0,-3792.0,-2154.0
0.219,-0.03511775657534599,-0.020401999354362488,0.07376258820295334,0.0,0.0,0.0,-0.5776339769363403,1.3605785369873047,-0.8883370757102966,0.024819551035761833,2.888949394226074,0.07223717868328094,35002.0,39896.0,34294.0,36684.0,0,0,0,0,36469.50390625,-2322.0,-854.0,-1796.0
0.239,-0.04128070920705795,-0.028657246381044388,0.08831793069839478,0.0,0.0,0.0,-0.6864318251609802,0.8381038308143616,-1.1065632104873657,0.023487621918320656,2.889066457748413,0.08934678137302399,34417.0,37105.0,32637.0,37177.0,0,0,0,0,35334.4921875,-1533.0,106.0,-1633.0
0.259,-0.0414375476539135,-0.03268631920218468,0.10438705235719681,0.0,0.0,0.0,-0.8053417205810547,-0.13005486130714417,-1.2939531803131104,0.023533998057246208,2.8890719413757324,0.10448697209358215,33348.0,36142.0,32104.0,36794.0,0,0,0,0,34597.328125,-15.0,1105.0,-2183.0
0.279,-0.0447106808423996,-0.032643988728523254,0.12596552073955536,0.0,0.0,0.0,-1.0937033891677856,-1.1402816772460938,-1.4399504661560059,0.01937040686607361,2.889572858810425,0.12051346153020859,32718.0,35562.0,31392.0,36136.0,0,0,0,0,33952.35546875,-183.0,669.0,-2112.0
0.299,-0.041227977722883224,-0.03450608626008034,0.1359892189502716,0.0,0.0,0.0,-1.357224702835083,-2.306414842605591,-1.6016792058944702,0.01971624791622162,2.88962459564209,0.1361258327960968,31208.0,36840.0,32574.0,34542.0,0,0,0,0,33791.15234375,-233.0,-1300.0,-1820.0
0.32,-0.039804864674806595,-0.037559542804956436,0.15097305178642273,0.0,0.0,0.0,-1.6042163372039795,-3.142568826675415,-1.7441997528076172,0.01976010948419571,2.889763593673706,0.1555097997188568,29955.0,36147.0,32257.0,33457.0,0,0,0,0,32954.078125,-1126.0,-2477.0,-1765.0
0.339,-0.04260757938027382,-0.03669946640729904,0.17023786902427673,0.0,0.0,0.0,-2.0043981075286865,-3.519556760787964,-1.849051594734192,0.019802415743470192,2.9412577152252197,0.17025750875473022,30327.0,35233.0,32469.0,34587.0,0,0,0,0,33154.6953125,476.0,-2197.0,-1823.0
0.359,-0.04534800723195076,-0.03687649592757225,0.1842910796403885,0.0,0.0,0.0,-2.3486757278442383,-3.657622814178467,-1.9204767942428589,0.01980280503630638,2.941277503967285,0.1843009889125824,29542.0,35126.0,31928.0,33588.0,0,0,0,0,32546.341796875,-262.0,-3086.0,-1806.0
0.379,-0.046409014612436295,-0.03579439967870712,0.2031642645597458,0.0,0.0,0.0,-2.7026169300079346,-3.7511520385742188,-1.9764927625656128,0.0203239843249321,2.945777177810669,0.2031535506248474,30462.0,35250.0,31984.0,34036.0,0,0,0,0,32933.6484375,166.0,-1511.0,-1752.0
0.399,-0.04734591767191887,-0.03544042631983757,0.216133713722229,0.0,0.0,0.0,-2.9309847354888916,-3.7844462394714355,-2.018096685409546,0.020201437175273895,2.9456379413604736,0.21602576971054077,30332.0,35988.0,33072.0,34212.0,0,0,0,0,33401.3984375,-519.0,-1452.0,-1713.0
0.42,-0.05091951787471771,-0.03540172427892685,0.22883732616901398,0.0,0.0,0.0,-3.0400569438934326,-3.7564306259155273,-2.043461322784424,0.01939273811876774,2.937469244003296,0.222477987408638,33429.0,37251.0,33325.0,36275.0,0,0,0,0,35070.01953125,-165.0,108.0,-1690.0
0.439,-0.051014140248298645,-0.03539595007896423,0.2332099974155426,0.0,0.0,0.0,-3.030324935913086,-3.840590000152588,-2.0630412101745605,0.01939273811876774,2.937469244003296,0.2332099974155426,34437.0,38895.0,33683.0,36001.0,0,0,0,0,35754.0,-2110.0,-1020.0,-1557.0
0.459,-0.05173752084374428,-0.03466806188225746,0.2430114448070526,0.0,0.0,0.0,-2.938298225402832,-3.9027886390686035,-2.084197998046875,0.019364582374691963,2.9374372959136963,0.24304330348968506,33977.0,40311.0,35673.0,36163.0,0,0,0,0,36531.46875,-811.0,-3055.0,-2327.0
0.479,-0.05209515988826752,-0.034237395972013474,0.2512040436267853,0.0,0.0,0.0,-2.7770891189575195,-3.9682531356811523,-2.0978124141693115,0.01887614093720913,2.939640522003174,0.250883549451828,34896.0,40948.0,37108.0,37720.0,0,0,0,0,37668.87890625,-559.0,-2379.0,-1707.0
0.499,-0.05163159966468811,-0.029901228845119476,0.25558310747146606,0.0,0.0,0.0,-2.7344472408294678,-3.958603620529175,-2.130446672439575,0.018191048875451088,2.937272310256958,0.2554590106010437,36662.0,40708.0,36252.0,39030.0,0,0,0,0,38163.43359375,-853.0,-1084.0,-1600.0
0.519,-0.05019816383719444,-0.02901466004550457,0.26281872391700745,0.0,0.0,0.0,-2.5194251537323,-3.903852939605713,-2.1219658851623535,0.01816648431122303,2.9372451305389404,0.2628120183944702,36145.0,42979.0,37609.0,37407.0,0,0,0,0,38535.703125,-1858.0,-4048.0,-1638.0
0.54,-0.04822622239589691,-0.027517929673194885,0.27038171887397766,0.0,0.0,0.0,-2.2481436729431152,-3.7833375930786133,-2.1171302795410156,0.018399445340037346,2.936537742614746,0.27181771397590637,36683.0,41749.0,36499.0,38509.0,0,0,0,0,38360.453125,-1409.0,-1628.0,-1755.0
0.56,-0.046632684767246246,-0.02627098746597767,0.2785475552082062,0.0,0.0,0.0,-1.9162304401397705,-3.5837621688842773,-2.1054930686950684,0.018279418349266052,2.9363999366760254,0.2784465551376343,35989.0,41015.0,37501.0,39367.0,0,0,0,0,38468.09375,40.0,-1811.0,-1686.0
0.58,-0.044073883444070816,-0.024391919374465942,0.2848692536354065,0.0,0.0,0.0,-1.6191821098327637,-3.360867500305176,-2.1087305545806885,0.01815597526729107,2.9362568855285645,0.2847919464111328,35114.0,42852.0,38210.0,37816.0,0,0,0,0,38498.41015625,-445.0,-4065.0,-1744.0
0.6,-0.04138651490211487,-0.022866275161504745,0.2900373339653015,0.0,0.0,0.0,-1.344614863395691,-3.0827605724334717,-2.1069440841674805,0.01791948638856411,2.9357094764709473,0.2899560034275055,36422.0,42468.0,37560.0,38798.0,0,0,0,0,38812.6953125,-1929.0,-2562.0,-1894.0
0.62,-0.03811582550406456,-0.021921060979366302,0.29516375064849854,0.0,0.0,0.0,-1.0481295585632324,-2.755784034729004,-2.106553792953491,0.01762833446264267,2.93730092048645,0.2950139343738556,36593.0,42127.0,37357.0,39031.0,0,0,0,0,38777.15625,-1618.0,-2374.0,-1857.0
0.64,-0.03494797274470329,-0.020386522635817528,0.3008998930454254,0.0,0.0,0.0,-0.7578635811805725,-2.3960041999816895,-2.108060836791992,0.01783505454659462,2.9384243488311768,0.3037252128124237,35904.0,40834.0,37038.0,39312.0,0,0,0,0,38272.75,-967.0,-2359.0,-1809.0
0.66,-0.030912799760699272,-0.01802978105843067,0.31005871295928955,0.0,0.0,0.0,-0.4943123459815979,-1.9784892797470093,-2.1115360260009766,0.017889035865664482,2.9365828037261963,0.3109727203845978,35317.0,41955.0,36891.0,37569.0,0,0,0,0,37933.125,-981.0,-2019.0,-1810.0
0.68,-0.02655772864818573,-0.016303658485412598,0.3170303404331207,0.0,0.0,0.0,-0.25208595395088196,-1.5638697147369385,-2.1161906719207764,0.01775750331580639,2.9364354610443115,0.3169163167476654,34962.0,42296.0,37478.0,37332.0,0,0,0,0,38017.94140625,-1902.0,-4043.0,-1832.0
0.7,-0.022754762321710587,-0.014825372025370598,0.32199323177337646,0.0,0.0,0.0,-0.025782795622944832,-1.1335102319717407,-2.1144957542419434,0.01762959733605385,2.9360361099243164,0.321881502866745,34764.0,42314.0,37764.0,37078.0,0,0,0,0,37980.5,-1606.0,-3384.0,-1682.0
0.72,-0.018587151542305946,-0.01310040894895792,0.32770439982414246,0.0,0.0,0.0,0.22233779728412628,-0.653110146522522,-2.109961986541748,0.01758659817278385,2.9359893798828125,0.3276273012161255,33883.0,41145.0,36869.0,36051.0,0,0,0,0,36987.796875,-726.0,-4064.0,-1666.0
0.74,-0.014216945506632328,-0.011618923395872116,0.3381098806858063,0.0,0.0,0.0,0.4886360168457031,-0.11174818873405457,-2.0937230587005615,0.01778792031109333,2.9298737049102783,0.3363228440284729,33834.0,40670.0,37472.0,37152.0,0,0,0,0,37282.2890625,-116.0,-2255.0,-1583.0
0.76,-0.00848750676959753,-0.009851006790995598,0.3421454429626465,0.0,0.0,0.0,0.6811699271202087,0.3442634046077728,-2.075636386871338,0.017713110893964767,2.929792881011963,0.342151939868927,34777.0,40619.0,36509.0,37383.0,0,0,0,0,37322.83203125,-1538.0,-2324.0,-1644.0
0.779,-0.00398665014654398,-0.008571241982281208,0.3478115499019623,0.0,0.0,0.0,0.8258649110794067,0.8023437857627869,-2.0597989559173584,0.017660530284047127,2.9297361373901367,0.34781578183174133,35064.0,41692.0,37238.0,37058.0,0,0,0,0,37763.48046875,-1028.0,-2545.0,-1546.0
0.799,0.00010485167149454355,-0.007742016110569239,0.351116418838501,0.0,0.0,0.0,0.9903097152709961,1.2559959888458252,-2.0499672889709473,0.01757323183119297,2.863474130630493,0.35109663009643555,36222.0,40608.0,36932.0,37782.0,0,0,0,0,37886.5625,-783.0,-2118.0,-1569.0
0.819,0.004966030362993479,-0.006534642074257135,0.3561176657676697,0.0,0.0,0.0,1.1303037405014038,1.6304829120635986,-2.026266098022461,0.017531106248497963,2.8634262084960938,0.35611796379089355,35588.0,40624.0,37242.0,38578.0,0,0,0,0,38008.00390625,-442.0,-1882.0,-1595.0
0.839,0.00925302691757679,-0.005206325091421604,0.36092090606689453,0.0,0.0,0.0,1.2196426391601562,1.9667716026306152,-2.004167318344116,0.017513740807771683,2.86340594291687,0.36094504594802856,35191.0,41785.0,38369.0,38287.0,0,0,0,0,38408.45703125,-445.0,-1905.0,-1645.0
0.859,0.013885850086808205,-0.004580874927341938,0.36374396085739136,0.0,0.0,0.0,1.2701493501663208,2.294231414794922,-1.9925572872161865,0.017488233745098114,2.8794448375701904,0.3629806637763977,36204.0,42140.0,37970.0,38586.0,0,0,0,0,38725.37890625,-536.0,-2344.0,-1641.0
0.879,0.017714044079184532,-0.0038850971031934023,0.367098867893219,0.0,0.0,0.0,1.288873314857483,2.634664535522461,-1.980636715888977,0.01745675317943096,2.8794095516204834,0.3670990765094757,34830.0,42260.0,39552.0,38574.0,0,0,0,0,38804.046875,1077.0,-2241.0,-1659.0
0.899,0.021495822817087173,-0.0031367153860628605,0.370805025100708,0.0,0.0,0.0,1.2837564945220947,2.975802183151245,-1.9708703756332397,0.01742309145629406,2.879197597503662,0.3707883954048157,36316.0,42032.0,38424.0,38784.0,0,0,0,0,38889.37109375,-1254.0,-3021.0,-1666.0
0.919,0.02623177506029606,-0.003360127564519644,0.37387338280677795,0.0,0.0,0.0,1.2284069061279297,3.2641758918762207,-1.9593677520751953,0.01742587424814701,2.8852670192718506,0.37387338280677795,35811.0,42443.0,39481.0,38645.0,0,0,0,0,39095.2734375,-110.0,-2543.0,-1615.0
0.939,0.03041633404791355,-0.0028006951324641705,0.37749651074409485,0.0,0.0,0.0,1.190378189086914,3.519953489303589,-1.9465850591659546,0.017400823533535004,2.885239839553833,0.3775023818016052,35985.0,42147.0,38255.0,38057.0,0,0,0,0,38611.75390625,-637.0,-2929.0,-1677.0
0.959,0.03455376252532005,-0.0029633264057338238,0.38373062014579773,0.0,0.0,0.0,1.1546999216079712,3.751119613647461,-1.9302623271942139,0.017348412424325943,2.8866231441497803,0.3837255537509918,35309.0,42701.0,38729.0,37493.0,0,0,0,0,38558.62890625,407.0,-3589.0,-1658.0
0.979,0.0377759113907814,-0.0021145972423255444,0.38753652572631836,0.0,0.0,0.0,1.0977293252944946,3.989267349243164,-1.9172805547714233,0.017347007989883423,2.88954496383667,0.38680243492126465,35241.0,40773.0,39493.0,39805.0,0,0,0,0,38828.6953125,1151.0,-5354.0,-1679.0
0.999,0.041203103959560394,-0.0023858288768678904,0.3895595371723175,0.0,0.0,0.0,1.0488885641098022,4.267678260803223,-1.906713843345642,0.017351418733596802,2.8890726566314697,0.38956356048583984,34912.0,42674.0,39392.0,38046.0,0,0,0,0,38756.0234375,1189.0,-4807.0,-1623.0
1.019,0.04480321705341339,-0.0018512705573812127,0.3931066691875458,0.0,0.0,0.0,0.9155949354171753,4.5106306076049805,-1.9012364149093628,0.017336318269371986,2.889057159423828,0.39311808347702026,34489.0,42559.0,39753.0,37787.0,0,0,0,0,38647.41015625,652.0,-4629.0,-1576.0
1.039,0.04707722365856171,-0.002241631969809532,0.3966783583164215,0.0,0.0,0.0,0.784469485282898,4.7956862449646,-1.8883589506149292,0.017322678118944168,2.8890438079833984,0.39667943120002747,34420.0,42230.0,40878.0,37660.0,0,0,0,0,38797.578125,756.0,-5857.0,-1493.0
1.059,0.04892311990261078,-0.0025308048352599144,0.39871764183044434,0.0,0.0,0.0,0.6623204946517944,5.04014253616333,-1.8613662719726562,0.017327073961496353,2.8875930309295654,0.39871764183044434,35389.0,43959.0,39859.0,35397.0,0,0,0,0,38651.6875,-1808.0,-5448.0,-1291.0
1.079,0.051423702389001846,-0.0022346044424921274,0.4021822512149811,0.0,0.0,0.0,0.5498067140579224,5.203188419342041,-1.8234540224075317,0.01731632836163044,2.887583017349243,0.4021831452846527,36831.0,41863.0,40061.0,35325.0,0,0,0,0,38520.7578125,468.0,-4725.0,-904.0
1.099,0.05358075350522995,-0.0037696175277233124,0.4056856334209442,0.0,0.0,0.0,0.5999014377593994,5.3199849128723145,-1.7514135837554932,0.017309855669736862,2.887577533721924,0.4056856334209442,36439.0,39207.0,40519.0,36471.0,0,0,0,0,38159.765625,1635.0,-3930.0,-1015.0
1.119,0.05478319898247719,-0.0036527495831251144,0.41028863191604614,0.0,0.0,0.0,0.5786280632019043,5.37706184387207,-1.6307189464569092,0.017299583181738853,2.887235403060913,0.4102897346019745,35308.0,40306.0,40682.0,35828.0,0,0,0,0,38031.75,926.0,-5674.0,-1076.0
1.139,0.05478724092245102,-0.0035582375712692738,0.41395753622055054,0.0,0.0,0.0,0.4209649860858917,5.300093650817871,-1.5315805673599243,0.017293401062488556,2.8872311115264893,0.4139595329761505,35478.0,40412.0,39464.0,35614.0,0,0,0,0,37742.5703125,1025.0,-5163.0,-1081.0
1.159,0.05569887161254883,-0.004570324439555407,0.4186275601387024,0.0,0.0,0.0,0.24810954928398132,5.14703893661499,-1.4562259912490845,0.017289571464061737,2.8875010013580322,0.4186275601387024,35676.0,41160.0,39194.0,34458.0,0,0,0,0,37622.2109375,-1563.0,-4536.0,-1051.0
1.179,0.05650494247674942,-0.004868556745350361,0.4222283363342285,0.0,0.0,0.0,0.048804719001054764,4.9449005126953125,-1.3837484121322632,0.017289472743868828,2.8877482414245605,0.4222283363342285,36748.0,39254.0,37270.0,37084.0,0,0,0,0,37589.7734375,-356.0,56.0,-1131.0
1.2,0.05594286322593689,-0.0048036519438028336,0.42591091990470886,0.0,0.0,0.0,-0.025778330862522125,4.69874906539917,-1.3228780031204224,0.01728926971554756,2.8877882957458496,0.42605695128440857,36002.0,38766.0,37624.0,37788.0,0,0,0,0,37545.14453125,1556.0,-2539.0,-1172.0
1.219,0.05417267233133316,-0.005926470272243023,0.4296603202819824,0.0,0.0,0.0,-0.050154633820056915,4.276569843292236,-1.2823071479797363,0.01728948950767517,2.8877875804901123,0.42966216802597046,36687.0,37763.0,36781.0,39133.0,0,0,0,0,37591.85546875,386.0,-91.0,-1144.0
1.239,0.05575088411569595,-0.007076182868331671,0.4346224367618561,0.0,0.0,0.0,-0.14447547495365143,3.722874164581299,-1.254947543144226,0.017282428219914436,2.88602614402771,0.4346224367618561,35852.0,38714.0,37874.0,37072.0,0,0,0,0,37378.11328125,-1507.0,-3220.0,-993.0
1.259,0.05218815803527832,-0.0067806788720190525,0.43809691071510315,0.0,0.0,0.0,-0.24615776538848877,3.1915574073791504,-1.2101831436157227,0.017285184934735298,2.8854615688323975,0.4357927441596985,36967.0,40521.0,37869.0,36311.0,0,0,0,0,37917.046875,593.0,-1962.0,-1030.0
1.279,0.05173543468117714,-0.006798418238759041,0.43885114789009094,0.0,0.0,0.0,-0.23353412747383118,2.725580930709839,-1.1565667390823364,0.017285853624343872,2.8854622840881348,0.43884989619255066,34547.0,40173.0,40427.0,37089.0,0,0,0,0,38059.3359375,2284.0,-3270.0,-1028.0
1.299,0.048471998423337936,-0.007061260286718607,0.44171053171157837,0.0,0.0,0.0,-0.20778612792491913,2.3416097164154053,-1.1117539405822754,0.01728324592113495,2.885385513305664,0.4417872428894043,35021.0,40249.0,39993.0,38981.0,0,0,0,0,38561.94140625,398.0,-4037.0,-1073.0
1.319,0.045969896018505096,-0.008082786574959755,0.4427657723426819,0.0,0.0,0.0,-0.3213505148887634,2.01790189743042,-1.0767371654510498,0.01728682778775692,2.885011911392212,0.44277119636535645,35016.0,40342.0,40150.0,39072.0,0,0,0,0,38645.17578125,1303.0,-2115.0,-1075.0
1.339,0.04495888575911522,-0.008501078933477402,0.44512173533439636,0.0,0.0,0.0,-0.4900670647621155,1.7268699407577515,-1.046925663948059,0.017288904637098312,2.885014533996582,0.4451243281364441,35942.0,40126.0,39654.0,38886.0,0,0,0,0,38652.73828125,39.0,-3189.0,-838.0
1.359,0.04257584363222122,-0.009820962324738503,0.44739237427711487,0.0,0.0,0.0,-0.6548154950141907,1.3818590641021729,-1.0146926641464233,0.017288049682974815,2.8850135803222656,0.44739237427711487,36762.0,39980.0,39032.0,39134.0,0,0,0,0,38727.78125,508.0,-2007.0,-882.0
1.38,0.040719661861658096,-0.00947522185742855,0.44932931661605835,0.0,0.0,0.0,-0.7637492418289185,1.0157320499420166,-0.9573180079460144,0.01729043759405613,2.885240077972412,0.44932910799980164,36526.0,40936.0,39030.0,38320.0,0,0,0,0,38703.88671875,164.0,-1870.0,-939.0
1.4,0.03961288183927536,-0.009911037981510162,0.45147767663002014,0.0,0.0,0.0,-0.8031819462776184,0.6193609833717346,-0.9159913659095764,0.017292777076363564,2.8852429389953613,0.45147380232810974,36271.0,40999.0,39033.0,38409.0,0,0,0,0,38678.6796875,953.0,-3294.0,-1082.0
1.42,0.037371497601270676,-0.011304979212582111,0.45360565185546875,0.0,0.0,0.0,-0.8065904378890991,0.2636973261833191,-0.8882014751434326,0.01729660853743553,2.885247230529785,0.45360565185546875,35942.0,41634.0,39232.0,37536.0,0,0,0,0,38586.6484375,1378.0,-1628.0,-907.0
1.439,0.0352797731757164,-0.01110223401337862,0.45589861273765564,0.0,0.0,0.0,-0.8362483382225037,-0.02403668500483036,-0.8768228888511658,0.017294496297836304,2.8843841552734375,0.4558967649936676,37165.0,40305.0,38559.0,38371.0,0,0,0,0,38600.90625,-14.0,-1195.0,-952.0
1.46,0.03217636048793793,-0.010886413045227528,0.45812898874282837,0.0,0.0,0.0,-0.8551986217498779,-0.3185194134712219,-0.851710319519043,0.017291655763983727,2.88438081741333,0.45812469720840454,37567.0,41097.0,38021.0,37195.0,0,0,0,0,38470.5390625,-1440.0,-2993.0,-982.0
1.479,0.02893524430692196,-0.011784553527832031,0.46068817377090454,0.0,0.0,0.0,-0.819793701171875,-0.5898793339729309,-0.8259515762329102,0.017294157296419144,2.8844432830810547,0.4606894254684448,36586.0,40136.0,39074.0,37936.0,0,0,0,0,38433.7421875,-1144.0,-3809.0,-853.0
1.499,0.0278660599142313,-0.012275487184524536,0.4628404974937439,0.0,0.0,0.0,-0.7351005673408508,-0.8355024456977844,-0.8050728440284729,0.017295757308602333,2.884397506713867,0.46289876103401184,36707.0,40411.0,39225.0,37345.0,0,0,0,0,38422.67578125,208.0,-1920.0,-832.0
1.52,0.024844445288181305,-0.012511326931416988,0.4650058150291443,0.0,0.0,0.0,-0.6891460418701172,-1.023032784461975,-0.7674933671951294,0.0172963198274374,2.8844704627990723,0.4654941260814667,37568.0,39244.0,38352.0,38116.0,0,0,0,0,38320.3515625,-666.0,-1285.0,-789.0
1.539,0.02248440682888031,-0.01241314597427845,0.4676123857498169,0.0,0.0,0.0,-0.6445898413658142,-1.1899847984313965,-0.7270258069038391,0.017296142876148224,2.8844704627990723,0.46761223673820496,38018.0,39440.0,38438.0,37440.0,0,0,0,0,38334.24609375,-381.0,-2314.0,-634.0
1.56,0.02094767987728119,-0.01313926000148058,0.4696769118309021,0.0,0.0,0.0,-0.5379629731178284,-1.3784595727920532,-0.6786952614784241,0.017296701669692993,2.883716583251953,0.47089120745658875,37492.0,38914.0,38714.0,37184.0,0,0,0,0,38076.16015625,-694.0,-1319.0,-581.0
1.579,0.018702780827879906,-0.013333586044609547,0.4730575978755951,0.0,0.0,0.0,-0.4334122836589813,-1.5294450521469116,-0.6193066239356995,0.017295710742473602,2.8836724758148193,0.4727494716644287,37524.0,39810.0,39178.0,36048.0,0,0,0,0,38140.7421875,-380.0,-2919.0,-581.0
1.599,0.016763385385274887,-0.012094811536371708,0.47482261061668396,0.0,0.0,0.0,-0.35752490162849426,-1.6554508209228516,-0.5509811639785767,0.017297551035881042,2.8836746215820312,0.4748242199420929,37508.0,39108.0,39262.0,36850.0,0,0,0,0,38182.0078125,459.0,-581.0,-469.0
1.619,0.015729308128356934,-0.012662275694310665,0.47681674361228943,0.0,0.0,0.0,-0.2778535783290863,-1.7588086128234863,-0.4876110255718231,0.017298372462391853,2.8836755752563477,0.47681736946105957,37342.0,38846.0,39740.0,37820.0,0,0,0,0,38437.66796875,901.0,-1435.0,-488.0
1.639,0.01427496038377285,-0.012644516304135323,0.47761523723602295,0.0,0.0,0.0,-0.2513582706451416,-1.8384183645248413,-0.4246287941932678,0.017300022765994072,2.8844382762908936,0.4776153266429901,38033.0,39579.0,39925.0,36471.0,0,0,0,0,38502.3828125,-54.0,-3765.0,-346.0
1.659,0.012842895463109016,-0.012852204032242298,0.479309618473053,0.0,0.0,0.0,-0.23501969873905182,-1.909488320350647,-0.3552539646625519,0.017300263047218323,2.8844385147094727,0.479309618473053,38854.0,39154.0,39096.0,37124.0,0,0,0,0,38557.46484375,-705.0,-1695.0,-340.0
1.679,0.011303678154945374,-0.01250724121928215,0.48092761635780334,0.0,0.0,0.0,-0.2024770975112915,-1.9442309141159058,-0.2807433307170868,0.017300205305218697,2.8844385147094727,0.4809276759624481,39139.0,39145.0,38663.0,37365.0,0,0,0,0,38578.62890625,-1578.0,-2167.0,-377.0
1.699,0.009703177027404308,-0.01265786588191986,0.482589453458786,0.0,0.0,0.0,-0.10402226448059082,-1.9582618474960327,-0.21503978967666626,0.01730150543153286,2.884941339492798,0.4825894832611084,39078.0,39672.0,38338.0,37184.0,0,0,0,0,38568.76171875,-1339.0,-2884.0,-367.0
1.719,0.008249057456851006,-0.012846129015088081,0.48413389921188354,0.0,0.0,0.0,-0.012579833157360554,-1.9547843933105469,-0.1628042757511139,0.01730150543153286,2.884941339492798,0.48413389921188354,37910.0,39916.0,39222.0,37052.0,0,0,0,0,38525.23046875,-1146.0,-1866.0,-385.0
1.739,0.007848210632801056,-0.01201347354799509,0.48568078875541687,0.0,0.0,0.0,0.07838983088731766,-1.9632478952407837,-0.11841803789138794,0.017301687970757484,2.884941577911377,0.48568078875541687,37413.0,40075.0,39195.0,35693.0,0,0,0,0,38094.984375,-1281.0,-1935.0,-334.0
1.759,0.006832730490714312,-0.011653424240648746,0.4893517792224884,0.0,0.0,0.0,0.1108168512582779,-1.95098876953125,-0.0697735995054245,0.017300723120570183,2.8844704627990723,0.4893517792224884,36398.0,39134.0,39802.0,36734.0,0,0,0,0,38017.31640625,318.0,-2494.0,-311.0
1.779,0.007478038314729929,-0.011625193059444427,0.49114006757736206,0.0,0.0,0.0,0.14395666122436523,-1.89551842212677,-0.02885906584560871,0.01730068400502205,2.8844704627990723,0.49114006757736206,36876.0,38880.0,38858.0,37182.0,0,0,0,0,37949.94921875,566.0,-2445.0,-367.0
1.799,0.008150354959070683,-0.011588966473937035,0.4930262863636017,0.0,0.0,0.0,0.16182510554790497,-1.806082010269165,0.004622751381248236,0.01730046048760414,2.8844802379608154,0.4930262863636017,37061.0,40547.0,38535.0,35633.0,0,0,0,0,37944.25,-993.0,-3921.0,-406.0
1.819,0.00959103461354971,-0.011456296779215336,0.49477341771125793,0.0,0.0,0.0,0.14201262593269348,-1.673043966293335,0.02903352491557598,0.017299460247159004,2.8844399452209473,0.4948449730873108,37642.0,39036.0,38040.0,37114.0,0,0,0,0,37958.484375,-568.0,-2171.0,-333.0
1.839,0.01179204136133194,-0.012608615681529045,0.4965289235115051,0.0,0.0,0.0,0.13557448983192444,-1.5127955675125122,0.04859446361660957,0.017298202961683273,2.884350538253784,0.4957085847854614,36804.0,40472.0,38912.0,36484.0,0,0,0,0,38168.47265625,-237.0,-3293.0,-478.0
1.859,0.012532087042927742,-0.012304327450692654,0.4972199499607086,0.0,0.0,0.0,0.09052526205778122,-1.3429261445999146,0.06991314142942429,0.017297735437750816,2.884350061416626,0.4972199499607086,36981.0,39709.0,39133.0,37153.0,0,0,0,0,38244.94140625,107.0,-2164.0,-403.0
1.879,0.014010079205036163,-0.013194417580962181,0.49863362312316895,0.0,0.0,0.0,0.04647862911224365,-1.142755389213562,0.0802774578332901,0.017294663935899734,2.8840556144714355,0.49927037954330444,37174.0,39198.0,38656.0,37696.0,0,0,0,0,38181.5234375,696.0,-1643.0,-396.0
1.899,0.01572619006037712,-0.012686997652053833,0.5006756782531738,0.0,0.0,0.0,-0.005890064872801304,-0.9671849608421326,0.09379051625728607,0.017294583842158318,2.8840553760528564,0.5006754398345947,36455.0,40717.0,39669.0,36519.0,0,0,0,0,38340.30078125,-521.0,-4654.0,-453.0
1.919,0.017625056207180023,-0.01352344173938036,0.5014029741287231,0.0,0.0,0.0,-0.0643010213971138,-0.7988453507423401,0.10898774117231369,0.01729314774274826,2.883997678756714,0.5014030933380127,36766.0,39316.0,39704.0,38026.0,0,0,0,0,38453.66015625,1235.0,-3184.0,-357.0
1.939,0.02056671865284443,-0.01273960992693901,0.5025568604469299,0.0,0.0,0.0,-0.14211928844451904,-0.5882255434989929,0.1160394623875618,0.017291270196437836,2.883995532989502,0.5025575757026672,36273.0,40571.0,40685.0,37447.0,0,0,0,0,38744.73046875,871.0,-2733.0,-365.0
1.959,0.022699624300003052,-0.014481835998594761,0.5023846626281738,0.0,0.0,0.0,-0.20684362947940826,-0.3349878191947937,0.12696507573127747,0.017290517687797546,2.8844454288482666,0.5023846626281738,36897.0,41145.0,40623.0,38111.0,0,0,0,0,39194.55859375,-105.0,-3010.0,-455.0
1.979,0.025630593299865723,-0.016699694097042084,0.5010309815406799,0.0,0.0,0.0,-0.2736760079860687,-0.11626783758401871,0.13604781031608582,0.017286594957113266,2.884230852127075,0.501029372215271,37568.0,41138.0,40134.0,38108.0,0,0,0,0,39237.34375,170.0,-2921.0,-417.0
1.999,0.029581032693386078,-0.015803467482328415,0.5016711354255676,0.0,0.0,0.0,-0.3572465479373932,0.10566507279872894,0.13593681156635284,0.01728546991944313,2.8842294216156006,0.5016724467277527,36651.0,41861.0,40373.0,37287.0,0,0,0,0,39043.87109375,-118.0,-5594.0,-501.0
2.019,0.02961401827633381,-0.01689404807984829,0.5028245449066162,0.0,0.0,0.0,-0.3682783544063568,0.24706818163394928,0.13861042261123657,0.017282290384173393,2.8839547634124756,0.503212571144104,37308.0,40424.0,39530.0,39066.0,0,0,0,0,39082.62109375,-22.0,-2654.0,-526.0
2.039,0.031255144625902176,-0.018777629360556602,0.503050684928894,0.0,0.0,0.0,-0.39757677912712097,0.5602482557296753,0.13269685208797455,0.017282957211136818,2.8839011192321777,0.5034353137016296,36414.0,41096.0,40062.0,38400.0,0,0,0,0,38993.8125,400.0,-2947.0,-586.0
2.059,0.03346720710396767,-0.018974555656313896,0.5038328170776367,0.0,0.0,0.0,-0.4838484823703766,0.8252096176147461,0.11980963498353958,0.01728164777159691,2.883899688720703,0.5042548179626465,35951.0,42171.0,39263.0,37619.0,0,0,0,0,38751.84375,-273.0,-2991.0,-787.0
2.079,0.03460768237709999,-0.018865829333662987,0.5053523182868958,0.0,0.0,0.0,-0.6036235094070435,1.0495843887329102,0.10190001130104065,0.017280854284763336,2.8836829662323,0.5058491230010986,35261.0,40835.0,39555.0,37673.0,0,0,0,0,38331.06640625,605.0,-3213.0,-949.0
2.099,0.03689838945865631,-0.018774783238768578,0.5083515644073486,0.0,0.0,0.0,-0.7668131589889526,1.4280022382736206,0.035399798303842545,0.017279591411352158,2.883821725845337,0.508351743221283,34797.0,40289.0,39591.0,38263.0,0,0,0,0,38235.5625,1703.0,-2140.0,-1041.0
2.119,0.03779521957039833,-0.02013089507818222,0.5095877647399902,0.0,0.0,0.0,-0.8627934455871582,1.6741278171539307,-0.03095110133290291,0.0172787606716156,2.8838210105895996,0.5095878839492798,35189.0,41133.0,38937.0,37433.0,0,0,0,0,38173.84375,59.0,-3740.0,-1133.0
2.14,0.03911328315734863,-0.021684208884835243,0.5108523964881897,0.0,0.0,0.0,-0.9442973732948303,1.8681832551956177,-0.10390383005142212,0.017278453335165977,2.883937358856201,0.5104157328605652,34767.0,40635.0,39509.0,38293.0,0,0,0,0,38301.6953125,1939.0,-4533.0,-1165.0
2.159,0.041209008544683456,-0.021105578169226646,0.5111492872238159,0.0,0.0,0.0,-0.9930683374404907,2.0210113525390625,-0.1785053312778473,0.01727805845439434,2.883890151977539,0.5111492872238159,35076.0,40012.0,38950.0,39042.0,0,0,0,0,38270.2734375,1034.0,-3874.0,-1269.0
2.18,0.04353900998830795,-0.020347394049167633,0.5123260021209717,0.0,0.0,0.0,-1.084862470626831,2.115623712539673,-0.2580970525741577,0.01727745682001114,2.8838894367218018,0.5123264193534851,35093.0,40269.0,38659.0,38867.0,0,0,0,0,38222.82421875,231.0,-2460.0,-1323.0
2.199,0.04389997199177742,-0.021917877718806267,0.513502836227417,0.0,0.0,0.0,-1.1613624095916748,2.1847105026245117,-0.3376656472682953,0.017277443781495094,2.8838369846343994,0.5125446319580078,34946.0,39756.0,39042.0,40000.0,0,0,0,0,38436.27734375,1527.0,-2181.0,-1459.0
2.22,0.04359688609838486,-0.02323991060256958,0.5133419036865234,0.0,0.0,0.0,-1.1576728820800781,2.244480609893799,-0.43061134219169617,0.01727774553000927,2.8839519023895264,0.5133436322212219,33887.0,41903.0,37563.0,40367.0,0,0,0,0,38430.0,306.0,-1884.0,-1589.0
2.239,0.045876000076532364,-0.0231236033141613,0.5144219994544983,0.0,0.0,0.0,-1.180322527885437,2.248006820678711,-0.5368771553039551,0.01727774553000927,2.8839519023895264,0.5144219994544983,35026.0,42644.0,36174.0,39012.0,0,0,0,0,38214.86328125,-910.0,-1829.0,-1597.0
2.259,0.0456475168466568,-0.02258705534040928,0.5166472792625427,0.0,0.0,0.0,-1.181257724761963,2.216740846633911,-0.6381945610046387,0.01727793738245964,2.8840246200561523,0.5166472792625427,33639.0,40821.0,36955.0,40321.0,0,0,0,0,37934.73828125,388.0,-2302.0,-1647.0
2.279,0.04544069617986679,-0.022267742082476616,0.5186145305633545,0.0,0.0,0.0,-1.1463611125946045,2.1857032775878906,-0.6842285990715027,0.01727602258324623,2.883490800857544,0.5192390084266663,34620.0,42614.0,35560.0,38598.0,0,0,0,0,37848.52734375,-1343.0,-2346.0,-1685.0
2.299,0.043448541313409805,-0.0241865087300539,0.5203967690467834,0.0,0.0,0.0,-1.0091298818588257,2.122706651687622,-0.7780171036720276,0.0172762218862772,2.8835291862487793,0.5210225582122803,34406.0,41538.0,36620.0,39048.0,0,0,0,0,37903.3125,60.0,-2115.0,-1633.0
2.319,0.04361898824572563,-0.021877124905586243,0.521626889705658,0.0,0.0,0.0,-0.875757098197937,2.05303692817688,-0.8693394660949707,0.017277255654335022,2.8835301399230957,0.5222111940383911,34627.0,41389.0,37137.0,40491.0,0,0,0,0,38411.05078125,2407.0,-2373.0,-1775.0
2.339,0.04565299302339554,-0.020629720762372017,0.5207396149635315,0.0,0.0,0.0,-0.7685090899467468,1.9084142446517944,-0.939220130443573,0.017278380692005157,2.884129524230957,0.5211387872695923,35977.0,43545.0,36971.0,38603.0,0,0,0,0,38774.05859375,-382.0,-2782.0,-1718.0
2.359,0.04316573217511177,-0.020712630823254585,0.5201987028121948,0.0,0.0,0.0,-0.7063948512077332,1.8045202493667603,-1.012566328048706,0.017278015613555908,2.884037733078003,0.5204747915267944,36254.0,41962.0,38334.0,38946.0,0,0,0,0,38874.828125,-1693.0,-2359.0,-1614.0
2.379,0.04222479835152626,-0.01752520352602005,0.5207309126853943,0.0,0.0,0.0,-0.6727273464202881,1.6758956909179688,-1.0699946880340576,0.017277991399168968,2.884037971496582,0.5209738612174988,36125.0,42823.0,38287.0,38217.0,0,0,0,0,38863.625,-2617.0,-2949.0,-1608.0
2.399,0.03971991315484047,-0.01985444873571396,0.5214440226554871,0.0,0.0,0.0,-0.5164310336112976,1.5731288194656372,-1.1101807355880737,0.01727829873561859,2.8839752674102783,0.5216881632804871,35765.0,41727.0,38321.0,38691.0,0,0,0,0,38626.09765625,-971.0,-2658.0,-1601.0
2.419,0.03852321580052376,-0.019617581740021706,0.523384690284729,0.0,0.0,0.0,-0.3200334906578064,1.4536691904067993,-1.1468448638916016,0.017279228195548058,2.884084701538086,0.5236943960189819,35282.0,41886.0,38860.0,38568.0,0,0,0,0,38649.7890625,-911.0,-1872.0,-1530.0
2.439,0.03780251368880272,-0.01864795573055744,0.5239906907081604,0.0,0.0,0.0,-0.16188256442546844,1.3145701885223389,-1.1703696250915527,0.017279837280511856,2.8840854167938232,0.5242900252342224,35544.0,41820.0,38764.0,38504.0,0,0,0,0,38658.40625,175.0,-2024.0,-1450.0
2.46,0.03726447373628616,-0.01653977856040001,0.5245790481567383,0.0,0.0,0.0,-0.09598132222890854,1.1661301851272583,-1.1822949647903442,0.017279068008065224,2.8833444118499756,0.5283243060112,35219.0,41617.0,37753.0,37647.0,0,0,0,0,38059.3203125,-748.0,-2553.0,-1610.0
2.479,0.03647639974951744,-0.014744890853762627,0.5283700227737427,0.0,0.0,0.0,-0.05612530931830406,1.0135432481765747,-1.1813708543777466,0.017278002575039864,2.883310079574585,0.5288233160972595,35451.0,41041.0,37199.0,38553.0,0,0,0,0,38061.1328125,-706.0,-3394.0,-1790.0
2.499,0.032514095306396484,-0.015929268673062325,0.5292628407478333,0.0,0.0,0.0,0.043329138308763504,0.9030778408050537,-1.198337435722351,0.017274660989642143,2.8833067417144775,0.5296971797943115,35012.0,41908.0,37460.0,38016.0,0,0,0,0,38099.0234375,295.0,-3167.0,-1875.0
2.52,0.03153214976191521,-0.015931792557239532,0.5301189422607422,0.0,0.0,0.0,0.11020173132419586,0.7583926320075989,-1.2309056520462036,0.017275959253311157,2.8832478523254395,0.529133141040802,35707.0,40459.0,37071.0,40231.0,0,0,0,0,38367.57421875,718.0,-1860.0,-1963.0
2.54,0.029609864577651024,-0.015084220096468925,0.5296489596366882,0.0,0.0,0.0,0.15564073622226715,0.6134048700332642,-1.2798715829849243,0.017275989055633545,2.883174180984497,0.529962420463562,36681.0,41739.0,36177.0,39147.0,0,0,0,0,38436.62109375,-218.0,-2760.0,-2021.0
2.56,0.028722630813717842,-0.014105185866355896,0.5302554368972778,0.0,0.0,0.0,0.16715019941329956,0.3934991955757141,-1.3390095233917236,0.0172768235206604,2.8831746578216553,0.5305336713790894,36031.0,42161.0,37259.0,39429.0,0,0,0,0,38720.76171875,-796.0,-1884.0,-2117.0
2.579,0.027348129078745842,-0.013848717324435711,0.5295078754425049,0.0,0.0,0.0,0.23655009269714355,0.17898155748844147,-1.3989280462265015,0.017275776714086533,2.883105516433716,0.5296894907951355,36316.0,42334.0,37054.0,39316.0,0,0,0,0,38755.42578125,-259.0,-2818.0,-2033.0
2.599,0.023545781150460243,-0.012278357520699501,0.530199408531189,0.0,0.0,0.0,0.30624425411224365,0.02005079947412014,-1.464859962463379,0.01727421022951603,2.882990837097168,0.5303642749786377,36604.0,41408.0,37186.0,40770.0,0,0,0,0,38992.83984375,904.0,-2032.0,-2086.0
2.619,0.023649679496884346,-0.013299815356731415,0.5296855568885803,0.0,0.0,0.0,0.3624470829963684,-0.1762450635433197,-1.520168423652649,0.017275318503379822,2.882941722869873,0.5297747254371643,36050.0,42722.0,37934.0,39494.0,0,0,0,0,39050.484375,653.0,-929.0,-2068.0
2.639,0.023496946319937706,-0.013242708519101143,0.5298552513122559,0.0,0.0,0.0,0.36982327699661255,-0.3553399443626404,-1.5669327974319458,0.01727508194744587,2.882941722869873,0.5299250483512878,36113.0,42901.0,37981.0,39901.0,0,0,0,0,39224.10546875,-72.0,-3068.0,-2147.0
2.659,0.021674469113349915,-0.01305391825735569,0.529277503490448,0.0,0.0,0.0,0.33373862504959106,-0.506279468536377,-1.6043775081634521,0.0172734372317791,2.883126735687256,0.5292997360229492,35250.0,42504.0,38774.0,39816.0,0,0,0,0,39086.05859375,-1455.0,-3061.0,-2027.0
2.679,0.017324741929769516,-0.014416477642953396,0.5300833582878113,0.0,0.0,0.0,0.34863850474357605,-0.6093320846557617,-1.6467907428741455,0.01727217249572277,2.883172035217285,0.5301575064659119,35463.0,41903.0,38429.0,40465.0,0,0,0,0,39065.51171875,-450.0,-2095.0,-2137.0
2.699,0.016086319461464882,-0.0131739666685462,0.5302425622940063,0.0,0.0,0.0,0.3505321145057678,-0.7044627070426941,-1.668895959854126,0.01727430336177349,2.883174180984497,0.5303316116333008,35420.0,42220.0,38176.0,39936.0,0,0,0,0,38938.11328125,-224.0,-1525.0,-2142.0
2.72,0.01448099222034216,-0.012576509267091751,0.5308906435966492,0.0,0.0,0.0,0.3138781487941742,-0.795374870300293,-1.6974009275436401,0.017272748053073883,2.883063793182373,0.5310251712799072,37506.0,41790.0,36296.0,40488.0,0,0,0,0,39020.375,226.0,-2418.0,-2170.0
2.74,0.013570861890912056,-0.014315214939415455,0.5304862856864929,0.0,0.0,0.0,0.30989015102386475,-0.9135686755180359,-1.7254886627197266,0.01727231591939926,2.883018732070923,0.5306040644645691,35605.0,42643.0,37879.0,39733.0,0,0,0,0,38965.96484375,-532.0,-3080.0,-2241.0
2.76,0.010801850818097591,-0.014385216869413853,0.530735194683075,0.0,0.0,0.0,0.3287762403488159,-1.0292516946792603,-1.749374270439148,0.01727095991373062,2.8830175399780273,0.5308713316917419,35513.0,42953.0,38049.0,39257.0,0,0,0,0,38943.5078125,-371.0,-4492.0,-2169.0
2.78,0.007730911020189524,-0.014043973758816719,0.5310140252113342,0.0,0.0,0.0,0.2975212633609772,-1.1107494831085205,-1.7797398567199707,0.0172717347741127,2.883319139480591,0.5295589566230774,35147.0,42449.0,38929.0,40159.0,0,0,0,0,39171.36328125,620.0,-375.0,-2098.0
2.799,0.005595924332737923,-0.013125620782375336,0.5299103260040283,0.0,0.0,0.0,0.21416401863098145,-1.1620765924453735,-1.799325704574585,0.017271170392632484,2.8833377361297607,0.5299984216690063,36824.0,42042.0,37212.0,40402.0,0,0,0,0,39120.359375,1429.0,-1984.0,-2078.0
2.819,0.005078458227217197,-0.013768385164439678,0.5300993323326111,0.0,0.0,0.0,0.14940831065177917,-1.2039296627044678,-1.8037617206573486,0.017271578311920166,2.883338212966919,0.5302145481109619,36197.0,41385.0,37951.0,40655.0,0,0,0,0,39047.9375,-1891.0,-3276.0,-1998.0
2.84,0.005196334794163704,-0.014768912456929684,0.5303453803062439,0.0,0.0,0.0,0.0654439702630043,-1.2892255783081055,-1.804032564163208,0.01727188751101494,2.8833823204040527,0.5316667556762695,37076.0,41848.0,37246.0,39194.0,0,0,0,0,38841.296875,-884.0,-3741.0,-1935.0
2.859,0.003287570783868432,-0.014061864465475082,0.531202495098114,0.0,0.0,0.0,0.027141135185956955,-1.363299012184143,-1.7699534893035889,0.017272599041461945,2.883657455444336,0.531202495098114,35192.0,41866.0,38486.0,39680.0,0,0,0,0,38806.8046875,947.0,-2858.0,-1966.0
2.879,-0.0004966197302564979,-0.013808541931211948,0.5316449403762817,0.0,0.0,0.0,0.0475739911198616,-1.3360177278518677,-1.7444485425949097,0.017271362245082855,2.8836562633514404,0.5316449403762817,34659.0,41219.0,38917.0,40289.0,0,0,0,0,38771.4453125,915.0,-3746.0,-2037.0
2.899,0.0007410245016217232,-0.013271830044686794,0.5319785475730896,0.0,0.0,0.0,0.0008285618969239295,-1.3290706872940063,-1.7204712629318237,0.01727239228785038,2.883650779724121,0.5319785475730896,34004.0,41382.0,38560.0,39626.0,0,0,0,0,38393.29296875,1738.0,-3206.0,-2208.0
2.919,0.0002898610255215317,-0.015318081714212894,0.5337938666343689,0.0,0.0,0.0,-0.1318032443523407,-1.2875125408172607,-1.7132556438446045,0.01727050170302391,2.8833210468292236,0.5337938666343689,34103.0,43221.0,37257.0,38787.0,0,0,0,0,38342.15234375,511.0,-4540.0,-2322.0
2.939,-0.0005070152692496777,-0.0174575075507164,0.5341770648956299,0.0,0.0,0.0,-0.2876448929309845,-1.2094604969024658,-1.7382510900497437,0.017269201576709747,2.883302927017212,0.5341770648956299,33299.0,42483.0,38619.0,38771.0,0,0,0,0,38293.5546875,-318.0,-4415.0,-2388.0
2.96,-0.0017927471781149507,-0.019930392503738403,0.5349299311637878,0.0,0.0,0.0,-0.4027273952960968,-1.0690993070602417,-1.7744865417480469,0.01726762391626835,2.8833014965057373,0.5349299311637878,33088.0,42292.0,38344.0,39024.0,0,0,0,0,38187.69921875,157.0,-3667.0,-2463.0
2.979,0.00025924755027517676,-0.018562527373433113,0.5357354879379272,0.0,0.0,0.0,-0.5185701251029968,-0.9424866437911987,-1.8218965530395508,0.017268797382712364,2.88330340385437,0.5357354879379272,34657.0,41809.0,36705.0,39253.0,0,0,0,0,38106.34375,-610.0,-4126.0,-2474.0
2.999,-0.0002704626531340182,-0.01963404007256031,0.5362232327461243,0.0,0.0,0.0,-0.5616695880889893,-0.8862062692642212,-1.8457998037338257,0.017268149182200432,2.8833041191101074,0.5366449952125549,24471.0,55895.0,46485.0,25469.0,0,0,0,0,38080.68359375,-4001.0,-27092.0,-2671.0
3.019,0.001308380626142025,-0.01963895373046398,0.5370635390281677,0.0,0.0,0.0,-0.6139459609985352,-0.8570829629898071,-1.8863911628723145,0.017268242314457893,2.8833041191101074,0.5374764204025269,28207.0,48253.0,42289.0,32931.0,0,0,0,0,37920.140625,248.0,-9180.0,-2691.0
3.039,0.0010108137503266335,-0.019398488104343414,0.5385828018188477,0.0,0.0,0.0,-0.6035512089729309,-0.8422479033470154,-1.9456686973571777,0.017267875373363495,2.8831686973571777,0.5390332341194153,35988.0,36974.0,34450.0,44484.0,0,0,0,0,37974.1640625,88.0,5483.0,-2805.0
3.06,0.008130152709782124,-0.020083611831068993,0.5392075777053833,0.0,0.0,0.0,-0.8724506497383118,-2.2209274768829346,-2.0599756240844727,0.017267344519495964,2.8831288814544678,0.5392075777053833,38712.0,40010.0,31174.0,41680.0,0,0,0,0,37894.6640625,-676.0,4537.0,-2990.0
3.079,0.0007659010007046163,-0.018838614225387573,0.5396562218666077,0.0,0.0,0.0,-1.0834976434707642,-3.390192747116089,-2.115041971206665,0.017269179224967957,2.8831307888031006,0.5400791764259338,36520.0,43216.0,32608.0,39044.0,0,0,0,0,37847.12109375,-3133.0,2450.0,-3394.0
3.1,0.00243800925090909,-0.018353957682847977,0.5405444502830505,0.0,0.0,0.0,-1.3446954488754272,-6.1941986083984375,-2.258852243423462,0.017270207405090332,2.883399724960327,0.5393204092979431,33085.0,43867.0,35785.0,38483.0,0,0,0,0,37805.12890625,-725.0,-2380.0,-3388.0
3.119,-0.0013854014687240124,-0.02060585655272007,0.541759192943573,0.0,0.0,0.0,-1.3345184326171875,-8.774287223815918,-2.4376204013824463,0.01727154292166233,2.883514165878296,0.5421597957611084,32323.0,42851.0,36571.0,39803.0,0,0,0,0,37887.61328125,1015.0,-2647.0,-5076.0
3.139,-0.00010448775719851255,-0.01957879029214382,0.5425732135772705,0.0,0.0,0.0,-1.4046598672866821,-10.616758346557617,-2.590892791748047,0.017272302880883217,2.883514642715454,0.5429055094718933,31130.0,43174.0,37800.0,40132.0,0,0,0,0,38059.7421875,2491.0,-4146.0,-5284.0
3.159,0.0042196717113256454,-0.013754965737462044,0.5432373881340027,0.0,0.0,0.0,-1.741163730621338,-12.055353164672852,-2.7426869869232178,0.017272725701332092,2.8836429119110107,0.547902524471283,32300.0,43628.0,35416.0,38972.0,0,0,0,0,37579.51171875,-409.0,-3910.0,-5259.0
3.179,0.006186896003782749,-0.0138327581807971,0.5475627779960632,0.0,0.0,0.0,-2.1390676498413086,-13.187732696533203,-2.8862850666046143,0.01726980321109295,2.8838515281677246,0.5479075312614441,32881.0,43585.0,35329.0,39221.0,0,0,0,0,37754.12890625,295.0,-2869.0,-4944.0
3.199,0.011606011539697647,-0.011941386386752129,0.5482588410377502,0.0,0.0,0.0,-2.4920670986175537,-14.130108833312988,-3.0289788246154785,0.017274463549256325,2.8838562965393066,0.5485411882400513,32623.0,42287.0,34525.0,39001.0,0,0,0,0,37109.70703125,-356.0,-1496.0,-4394.0
3.219,0.01316878106445074,-0.01229207031428814,0.5537866950035095,0.0,0.0,0.0,-2.6902542114257812,-14.98738956451416,-3.139869213104248,0.017273658886551857,2.884040355682373,0.5541861653327942,33441.0,43293.0,34047.0,38795.0,0,0,0,0,37394.1796875,-2908.0,-1827.0,-4648.0
3.239,0.020448021590709686,-0.014487788081169128,0.5545477271080017,0.0,0.0,0.0,-2.7395644187927246,-15.863029479980469,-3.2240793704986572,0.01727851666510105,2.9417216777801514,0.554844319820404,34615.0,43457.0,33717.0,39131.0,0,0,0,0,37730.95703125,-2461.0,-161.0,-4379.0
3.259,0.02551625669002533,-0.014212062582373619,0.5550591945648193,0.0,0.0,0.0,-2.7098445892333984,-16.68587303161621,-3.3104379177093506,0.017276663333177567,2.9417150020599365,0.5551734566688538,33775.0,42765.0,35093.0,40355.0,0,0,0,0,37997.953125,-895.0,-2578.0,-3983.0
3.279,0.032229531556367874,-0.012598510831594467,0.5563311576843262,0.0,0.0,0.0,-2.6562070846557617,-17.402536392211914,-3.369314670562744,0.017281873151659966,2.952861785888672,0.5563212633132935,34688.0,44002.0,35214.0,39904.0,0,0,0,0,38452.7734375,-2353.0,-2958.0,-3694.0
3.299,0.03845325484871864,-0.010936281643807888,0.5562499761581421,0.0,0.0,0.0,-2.627969980239868,-17.942705154418945,-3.4027493000030518,0.01728583686053753,2.952871084213257,0.5560415983200073,33743.0,44869.0,37307.0,39741.0,0,0,0,0,38915.09375,1.0,-3707.0,-2977.0
3.319,0.046849414706230164,-0.007537373341619968,0.5558013916015625,0.0,0.0,0.0,-2.594435930252075,-18.17011070251465,-3.4117794036865234,0.01726936176419258,2.952831268310547,0.5553332567214966,35131.0,44115.0,37097.0,41417.0,0,0,0,0,39440.84375,-417.0,-3427.0,-2623.0
3.339,0.06022312864661217,-0.008877461776137352,0.5553114414215088,0.0,0.0,0.0,-2.55839467048645,-18.117889404296875,-3.366851806640625,0.017267456278204918,2.9635238647460938,0.5547042489051819,34888.0,44570.0,38414.0,41448.0,0,0,0,0,39830.7421875,-836.0,-2209.0,-2323.0
3.359,0.07360421121120453,-0.008783162571489811,0.5541258454322815,0.0,0.0,0.0,-2.520573854446411,-17.848896026611328,-3.307093620300293,0.017255499958992004,2.963500738143921,0.5533786416053772,36147.0,45959.0,38117.0,40409.0,0,0,0,0,40158.578125,-1204.0,-5429.0,-1986.0
3.379,0.08713669329881668,-0.006269634235650301,0.5527366399765015,0.0,0.0,0.0,-2.4371867179870605,-17.362394332885742,-3.230212450027466,0.017260687425732613,2.963510036468506,0.5519095659255981,36023.0,45641.0,39169.0,41211.0,0,0,0,0,40511.22265625,-1091.0,-3228.0,-1334.0
3.399,0.10344015061855316,-0.00593556696549058,0.5516015291213989,0.0,0.0,0.0,-2.2886717319488525,-16.759885787963867,-3.1168110370635986,0.017250023782253265,2.9750561714172363,0.5506839752197266,36539.0,45309.0,39343.0,41357.0,0,0,0,0,40637.06640625,-1667.0,-2609.0,-1361.0
3.419,0.11809328943490982,-0.006446928717195988,0.5499098300933838,0.0,0.0,0.0,-2.0802128314971924,-15.95549201965332,-2.9838953018188477,0.01725325547158718,2.9750611782073975,0.5489674210548401,36112.0,46122.0,40212.0,40378.0,0,0,0,0,40706.2421875,-1135.0,-5994.0,-907.0
3.439,0.13328829407691956,-0.004615510813891888,0.5482417941093445,0.0,0.0,0.0,-1.8173655271530151,-15.090597152709961,-2.843963146209717,0.017238209024071693,2.9750375747680664,0.5472301244735718,36781.0,46485.0,40255.0,40723.0,0,0,0,0,41061.73828125,-494.0,-5041.0,-1214.0
3.459,0.1526392251253128,-0.005937918089330196,0.5450201630592346,0.0,0.0,0.0,-1.5668507814407349,-14.181456565856934,-2.6881208419799805,0.017221132293343544,2.979343891143799,0.5439600348472595,36803.0,46147.0,40269.0,40773.0,0,0,0,0,40998.51953125,-111.0,-5817.0,-958.0
3.479,0.17345072329044342,-0.0038692946545779705,0.543245792388916,0.0,0.0,0.0,-1.3525023460388184,-13.13783073425293,-2.556957483291626,0.01725546270608902,2.979391098022461,0.542363166809082,36374.0,45602.0,40548.0,40776.0,0,0,0,0,40825.72265625,-1256.0,-5405.0,-698.0
3.5,0.18460610508918762,-0.004353083670139313,0.5418672561645508,0.0,0.0,0.0,-1.151916265487671,-11.98378849029541,-2.4214284420013428,0.350999653339386,2.9798083305358887,0.541724681854248,34269.0,48179.0,41905.0,37343.0,0,0,0,0,40424.88671875,-2511.0,-9612.0,-1017.0
3.52,0.13242754340171814,-0.014421038329601288,0.5416737794876099,0.0,0.0,0.0,-0.8311147689819336,-10.394944190979004,-2.256443500518799,0.351540744304657,2.9810543060302734,0.5411344170570374,34398.0,46668.0,41294.0,38236.0,0,0,0,0,40149.4609375,-1443.0,-8283.0,-1340.0
3.54,0.12798328697681427,-0.016261402517557144,0.5411999821662903,0.0,0.0,0.0,-0.5905071496963501,-9.040139198303223,-2.1397993564605713,0.35232970118522644,2.981527090072632,0.5412043333053589,34356.0,45444.0,40678.0,38442.0,0,0,0,0,39730.83984375,-658.0,-7116.0,-1786.0
3.56,0.09839723259210587,-0.010942716151475906,0.5416166186332703,0.0,0.0,0.0,-0.5121620297431946,-7.74080228805542,-2.0729141235351562,0.40201041102409363,2.980705738067627,0.5439115166664124,33726.0,43620.0,39950.0,38452.0,0,0,0,0,38937.046875,-144.0,-6324.0,-572.0
3.58,0.08514627069234848,-0.010035662911832333,0.5442556142807007,0.0,0.0,0.0,-0.46081972122192383,-6.759888172149658,-1.9806362390518188,0.40279096364974976,2.9811248779296875,0.5447477102279663,34283.0,45227.0,38647.0,36179.0,0,0,0,0,38584.734375,-1180.0,-5562.0,2794.0
3.6,0.07093498855829239,-0.010116664692759514,0.5450887084007263,0.0,0.0,0.0,-0.4622272551059723,-6.1238226890563965,-1.8819248676300049,0.4036045968532562,2.9815402030944824,0.5459194183349609,37974.0,47984.0,34388.0,32306.0,0,0,0,0,38163.390625,-10017.0,-5949.0,-2198.0
3.62,0.0520927794277668,-0.0938950926065445,0.5470731258392334,0.0,0.0,0.0,0.14919984340667725,-5.704360485076904,-1.4107226133346558,0.40098828077316284,2.9812164306640625,0.546040952205658,35105.0,39369.0,34377.0,37989.0,0,0,0,0,36710.1484375,-883.0,437.0,-2565.0
3.64,0.15664805471897125,-0.07791700959205627,0.5550142526626587,0.0,0.0,0.0,0.08561637997627258,-6.109076023101807,-1.4178847074508667,0.40662869811058044,2.978090524673462,0.5544041991233826,32423.0,37649.0,37283.0,40021.0,0,0,0,0,36844.78515625,4336.0,-1580.0,-2848.0
3.66,0.23861435055732727,-0.05880367383360863,0.5546891689300537,0.0,0.0,0.0,-0.36227646470069885,-6.54803991317749,-1.4444600343704224,0.4051116406917572,2.977245330810547,0.5536848902702332,30287.0,37777.0,38159.0,38885.0,0,0,0,0,36277.5625,3649.0,-2671.0,-1555.0
3.68,0.36297285556793213,-0.036046840250492096,0.5586320757865906,0.0,0.0,0.0,-1.2328938245773315,-6.950069904327393,-1.4747436046600342,0.4017446041107178,1.2425651550292969,0.558565080165863,30347.0,41073.0,38385.0,36319.0,0,0,0,0,36531.7578125,1278.0,-7855.0,-1897.0
3.7,0.41849616169929504,-0.02455310896039009,0.5587368011474609,0.0,0.0,0.0,-1.938089370727539,-6.402993679046631,-1.447656273841858,0.40083521604537964,1.241416335105896,0.5586214065551758,33060.0,42998.0,37506.0,35800.0,0,0,0,0,37341.01953125,-1781.0,-6465.0,-1037.0
3.719,0.5273334980010986,-0.015308868139982224,0.5555332899093628,0.0,0.0,0.0,-2.2211053371429443,-5.631535053253174,-1.3905065059661865,0.3974970281124115,1.237167239189148,0.5546248555183411,35738.0,41800.0,37302.0,39248.0,0,0,0,0,38522.90625,-713.0,-3098.0,-707.0
3.739,0.63316410779953,-0.004463741090148687,0.5499787330627441,0.0,0.0,0.0,-2.1342782974243164,-4.428438663482666,-1.3136156797409058,0.3945274353027344,1.2328609228134155,0.5494582653045654,35829.0,43971.0,38593.0,38355.0,0,0,0,0,39187.7578125,-1881.0,-5864.0,-1038.0
3.759,0.7080568075180054,0.0028817960992455482,0.5470138192176819,0.0,0.0,0.0,-1.7810604572296143,-2.8755993843078613,-1.221719741821289,0.3933452069759369,0.743782103061676,0.547429084777832,34095.0,45417.0,41207.0,36317.0,0,0,0,0,39259.03125,-1588.0,-9563.0,-1046.0
3.779,0.7417828440666199,0.009291431866586208,0.5465139150619507,0.0,0.0,0.0,-1.2833235263824463,-0.942159116268158,-1.145315408706665,0.28552064299583435,0.7438660264015198,0.54705810546875,33713.0,45827.0,41293.0,36899.0,0,0,0,0,39433.8828125,-1488.0,-9153.0,-1491.0
3.799,0.7762266397476196,0.012094607576727867,0.5459179878234863,0.0,0.0,0.0,-0.6946662068367004,1.1340521574020386,-1.0739041566848755,0.2856671214103699,0.7440001964569092,0.5467534065246582,32894.0,44728.0,41862.0,36844.0,0,0,0,0,39082.39453125,-640.0,-8813.0,-1036.0
3.819,0.7984339594841003,0.013568436726927757,0.5472336411476135,0.0,0.0,0.0,-0.07168997079133987,3.3000943660736084,-1.0322567224502563,0.04756610468029976,0.7405738830566406,0.5484707951545715,32718.0,44620.0,41422.0,36192.0,0,0,0,0,38738.1328125,-292.0,-9232.0,-1198.0
3.839,0.8151205778121948,0.017705654725432396,0.5484629273414612,0.0,0.0,0.0,0.4373438358306885,5.27516508102417,-0.986204206943512,0.04862755909562111,0.7414814233779907,0.5495533347129822,33828.0,43828.0,39678.0,36398.0,0,0,0,0,38433.33203125,-1197.0,-7392.0,-1302.0
3.859,0.8353523015975952,0.01847403682768345,0.5495765805244446,0.0,0.0,0.0,0.8904182314872742,6.879922866821289,-0.9432469606399536,0.04961095005273819,0.742316484451294,0.550824761390686,34742.0,43246.0,39822.0,36954.0,0,0,0,0,38691.06640625,-833.0,-5726.0,-946.0
3.879,0.8547826409339905,0.019358031451702118,0.5467984676361084,0.0,0.0,0.0,1.3249701261520386,8.096989631652832,-0.9028416872024536,0.04643111675977707,0.7471416592597961,0.5476431250572205,33706.0,43526.0,40146.0,36934.0,0,0,0,0,38578.53125,-227.0,-6085.0,-1245.0
3.899,0.8742649555206299,0.017039963975548744,0.5477738380432129,0.0,0.0,0.0,1.7273430824279785,8.995780944824219,-0.843843936920166,0.04722883552312851,0.7478481531143188,0.5486693978309631,33521.0,42401.0,39913.0,37721.0,0,0,0,0,38389.63671875,834.0,-6289.0,-1281.0
3.919,0.8943536877632141,0.01812938041985035,0.5487378239631653,0.0,0.0,0.0,1.9597924947738647,9.525148391723633,-0.8017972111701965,0.047996219247579575,0.7485237121582031,0.5498339533805847,32147.0,43491.0,40747.0,36515.0,0,0,0,0,38225.9375,518.0,-7233.0,-1563.0
3.939,0.9097493886947632,0.021044546738266945,0.5496512651443481,0.0,0.0,0.0,2.0333974361419678,9.784358024597168,-0.763397216796875,0.045730553567409515,0.7538636922836304,0.5504974126815796,33477.0,41613.0,39089.0,38085.0,0,0,0,0,38066.16015625,763.0,-4535.0,-1454.0
3.959,0.9264821410179138,0.02382618561387062,0.5507123470306396,0.0,0.0,0.0,2.087569236755371,9.909082412719727,-0.7454586625099182,0.04621146246790886,0.7542951703071594,0.5514504313468933,34116.0,42132.0,38090.0,37302.0,0,0,0,0,37869.48828125,-882.0,-6709.0,-1402.0
3.979,0.9374112486839294,0.02171918749809265,0.5521944165229797,0.0,0.0,0.0,2.1497044563293457,9.829682350158691,-0.713878333568573,0.04667546972632408,0.7547101378440857,0.5524764657020569,34883.0,44541.0,38401.0,36207.0,0,0,0,0,39093.53515625,-2306.0,-6163.0,-1527.0
3.999,0.9544151425361633,0.026172898709774017,0.5430648326873779,0.0,0.0,0.0,2.220400333404541,9.353649139404297,-0.68565434217453,0.04189722239971161,0.7531395554542542,0.543318510055542,35516.0,44292.0,39024.0,37544.0,0,0,0,0,39085.1953125,-984.0,-4128.0,-1442.0
4.019,0.9690511226654053,0.025439519435167313,0.5433483123779297,0.0,0.0,0.0,2.4772884845733643,8.814186096191406,-0.6576746702194214,0.04229923337697983,0.7535013556480408,0.5436365008354187,35810.0,43440.0,38802.0,38240.0,0,0,0,0,39062.6484375,-1190.0,-4486.0,-1235.0
4.039,0.9802204966545105,0.024295153096318245,0.5437540411949158,0.0,0.0,0.0,2.8028175830841064,8.252876281738281,-0.617337167263031,0.04270005598664284,0.7538596987724304,0.5439926385879517,34556.0,43690.0,39960.0,37982.0,0,0,0,0,40083.3359375,-104.0,-4016.0,-1299.0
4.059,0.9847074747085571,0.02765975147485733,0.536565363407135,0.0,0.0,0.0,2.962796926498413,7.6502461433410645,-0.5731240510940552,0.03936650604009628,0.7520168423652649,0.5362370014190674,36686.0,43856.0,40064.0,39654.0,0,0,0,0,40063.75390625,-1049.0,-4389.0,-1057.0
4.079,0.9992212057113647,0.02881964109838009,0.536103367805481,0.0,0.0,0.0,2.9735300540924072,6.9755096435546875,-0.526383638381958,0.039618466049432755,0.7522403001785278,0.5359163284301758,36179.0,43313.0,40713.0,39911.0,0,0,0,0,39960.64453125,-1529.0,-3396.0,-918.0
4.099,1.0113898515701294,0.029102753847837448,0.5357464551925659,0.0,0.0,0.0,2.931997299194336,6.301140308380127,-0.47042566537857056,0.039814069867134094,0.7524111270904541,0.5356440544128418,37740.0,43974.0,40242.0,40448.0,0,0,0,0,40601.57421875,-842.0,-3211.0,-1030.0
4.12,1.0179246664047241,0.029423588886857033,0.5296762585639954,0.0,0.0,0.0,2.881730318069458,5.631835460662842,-0.4156823754310608,0.037634141743183136,0.7506974339485168,0.529293417930603,36722.0,45240.0,40766.0,39292.0,0,0,0,0,40414.765625,-311.0,-4312.0,-1452.0
4.139,1.0348321199417114,0.03010699339210987,0.5290092825889587,0.0,0.0,0.0,2.826037645339966,4.925661087036133,-0.3638508915901184,0.0377533957362175,0.7507992386817932,0.5288524627685547,36219.0,44057.0,40961.0,39991.0,0,0,0,0,40199.0703125,-772.0,-3290.0,-1548.0
4.159,1.043155550956726,0.031287845224142075,0.528690755367279,0.0,0.0,0.0,2.7216975688934326,4.333302974700928,-0.3352702856063843,0.0378635935485363,0.7508898973464966,0.5286207795143127,36900.0,44566.0,39598.0,39256.0,0,0,0,0,40058.13671875,-457.0,-5083.0,-1856.0
4.18,1.049651861190796,0.029810018837451935,0.5285747051239014,0.0,0.0,0.0,2.620969533920288,3.7772319316864014,-0.3171277642250061,0.03673529997467995,0.7494637370109558,0.5241329669952393,36899.0,45037.0,40433.0,39347.0,0,0,0,0,40300.4765625,-618.0,-2024.0,-1697.0
4.199,1.0522128343582153,0.02851063385605812,0.5240508913993835,0.0,0.0,0.0,2.4933714866638184,3.2307143211364746,-0.3142061233520508,0.036778055131435394,0.7494927644729614,0.5239362716674805,37047.0,43749.0,39797.0,40107.0,0,0,0,0,40055.03125,-703.0,-2392.0,-1686.0
4.219,1.0591959953308105,0.02666589245200157,0.5239453315734863,0.0,0.0,0.0,2.3292887210845947,2.6779603958129883,-0.30553391575813293,0.03679543361067772,0.7494967579841614,0.5239386558532715,35891.0,44037.0,40175.0,39577.0,0,0,0,0,39878.58984375,-1285.0,-3402.0,-2072.0
4.239,1.0716415643692017,0.027658477425575256,0.5240325331687927,0.0,0.0,0.0,2.1240298748016357,2.0563228130340576,-0.29453837871551514,0.03652282431721687,0.7495825290679932,0.5234352946281433,36867.0,43775.0,39431.0,40095.0,0,0,0,0,39904.16796875,-639.0,-5959.0,-2149.0
4.259,1.075418472290039,0.02605595998466015,0.5215553641319275,0.0,0.0,0.0,1.9404865503311157,1.5408689975738525,-0.30919724702835083,0.036204900592565536,0.7488520741462708,0.5216671824455261,36480.0,43610.0,39276.0,39682.0,0,0,0,0,39622.64453125,-284.0,-2462.0,-2106.0
4.279,1.0817667245864868,0.02308584190905094,0.5218366980552673,0.0,0.0,0.0,1.7620630264282227,1.0285059213638306,-0.3305900990962982,0.036185674369335175,0.7488246560096741,0.52208012342453,36051.0,44041.0,39071.0,38773.0,0,0,0,0,39899.43359375,-1298.0,-3266.0,-2111.0
4.299,1.0879008769989014,0.022117044776678085,0.5189819931983948,0.0,0.0,0.0,1.5305589437484741,0.5431986451148987,-0.3439481258392334,0.035740118473768234,0.7479501962661743,0.5191521048545837,36047.0,43365.0,39631.0,39629.0,0,0,0,0,39569.1796875,-1293.0,-3715.0,-2053.0
4.319,1.089939832687378,0.020452450960874557,0.5201475620269775,0.0,0.0,0.0,1.3134256601333618,0.1368764042854309,-0.3548862636089325,0.03598447144031525,0.7475817203521729,0.5204286575317383,36225.0,42097.0,39045.0,40537.0,0,0,0,0,39369.25,-82.0,-2771.0,-2027.0
4.339,1.0979859828948975,0.018143020570278168,0.5207139253616333,0.0,0.0,0.0,1.093101978302002,-0.29022282361984253,-0.37119433283805847,0.03592688962817192,0.7475192546844482,0.5210675597190857,35974.0,43132.0,38946.0,39024.0,0,0,0,0,39368.42578125,38.0,-3270.0,-1921.0
4.359,1.1091957092285156,0.017698869109153748,0.5203403830528259,0.0,0.0,0.0,0.8415989875793457,-0.664237916469574,-0.38122549653053284,0.035809386521577835,0.7472526431083679,0.5206701755523682,35861.0,43949.0,39627.0,39187.0,0,0,0,0,39573.8203125,-158.0,-3321.0,-2216.0
