time,x_kalman,y_kalman,z_kalman,x_lh,y_lh,z_lh,roll,pitch,yaw,F,R,Z,motor.m1,motor.m2,motor.m3,motor.m4,rpm.m1,rpm.m2,rpm.m3,rpm.m4,controller.cmd_thrust,controller.cmd_roll,controller.cmd_pitch,controller.cmd_yaw
<<<<<<< HEAD
0.0,-0.0031803157180547714,-0.003343957243487239,0.012986638583242893,0.0,0.0,0.0,-1.683260440826416,-0.22922572493553162,-0.01880616322159767,0.0,-1.0,0.012951698154211044,54379.0,53679.0,55623.0,55883.0,0,0,0,0,55092.2578125,-685.0,-4250.0,-86.0
0.02,-0.0034142418298870325,-0.0026782567147165537,0.012912689708173275,0.0,0.0,0.0,-1.7121392488479614,-0.22470344603061676,-0.01675228774547577,0.0,-1.0,0.012872382067143917,54562.0,57242.0,55592.0,53768.0,0,0,0,0,55476.1796875,596.0,1508.0,-386.0
0.04,-0.003968925680965185,-0.003210649359971285,0.012833202257752419,0.0,0.0,0.0,-1.677820086479187,-0.18756486475467682,-0.016964251175522804,0.0,-1.0,0.01280474103987217,56265.0,59895.0,54603.0,52497.0,0,0,0,0,55979.34375,-5149.0,-8398.0,-969.0
0.06,-0.0018578992458060384,-0.003387977834790945,0.011990731582045555,0.0,0.0,0.0,-1.5919896364212036,-0.2716340720653534,-0.043732646852731705,0.0,-1.0,0.012024765834212303,51783.0,59917.0,58959.0,52545.0,0,0,0,0,55034.2421875,1311.0,-7916.0,-1172.0
0.08,-0.004159494768828154,-0.004060808103531599,0.012333046644926071,0.0,0.0,0.0,-1.170630931854248,-0.07279186695814133,-0.09662061184644699,0.0,-1.0,0.013157496228814125,55465.0,54507.0,51029.0,54279.0,0,0,0,0,52727.3046875,-6450.0,-1799.0,-1787.0
0.1,0.0014052640181034803,-0.007942350581288338,0.011778478510677814,0.0,0.0,0.0,-0.6853739619255066,0.3371298611164093,-0.16456736624240875,0.0,-1.0,0.0135237667709589,48340.0,57502.0,51058.0,45980.0,0,0,0,0,48775.765625,-3143.0,-8276.0,-2262.0
0.12,0.010011987760663033,-0.011759641580283642,0.016685739159584045,0.0,0.0,0.0,-0.3896338641643524,0.483198881149292,-0.2573503851890564,0.0,-1.0,0.020121581852436066,44258.0,48082.0,47036.0,47440.0,0,0,0,0,44396.5,2076.0,-3894.0,-2673.0
0.14,0.013968112878501415,-0.018630601465702057,0.024392979219555855,0.0,0.0,0.0,0.09952569752931595,0.798690676689148,-0.3828854560852051,0.0,-1.0,0.018945027142763138,41986.0,45606.0,44098.0,45362.0,0,0,0,0,42160.28515625,1346.0,-3692.0,-3192.0
0.16,0.015064213424921036,-0.019053857773542404,0.02425278164446354,0.0,0.0,0.0,-0.09131300449371338,1.2066991329193115,-0.5323631763458252,0.0,-1.0,0.03087651915848255,38328.0,44682.0,39950.0,38508.0,0,0,0,0,38543.11328125,1600.0,-2816.0,-3208.0
0.18,0.014469055458903313,-0.017138397321105003,0.037903327494859695,0.0,0.0,0.0,-0.6695682406425476,1.377292275428772,-0.6901060938835144,0.0,-1.0,0.04531512036919594,33402.0,42048.0,37586.0,35232.0,0,0,0,0,35651.06640625,452.0,-5470.0,-3409.0
0.2,0.015959138050675392,-0.025097966194152832,0.0528157502412796,0.0,0.0,0.0,-0.6273621916770935,1.5932477712631226,-0.8690808415412903,0.0,-1.0,0.05281806364655495,31993.0,41797.0,35869.0,34273.0,0,0,0,0,35011.203125,-2445.0,-5009.0,-3723.0
0.22,0.009539569728076458,-0.028359267860651016,0.060858700424432755,0.0,0.0,0.0,-0.7878068685531616,2.0958940982818604,-1.0285414457321167,0.0,-1.0,0.06896443665027618,32320.0,36624.0,32478.0,35438.0,0,0,0,0,33536.11328125,-183.0,-1994.0,-3557.0
0.24,0.006338784005492926,-0.03375314921140671,0.07729436457157135,0.0,0.0,0.0,-0.8984314203262329,2.3079004287719727,-1.2111703157424927,0.0,-1.0,0.08594843745231628,30225.0,36799.0,32617.0,32507.0,0,0,0,0,32550.796875,-344.0,-868.0,-3491.0
0.26,0.001212888048030436,-0.034202806651592255,0.09444567561149597,0.0,0.0,0.0,-1.2238799333572388,2.181913375854492,-1.3535069227218628,0.0,-1.0,0.10308760404586792,29781.0,32737.0,30707.0,34539.0,0,0,0,0,31641.5,2938.0,908.0,-3263.0
0.28,0.0018607117235660553,-0.031085746362805367,0.11307016015052795,0.0,0.0,0.0,-1.7294293642044067,1.5502549409866333,-1.4796624183654785,0.0,-1.0,0.12167099118232727,28544.0,34024.0,30872.0,32416.0,0,0,0,0,31310.123046875,-1175.0,-3741.0,-3160.0
0.3,-0.006360712926834822,-0.03316943347454071,0.1297563761472702,0.0,0.0,0.0,-2.0313124656677246,1.0700029134750366,-1.6066197156906128,0.0,-1.0,0.13820867240428925,28506.0,34426.0,30380.0,31384.0,0,0,0,0,31103.076171875,295.0,-767.0,-2861.0
0.32,-0.00795138068497181,-0.033816058188676834,0.14659850299358368,0.0,0.0,0.0,-2.268191337585449,0.363933801651001,-1.725407600402832,0.0,-1.0,0.1547231823205948,29199.0,31799.0,27375.0,31299.0,0,0,0,0,29894.931640625,-964.0,-513.0,-2443.0
0.34,-0.010489357635378838,-0.03464033454656601,0.16963550448417664,0.0,0.0,0.0,-2.3878674507141113,-0.3242172300815582,-1.8203392028808594,0.0,-1.0,0.17793051898479462,29286.0,31918.0,27496.0,30956.0,0,0,0,0,29973.138671875,-671.0,1169.0,-2068.0
0.36,-0.01275181770324707,-0.03555260971188545,0.1859457790851593,0.0,0.0,0.0,-2.4266319274902344,-1.0828421115875244,-1.8940562009811401,0.0,-1.0,0.1938406080007553,28946.0,31778.0,28320.0,31280.0,0,0,0,0,30225.728515625,-150.0,877.0,-1801.0
0.38,-0.014762564562261105,-0.03495240956544876,0.20152927935123444,0.0,0.0,0.0,-2.468031406402588,-1.8790054321289062,-1.9360291957855225,0.0,-1.0,0.20901834964752197,27152.0,31476.0,28504.0,29900.0,0,0,0,0,29435.26171875,-202.0,461.0,-1611.0
0.4,-0.01680091768503189,-0.03483176603913307,0.22302822768688202,0.0,0.0,0.0,-2.513758659362793,-2.6656835079193115,-1.9630000591278076,0.0,-1.0,0.23041072487831116,27488.0,31610.0,29068.0,30354.0,0,0,0,0,29870.57421875,-1621.0,-3217.0,-1367.0
0.42,-0.018578166142106056,-0.03432478383183479,0.23828314244747162,0.0,0.0,0.0,-2.5395984649658203,-3.3908729553222656,-1.9753336906433105,0.0,-1.0,0.24519751965999603,28460.0,32350.0,29052.0,30678.0,0,0,0,0,30437.28515625,-962.0,-493.0,-1273.0
0.44,-0.020053861662745476,-0.0341743528842926,0.2518709599971771,0.0,0.0,0.0,-2.5194034576416016,-3.95711088180542,-1.971855640411377,0.0,-1.0,0.2628094255924225,28498.0,32518.0,28628.0,30020.0,0,0,0,0,30219.298828125,-1142.0,-135.0,-1133.0
0.46,-0.020037254318594933,-0.03334462270140648,0.26922670006752014,0.0,0.0,0.0,-2.4524736404418945,-4.462000846862793,-1.9610306024551392,0.0,-1.0,0.27541160583496094,30727.0,31853.0,28159.0,31377.0,0,0,0,0,30843.52734375,-2570.0,-846.0,-1093.0
0.48,-0.020189357921481133,-0.032684076577425,0.28134649991989136,0.0,0.0,0.0,-2.3367831707000732,-4.9236602783203125,-1.9430766105651855,0.0,-1.0,0.28708434104919434,30023.0,33219.0,29543.0,31939.0,0,0,0,0,30340.142578125,-29.0,-3268.0,-878.0
0.5,-0.0196363665163517,-0.0319170206785202,0.29251447319984436,0.0,0.0,0.0,-2.1872525215148926,-5.355590343475342,-1.9216115474700928,0.0,-1.0,0.3045021891593933,28994.0,33422.0,29728.0,30544.0,0,0,0,0,30999.751953125,-1382.0,-2477.0,-804.0
0.52,-0.02116146869957447,-0.02978273667395115,0.3098371624946594,0.0,0.0,0.0,-2.0747623443603516,-5.598012924194336,-1.890539526939392,0.0,-1.0,0.31494981050491333,29350.0,34358.0,30894.0,30706.0,0,0,0,0,31655.248046875,-454.0,-283.0,-663.0
0.54,-0.021492382511496544,-0.028069037944078445,0.3198297619819641,0.0,0.0,0.0,-1.9433106184005737,-5.738807678222656,-1.8512643575668335,0.0,-1.0,0.3294580280780792,29959.0,32509.0,29973.0,31871.0,0,0,0,0,31078.478515625,364.0,451.0,-1124.0
0.56,-0.02108635939657688,-0.02674461528658867,0.3341637849807739,0.0,0.0,0.0,-1.7695536613464355,-5.848780632019043,-1.8026460409164429,0.0,-1.0,0.3386460244655609,30608.0,34128.0,30540.0,31728.0,0,0,0,0,31751.197265625,-675.0,-501.0,-1159.0
0.58,-0.01849990524351597,-0.02510661818087101,0.34289443492889404,0.0,0.0,0.0,-1.576794981956482,-6.000120162963867,-1.7516522407531738,0.0,-1.0,0.34697094559669495,30407.0,34011.0,30281.0,31325.0,0,0,0,0,31506.421875,-778.0,-2602.0,-1218.0
0.6,-0.017189495265483856,-0.023375988006591797,0.3558979332447052,0.0,0.0,0.0,-1.3422222137451172,-6.062366008758545,-1.707338571548462,0.0,-1.0,0.35982078313827515,30126.0,35162.0,31854.0,31414.0,0,0,0,0,32139.353515625,-309.0,-1186.0,-1077.0
0.62,-0.015548677183687687,-0.02142508327960968,0.3635575473308563,0.0,0.0,0.0,-1.1057243347167969,-6.032793998718262,-1.6687434911727905,0.0,-1.0,0.3670906722545624,30480.0,35016.0,32720.0,32920.0,0,0,0,0,32784.76953125,800.0,-385.0,-1153.0
0.64,-0.013737456873059273,-0.01989058405160904,0.37045085430145264,0.0,0.0,0.0,-0.8618306517601013,-5.964522361755371,-1.6262292861938477,0.0,-1.0,0.37361714243888855,32112.0,34292.0,32364.0,34852.0,0,0,0,0,33405.00390625,-990.0,-2054.0,-1120.0
0.66,-0.011400808580219746,-0.01809900999069214,0.3754144310951233,0.0,0.0,0.0,-0.6429320573806763,-5.8310980796813965,-1.5924593210220337,0.0,-1.0,0.37817510962486267,33402.0,34828.0,32720.0,35962.0,0,0,0,0,34228.375,-1681.0,-1402.0,-1185.0
0.68,-0.008447248488664627,-0.016434624791145325,0.3807840645313263,0.0,0.0,0.0,-0.44265779852867126,-5.721735954284668,-1.5515437126159668,0.0,-1.0,0.3832297921180725,33026.0,37268.0,34082.0,34740.0,0,0,0,0,34779.51953125,-1494.0,-2885.0,-1237.0
0.7,-0.004520617891103029,-0.014218422584235668,0.3855403661727905,0.0,0.0,0.0,-0.23421192169189453,-5.566342353820801,-1.5313605070114136,0.0,-1.0,0.38774338364601135,32632.0,38880.0,35360.0,34220.0,0,0,0,0,35273.96484375,-1517.0,-3976.0,-1222.0
0.72,-0.0016029771650210023,-0.011797229759395123,0.38666167855262756,0.0,0.0,0.0,-0.001105121336877346,-5.30272912979126,-1.521471381187439,0.0,-1.0,0.3884701728820801,34420.0,38654.0,35648.0,36254.0,0,0,0,0,36244.7265625,-853.0,-1334.0,-1246.0
0.74,0.0024775362107902765,-0.010825187899172306,0.39017054438591003,0.0,0.0,0.0,0.24715380370616913,-5.001071453094482,-1.4992655515670776,0.0,-1.0,0.39180299639701843,35486.0,39160.0,34966.0,36664.0,0,0,0,0,36569.3125,139.0,178.0,-1341.0
0.76,0.007217784877866507,-0.008785604499280453,0.3933413326740265,0.0,0.0,0.0,0.44433656334877014,-4.733716011047363,-1.4892451763153076,0.0,-1.0,0.3948434293270111,35421.0,39581.0,35435.0,36583.0,0,0,0,0,36755.29296875,-923.0,-1766.0,-1363.0
0.78,0.01182492170482874,-0.0071477084420621395,0.3963094651699066,0.0,0.0,0.0,0.6471043229103088,-4.4709272384643555,-1.4918365478515625,0.0,-1.0,0.39615747332572937,34970.0,40502.0,36352.0,36612.0,0,0,0,0,37109.0,248.0,-2218.0,-1417.0
0.8,0.01659918762743473,-0.005194603931158781,0.397489994764328,0.0,0.0,0.0,0.844016432762146,-4.120620250701904,-1.5039267539978027,0.0,-1.0,0.3988344669342041,34062.0,41252.0,37110.0,36024.0,0,0,0,0,37112.3984375,-1250.0,-2710.0,-1488.0
0.82,0.02175593562424183,-0.003098824992775917,0.4001446068286896,0.0,0.0,0.0,1.011950135231018,-3.6783840656280518,-1.5261225700378418,0.0,-1.0,0.40148401260375977,35939.0,38799.0,35321.0,38141.0,0,0,0,0,37050.42578125,133.0,-498.0,-1440.0
0.84,0.02785751409828663,-0.0017387932166457176,0.4027945399284363,0.0,0.0,0.0,1.1528371572494507,-3.232675313949585,-1.5524758100509644,0.0,-1.0,0.4023524224758148,35898.0,40630.0,35504.0,36852.0,0,0,0,0,37221.4765625,-1488.0,-1535.0,-1476.0
0.86,0.03347184509038925,-0.00023563526337966323,0.40361902117729187,0.0,0.0,0.0,1.2346861362457275,-2.8742077350616455,-1.5693306922912598,0.0,-1.0,0.4049588739871979,35255.0,40121.0,35805.0,36959.0,0,0,0,0,37035.33984375,-1464.0,-1630.0,-1450.0
0.88,0.038501664996147156,0.0012621473288163543,0.4062991142272949,0.0,0.0,0.0,1.3744107484817505,-2.5061280727386475,-1.5887727737426758,0.0,-1.0,0.40767911076545715,34483.0,41977.0,35981.0,34875.0,0,0,0,0,36829.0,-635.0,-3726.0,-1604.0
0.9,0.04566693305969238,0.002685252111405134,0.4090607762336731,0.0,0.0,0.0,1.5216401815414429,-2.1289491653442383,-1.6093189716339111,0.0,-1.0,0.4105243384838104,34310.0,40168.0,36428.0,37042.0,0,0,0,0,36987.921875,-205.0,-2473.0,-1607.0
0.92,0.050982069224119186,0.0035127070732414722,0.40969979763031006,0.0,0.0,0.0,1.6415679454803467,-1.6064621210098267,-1.643244981765747,0.0,-1.0,0.41108304262161255,35249.0,40501.0,35083.0,36315.0,0,0,0,0,36787.5078125,-551.0,-2402.0,-1645.0
0.94,0.05792529508471489,0.005119788460433483,0.41248589754104614,0.0,0.0,0.0,1.6568498611450195,-1.112257957458496,-1.6817407608032227,0.0,-1.0,0.4139367938041687,33809.0,39293.0,35997.0,37177.0,0,0,0,0,36569.31640625,-428.0,-240.0,-1626.0
0.96,0.06385945528745651,0.005776395555585623,0.41539958119392395,0.0,0.0,0.0,1.6784149408340454,-0.7037001848220825,-1.7063604593276978,0.0,-1.0,0.41690531373023987,34678.0,39792.0,35620.0,37570.0,0,0,0,0,36915.03515625,-509.0,-3441.0,-1701.0
0.98,0.07099743187427521,0.007405064068734646,0.41503122448921204,0.0,0.0,0.0,1.671181559562683,-0.3889269530773163,-1.737690806388855,0.0,-1.0,0.4164149761199951,34715.0,41323.0,35449.0,35549.0,0,0,0,0,36759.37890625,-104.0,-1131.0,-1706.0
1.0,0.07780710607767105,0.007436589803546667,0.4177948534488678,0.0,0.0,0.0,1.6824921369552612,-0.062341347336769104,-1.7591873407363892,0.0,-1.0,0.4192177951335907,32824.0,40838.0,37052.0,35714.0,0,0,0,0,36607.60546875,-880.0,-2615.0,-1646.0
1.02,0.08320995420217514,0.008879406377673149,0.4206380546092987,0.0,0.0,0.0,1.6839436292648315,0.33225032687187195,-1.7832143306732178,0.0,-1.0,0.42207908630371094,33413.0,41025.0,36031.0,35663.0,0,0,0,0,36533.05859375,-771.0,-3289.0,-1810.0
1.04,0.0905400961637497,0.009150369092822075,0.423006147146225,0.0,0.0,0.0,1.6627142429351807,0.6899791359901428,-1.800315260887146,0.0,-1.0,0.42445799708366394,33644.0,38826.0,35676.0,37342.0,0,0,0,0,36372.2890625,-315.0,-1157.0,-1728.0
1.06,0.09663982689380646,0.009385911747813225,0.42591679096221924,0.0,0.0,0.0,1.6120730638504028,1.0043940544128418,-1.8281794786453247,0.0,-1.0,0.4273921251296997,34035.0,40709.0,34779.0,35341.0,0,0,0,0,36216.2109375,-1860.0,-3723.0,-1793.0
1.08,0.10317827761173248,0.00959402322769165,0.42887744307518005,0.0,0.0,0.0,1.536135196685791,1.2224684953689575,-1.8424748182296753,0.0,-1.0,0.4311275780200958,34348.0,38010.0,33986.0,37356.0,0,0,0,0,35925.08984375,-29.0,-1938.0,-1748.0
1.1,0.10985307395458221,0.008868738077580929,0.4326649308204651,0.0,0.0,0.0,1.5257437229156494,1.4239370822906494,-1.8579699993133545,0.0,-1.0,0.4343664348125458,33946.0,40452.0,34012.0,34822.0,0,0,0,0,35808.93359375,-1513.0,-4356.0,-1844.0
1.12,0.11742110550403595,0.00887392833828926,0.4359035789966583,0.0,0.0,0.0,1.4776040315628052,1.6094934940338135,-1.8725489377975464,0.0,-1.0,0.4374605119228363,32664.0,39032.0,35214.0,35918.0,0,0,0,0,35707.6171875,-1189.0,-1945.0,-1809.0
1.14,0.12237626314163208,0.008411030285060406,0.4389951527118683,0.0,0.0,0.0,1.4192490577697754,1.842812418937683,-1.887634038925171,0.0,-1.0,0.44237276911735535,33092.0,38286.0,33960.0,36026.0,0,0,0,0,35341.93359375,233.0,-1052.0,-1836.0
1.16,0.12883011996746063,0.008999565616250038,0.44396430253982544,0.0,0.0,0.0,1.311497688293457,2.047272205352783,-1.8985055685043335,0.0,-1.0,0.4455450475215912,32991.0,38623.0,33933.0,35701.0,0,0,0,0,35312.171875,-2261.0,-3789.0,-1883.0
1.18,0.13464407622814178,0.009503788314759731,0.44710949063301086,0.0,0.0,0.0,1.1800780296325684,2.152573823928833,-1.9048964977264404,0.0,-1.0,0.4483698308467865,32747.0,40011.0,34275.0,34435.0,0,0,0,0,35367.03515625,-1674.0,-2041.0,-1880.0
1.2,0.1398816853761673,0.008744919672608376,0.4498670995235443,0.0,0.0,0.0,1.0830529928207397,2.236116409301758,-1.9162472486495972,0.0,-1.0,0.45133718848228455,32423.0,38579.0,34701.0,35805.0,0,0,0,0,35377.0390625,-1609.0,-3134.0,-1695.0
1.22,0.1467706263065338,0.007601451128721237,0.45277881622314453,0.0,0.0,0.0,1.0255252122879028,2.3029191493988037,-1.9208323955535889,0.0,-1.0,0.4541977047920227,33148.0,38378.0,33864.0,35710.0,0,0,0,0,35275.8984375,-2152.0,-2658.0,-1737.0
1.24,0.15260715782642365,0.007132822182029486,0.4563489556312561,0.0,0.0,0.0,0.9484725594520569,2.3733057975769043,-1.9077526330947876,0.0,-1.0,0.45774590969085693,33481.0,38481.0,33691.0,35659.0,0,0,0,0,35328.8515625,-1174.0,-1691.0,-1742.0
1.26,0.15713804960250854,0.00625079870223999,0.4591093957424164,0.0,0.0,0.0,0.8661362528800964,2.4186573028564453,-1.8892273902893066,0.0,-1.0,0.4604300260543823,34158.0,38590.0,33214.0,35678.0,0,0,0,0,35410.15625,-955.0,-2328.0,-1731.0
1.28,0.16189976036548615,0.0049790916964411736,0.46172910928726196,0.0,0.0,0.0,0.7774978876113892,2.399623155593872,-1.8748351335525513,0.0,-1.0,0.4629904329776764,33096.0,39430.0,33746.0,34596.0,0,0,0,0,35217.94140625,-1661.0,-1370.0,-1728.0
1.3,0.16709372401237488,0.004204605706036091,0.465620756149292,0.0,0.0,0.0,0.6174246072769165,2.3200843334198,-1.8565560579299927,0.0,-1.0,0.46688610315322876,31872.0,38122.0,35500.0,35694.0,0,0,0,0,35297.22265625,-646.0,-3742.0,-1636.0
1.32,0.17247247695922852,0.003188591217622161,0.46812155842781067,0.0,0.0,0.0,0.4856863021850586,2.322845935821533,-1.8409746885299683,0.0,-1.0,0.46932321786880493,32779.0,39521.0,34691.0,34509.0,0,0,0,0,35375.57421875,-927.0,-2148.0,-1629.0
1.34,0.17713555693626404,0.002238126238808036,0.4704830050468445,0.0,0.0,0.0,0.33349043130874634,2.3227367401123047,-1.8131095170974731,0.0,-1.0,0.47160211205482483,33220.0,39164.0,34820.0,35056.0,0,0,0,0,35565.921875,-2153.0,-1717.0,-1502.0
1.36,0.18119873106479645,0.0006954106502234936,0.47239020466804504,0.0,0.0,0.0,0.17808371782302856,2.291242837905884,-1.7824294567108154,0.0,-1.0,0.473417729139328,33754.0,39832.0,34316.0,34794.0,0,0,0,0,35674.328125,-853.0,-1672.0,-1563.0
1.38,0.18473495543003082,-0.00021401334379334003,0.4744097888469696,0.0,0.0,0.0,0.038397110998630524,2.2241241931915283,-1.7381659746170044,0.0,-1.0,0.475354939699173,34044.0,38262.0,34382.0,36464.0,0,0,0,0,35788.15234375,-355.0,-1467.0,-1516.0
1.4,0.19119741022586823,-0.00034746158053167164,0.47628211975097656,0.0,0.0,0.0,-0.1138894259929657,2.0785560607910156,-1.7021046876907349,0.0,-1.0,0.47718268632888794,32580.0,39672.0,35482.0,34774.0,0,0,0,0,35627.21875,-1846.0,-3931.0,-1579.0
1.42,0.19336016476154327,-0.0029399963095784187,0.47942349314689636,0.0,0.0,0.0,-0.2306482493877411,1.9761147499084473,-1.6658217906951904,0.0,-1.0,0.4803374111652374,33314.0,37200.0,35142.0,37092.0,0,0,0,0,35687.19921875,-1038.0,-1356.0,-1507.0
1.44,0.19932574033737183,-0.00414601806551218,0.48122456669807434,0.0,0.0,0.0,-0.3396660387516022,1.899965763092041,-1.638399600982666,0.0,-1.0,0.4820873439311981,34499.0,38609.0,33871.0,36117.0,0,0,0,0,35774.09765625,-884.0,-2016.0,-1560.0
1.46,0.20425266027450562,-0.005806691478937864,0.48291605710983276,0.0,0.0,0.0,-0.48860034346580505,1.7513974905014038,-1.6057941913604736,0.0,-1.0,0.4837230443954468,33432.0,37678.0,35028.0,37294.0,0,0,0,0,35858.12109375,-1148.0,-465.0,-1650.0
1.48,0.20863936841487885,-0.005909353960305452,0.48329034447669983,0.0,0.0,0.0,-0.6283371448516846,1.6005319356918335,-1.5898771286010742,0.0,-1.0,0.48398643732070923,34390.0,39538.0,34586.0,36090.0,0,0,0,0,36151.98828125,-1378.0,-2007.0,-1594.0
1.5,0.21212607622146606,-0.008557306602597237,0.4846598207950592,0.0,0.0,0.0,-0.7615662217140198,1.4104048013687134,-1.5847913026809692,0.0,-1.0,0.48530834913253784,33812.0,39164.0,35376.0,36580.0,0,0,0,0,36233.77734375,-914.0,-2420.0,-1583.0
1.52,0.21653513610363007,-0.009536300785839558,0.4859386086463928,0.0,0.0,0.0,-0.8597614169120789,1.2491494417190552,-1.5721468925476074,0.0,-1.0,0.4865441620349884,34709.0,39121.0,34489.0,36689.0,0,0,0,0,36252.109375,-1308.0,-1162.0,-1555.0
1.54,0.22260455787181854,-0.01077396422624588,0.48735809326171875,0.0,0.0,0.0,-0.9265118837356567,1.1218918561935425,-1.555870532989502,0.0,-1.0,0.4879591166973114,35308.0,38752.0,34086.0,36946.0,0,0,0,0,36273.14453125,-1559.0,-2491.0,-1635.0
1.56,0.22632141411304474,-0.012407314032316208,0.4885531961917877,0.0,0.0,0.0,-0.9609074592590332,1.0241209268569946,-1.5397049188613892,0.0,-1.0,0.48914197087287903,34311.0,38807.0,35031.0,37003.0,0,0,0,0,36288.421875,704.0,-1712.0,-1618.0
1.58,0.22905227541923523,-0.013237504288554192,0.4897204339504242,0.0,0.0,0.0,-1.024706244468689,0.9143549203872681,-1.5271687507629395,0.0,-1.0,0.4902990460395813,34943.0,38499.0,34237.0,37405.0,0,0,0,0,36271.56640625,-2028.0,-1035.0,-1647.0
1.6,0.23288485407829285,-0.014464084059000015,0.49046120047569275,0.0,0.0,0.0,-1.1017779111862183,0.800470769405365,-1.5242267847061157,0.0,-1.0,0.49102067947387695,33607.0,39475.0,35795.0,36367.0,0,0,0,0,36311.27734375,-1145.0,-3614.0,-1589.0
1.62,0.23674838244915009,-0.014826994389295578,0.4915792644023895,0.0,0.0,0.0,-1.1714895963668823,0.7003732919692993,-1.5204306840896606,0.0,-1.0,0.49213650822639465,33964.0,37908.0,35612.0,37720.0,0,0,0,0,36301.953125,-1202.0,-1221.0,-1565.0
1.64,0.24122530221939087,-0.014821695163846016,0.49268853664398193,0.0,0.0,0.0,-1.1865497827529907,0.6529844999313354,-1.5057125091552734,0.0,-1.0,0.4932437539100647,33910.0,40276.0,35258.0,35668.0,0,0,0,0,36278.31640625,-530.0,-800.0,-1664.0
1.66,0.24322380125522614,-0.016947977244853973,0.4938034117221832,0.0,0.0,0.0,-1.190366268157959,0.5828371644020081,-1.4872848987579346,0.0,-1.0,0.4944470524787903,33975.0,39461.0,35079.0,36461.0,0,0,0,0,36244.0234375,-1826.0,-1702.0,-1713.0
1.68,0.24937446415424347,-0.01716366782784462,0.49500271677970886,0.0,0.0,0.0,-1.2121107578277588,0.4886210858821869,-1.4875757694244385,0.0,-1.0,0.4955543279647827,33955.0,39847.0,34973.0,36141.0,0,0,0,0,36229.3046875,-877.0,-2295.0,-1724.0
1.7,0.2540148198604584,-0.01720731519162655,0.49610695242881775,0.0,0.0,0.0,-1.2168679237365723,0.4276103377342224,-1.4923980236053467,0.0,-1.0,0.4966621696949005,33555.0,38541.0,35387.0,37261.0,0,0,0,0,36186.71484375,-1384.0,-3130.0,-1729.0
1.72,0.25851166248321533,-0.017003946006298065,0.4984964430332184,0.0,0.0,0.0,-1.2441856861114502,0.3986702263355255,-1.4927412271499634,0.0,-1.0,0.4991275370121002,33785.0,38727.0,34625.0,36475.0,0,0,0,0,35903.08203125,-937.0,-1798.0,-1709.0
1.74,0.26011231541633606,-0.01802307926118374,0.4997636079788208,0.0,0.0,0.0,-1.2488905191421509,0.4524873197078705,-1.4894295930862427,0.0,-1.0,0.5003980398178101,33779.0,37077.0,34443.0,38097.0,0,0,0,0,35849.63671875,-1641.0,-1666.0,-1821.0
1.76,0.26446303725242615,-0.01805754192173481,0.5010325312614441,0.0,0.0,0.0,-1.257841944694519,0.4723144471645355,-1.4866658449172974,0.0,-1.0,0.5016477704048157,34149.0,39097.0,33767.0,36335.0,0,0,0,0,35837.953125,-805.0,-1596.0,-1853.0
1.78,0.26742222905158997,-0.019192814826965332,0.5022710561752319,0.0,0.0,0.0,-1.2495439052581787,0.404122918844223,-1.5047587156295776,0.0,-1.0,0.5028833150863647,33548.0,40172.0,34494.0,35122.0,0,0,0,0,35834.1171875,-1275.0,-1385.0,-1855.0
1.8,0.27288809418678284,-0.018392885103821754,0.5034885406494141,0.0,0.0,0.0,-1.223300576210022,0.262410968542099,-1.524614691734314,0.0,-1.0,0.5040924549102783,32227.0,40613.0,35787.0,34729.0,0,0,0,0,35839.0703125,-1766.0,-2330.0,-1889.0
1.82,0.27567002177238464,-0.019007930532097816,0.5046399831771851,0.0,0.0,0.0,-1.1491934061050415,0.19668641686439514,-1.5373570919036865,0.0,-1.0,0.5052723288536072,33597.0,39411.0,34761.0,35667.0,0,0,0,0,35859.26953125,411.0,-1813.0,-1750.0
1.84,0.2794567048549652,-0.01931520365178585,0.5058370232582092,0.0,0.0,0.0,-1.075663685798645,0.21348978579044342,-1.5429348945617676,0.0,-1.0,0.5063900947570801,33672.0,38538.0,34592.0,36730.0,0,0,0,0,35883.1171875,519.0,-942.0,-1827.0
1.86,0.2840689718723297,-0.01722538098692894,0.5069257020950317,0.0,0.0,0.0,-1.0687930583953857,0.1797720491886139,-1.536392331123352,0.0,-1.0,0.5074522495269775,34111.0,39393.0,34719.0,36265.0,0,0,0,0,36122.72265625,-1966.0,-1880.0,-1732.0
1.88,0.28749579191207886,-0.015445808880031109,0.5068091154098511,0.0,0.0,0.0,-1.0318950414657593,0.14587002992630005,-1.5365132093429565,0.0,-1.0,0.5072506666183472,35212.0,40632.0,33666.0,35134.0,0,0,0,0,36161.875,-323.0,-2082.0,-1707.0
1.9,0.2926565110683441,-0.01579190604388714,0.5076777338981628,0.0,0.0,0.0,-0.9389169216156006,0.1002744734287262,-1.529859185218811,0.0,-1.0,0.5080991983413696,33656.0,40044.0,35256.0,35792.0,0,0,0,0,36187.45703125,-657.0,-3160.0,-1751.0
1.92,0.2977612018585205,-0.01619185321033001,0.508507490158081,0.0,0.0,0.0,-0.8119151592254639,0.07054228335618973,-1.5152020454406738,0.0,-1.0,0.5085096955299377,33514.0,39802.0,34958.0,36214.0,0,0,0,0,36122.74609375,-1053.0,-2724.0,-1826.0
1.94,0.3033447861671448,-0.014783592894673347,0.509833037853241,0.0,0.0,0.0,-0.7162819504737854,0.09147411584854126,-1.5050537586212158,0.0,-1.0,0.5102464556694031,34435.0,38319.0,34251.0,37547.0,0,0,0,0,36138.43359375,-1635.0,-2278.0,-1788.0
1.96,0.30701878666877747,-0.013776851817965508,0.5106533169746399,0.0,0.0,0.0,-0.6203505992889404,0.1363159567117691,-1.5053642988204956,0.0,-1.0,0.5106558799743652,34342.0,39532.0,34136.0,36558.0,0,0,0,0,36142.70703125,-346.0,-1069.0,-1854.0
1.98,0.30993276834487915,-0.013527555391192436,0.5114527940750122,0.0,0.0,0.0,-0.5373225212097168,0.15177860856056213,-1.5082900524139404,0.0,-1.0,0.5114560127258301,34859.0,40349.0,34295.0,36157.0,0,0,0,0,36415.26953125,-1456.0,-1822.0,-1876.0
2.0,0.31309372186660767,-0.013453420251607895,0.5108171701431274,0.0,0.0,0.0,-0.4438870847225189,0.15006817877292633,-1.5167747735977173,0.0,-1.0,0.5108171701431274,33612.0,41424.0,35430.0,35226.0,0,0,0,0,36423.9140625,-1482.0,-1517.0,-1916.0
2.02,0.3170657753944397,-0.011085054837167263,0.511425256729126,0.0,0.0,0.0,-0.3532516062259674,0.13510937988758087,-1.5189439058303833,0.0,-1.0,0.5114220380783081,33714.0,40974.0,35434.0,35546.0,0,0,0,0,36417.86328125,-1949.0,-2072.0,-1847.0
2.04,0.3199310004711151,-0.009853539988398552,0.5120341777801514,0.0,0.0,0.0,-0.2514288127422333,0.16607819497585297,-1.5275845527648926,0.0,-1.0,0.5129014849662781,34578.0,39162.0,34170.0,37058.0,0,0,0,0,36242.0234375,590.0,488.0,-1890.0
2.06,0.325129896402359,-0.011389502324163914,0.5136051774024963,0.0,0.0,0.0,-0.117576003074646,0.1974121332168579,-1.527408480644226,0.0,-1.0,0.5136072039604187,34202.0,40938.0,34398.0,35242.0,0,0,0,0,36195.34375,-1502.0,-1030.0,-1831.0
2.08,0.32857459783554077,-0.01121471170336008,0.5143299102783203,0.0,0.0,0.0,-0.042475953698158264,0.16460706293582916,-1.529416561126709,0.0,-1.0,0.5143319964408875,34030.0,40282.0,34472.0,35908.0,0,0,0,0,36173.3125,-459.0,-2740.0,-1932.0
2.1,0.33126506209373474,-0.011021625250577927,0.5150639414787292,0.0,0.0,0.0,0.05914164334535599,0.15163184702396393,-1.5277605056762695,0.0,-1.0,0.5150351524353027,33355.0,40379.0,35039.0,35855.0,0,0,0,0,36157.578125,-896.0,-2673.0,-1945.0
2.12,0.3348015248775482,-0.011128573678433895,0.5157638788223267,0.0,0.0,0.0,0.14605627954006195,0.1819523274898529,-1.5353814363479614,0.0,-1.0,0.5157633423805237,33164.0,37716.0,35602.0,38218.0,0,0,0,0,36175.94921875,-623.0,-1992.0,-1813.0
2.14,0.3369096517562866,-0.009748440235853195,0.5164699554443359,0.0,0.0,0.0,0.21946512162685394,0.2771204113960266,-1.537155032157898,0.0,-1.0,0.5164715051651001,33252.0,39934.0,35544.0,36170.0,0,0,0,0,36225.953125,-2509.0,-2898.0,-1851.0
2.16,0.34321990609169006,-0.009190992452204227,0.5167897343635559,0.0,0.0,0.0,0.20236217975616455,0.25792279839515686,-1.5246278047561646,0.0,-1.0,0.5167897343635559,34044.0,40224.0,34640.0,36036.0,0,0,0,0,36236.51953125,-566.0,-2341.0,-1871.0
2.18,0.3453587293624878,-0.008642488159239292,0.5174351930618286,0.0,0.0,0.0,0.2272474318742752,0.2501559853553772,-1.5181536674499512,0.0,-1.0,0.5174351930618286,34744.0,39936.0,34056.0,36296.0,0,0,0,0,36258.3046875,-913.0,-1162.0,-1875.0
2.2,0.34828275442123413,-0.009629752486944199,0.5177736282348633,0.0,0.0,0.0,0.26399746537208557,0.20170867443084717,-1.517313003540039,0.0,-1.0,0.5177722573280334,33230.0,40362.0,35274.0,36082.0,0,0,0,0,36237.2734375,-2621.0,-2435.0,-1915.0
2.22,0.3522804081439972,-0.008723974227905273,0.518400251865387,0.0,0.0,0.0,0.3105551600456238,0.17923349142074585,-1.5127991437911987,0.0,-1.0,0.518400251865387,34048.0,39066.0,34504.0,37350.0,0,0,0,0,36242.99609375,-283.0,-47.0,-1908.0
2.24,0.35602277517318726,-0.008991318754851818,0.5190096497535706,0.0,0.0,0.0,0.3861086368560791,0.1935221403837204,-1.515782117843628,0.0,-1.0,0.5190057754516602,34052.0,40736.0,33970.0,35430.0,0,0,0,0,36047.578125,-861.0,-702.0,-2050.0
2.26,0.36123356223106384,-0.007935069501399994,0.5208060145378113,0.0,0.0,0.0,0.39896532893180847,0.12104632705450058,-1.5168367624282837,0.0,-1.0,0.5208044648170471,33780.0,39920.0,34358.0,36162.0,0,0,0,0,36055.5078125,-1004.0,-714.0,-1960.0
2.28,0.36563774943351746,-0.008028368465602398,0.5214912295341492,0.0,0.0,0.0,0.409669429063797,0.03280262649059296,-1.5252834558486938,0.0,-1.0,0.5214894413948059,33986.0,39086.0,34188.0,36944.0,0,0,0,0,36051.81640625,-2099.0,-1495.0,-1903.0
2.3,0.37048423290252686,-0.00841471366584301,0.5221596360206604,0.0,0.0,0.0,0.4074171483516693,-0.013531173579394817,-1.5280239582061768,0.0,-1.0,0.5221596360206604,32918.0,41454.0,35312.0,34488.0,0,0,0,0,36043.82421875,-1428.0,-3564.0,-1922.0
2.32,0.3757202923297882,-0.009145006537437439,0.5214892029762268,0.0,0.0,0.0,0.44682058691978455,0.005091377533972263,-1.5264824628829956,0.0,-1.0,0.5214892029762268,33248.0,40954.0,35382.0,35528.0,0,0,0,0,36278.3359375,-1246.0,-3929.0,-1960.0
2.34,0.38053467869758606,-0.009263655170798302,0.5220001339912415,0.0,0.0,0.0,0.4644325077533722,0.08879030495882034,-1.515965461730957,0.0,-1.0,0.5220001339912415,34292.0,38758.0,34636.0,37442.0,0,0,0,0,36282.984375,-596.0,-3188.0,-1809.0
2.36,0.38182488083839417,-0.008305315859615803,0.5225041508674622,0.0,0.0,0.0,0.41015565395355225,0.18403033912181854,-1.5078153610229492,0.0,-1.0,0.5225041508674622,33801.0,39399.0,35553.0,37015.0,0,0,0,0,36442.91796875,-2086.0,-1883.0,-1812.0
2.38,0.3863789737224579,-0.007261644117534161,0.5221742391586304,0.0,0.0,0.0,0.2811213731765747,0.18491820991039276,-1.4846141338348389,0.0,-1.0,0.5221742391586304,33973.0,39521.0,35299.0,36979.0,0,0,0,0,36443.5234375,-1902.0,-2135.0,-1809.0
2.4,0.3887552320957184,-0.0070945583283901215,0.5225704908370972,0.0,0.0,0.0,0.23345200717449188,0.22616057097911835,-1.4618923664093018,0.0,-1.0,0.522570013999939,33525.0,39995.0,35619.0,36577.0,0,0,0,0,36429.25,-873.0,-2970.0,-1887.0
2.42,0.39269065856933594,-0.008476397022604942,0.5229687094688416,0.0,0.0,0.0,0.22330127656459808,0.26790398359298706,-1.4411379098892212,0.0,-1.0,0.5229640603065491,34128.0,39662.0,35008.0,36918.0,0,0,0,0,36429.50390625,254.0,-464.0,-1844.0
2.44,0.397774338722229,-0.008063816465437412,0.5231896638870239,0.0,0.0,0.0,0.15843172371387482,0.2554987370967865,-1.4321433305740356,0.0,-1.0,0.5231896638870239,34519.0,40483.0,34663.0,36179.0,0,0,0,0,36461.12890625,-1003.0,-1866.0,-1807.0
2.46,0.40121886134147644,-0.0078109377063810825,0.5235625505447388,0.0,0.0,0.0,0.10911288857460022,0.23662398755550385,-1.4168751239776611,0.0,-1.0,0.523560643196106,34078.0,38532.0,35242.0,38048.0,0,0,0,0,36475.90625,-2997.0,-462.0,-1823.0
2.48,0.4067591726779938,-0.007422665599733591,0.5239228010177612,0.0,0.0,0.0,0.07180862128734589,0.15680329501628876,-1.401299238204956,0.0,-1.0,0.5239210724830627,35337.0,40699.0,34385.0,36091.0,0,0,0,0,36628.36328125,-2088.0,-2973.0,-1825.0
2.5,0.40940162539482117,-0.01029568538069725,0.5233147144317627,0.0,0.0,0.0,0.07855908572673798,0.12752611935138702,-1.3833287954330444,0.0,-1.0,0.5233147144317627,33008.0,40700.0,36766.0,35986.0,0,0,0,0,36615.67578125,-934.0,-2044.0,-1784.0
2.52,0.4132390022277832,-0.010167082771658897,0.5236135125160217,0.0,0.0,0.0,0.06039609760046005,0.1768433153629303,-1.3576136827468872,0.0,-1.0,0.5236104130744934,34484.0,40040.0,35012.0,36812.0,0,0,0,0,36587.39453125,-1223.0,-1685.0,-1773.0
2.54,0.4174235165119171,-0.00954351108521223,0.5239205956459045,0.0,0.0,0.0,-0.002555123995989561,0.23217976093292236,-1.334991216659546,0.0,-1.0,0.5239205956459045,34182.0,39954.0,35484.0,36576.0,0,0,0,0,36549.5078125,-412.0,-1539.0,-1685.0
2.56,0.42086923122406006,-0.009390252642333508,0.5242260098457336,0.0,0.0,0.0,-0.06648877263069153,0.2677239179611206,-1.3114956617355347,0.0,-1.0,0.5242212414741516,34340.0,39576.0,35104.0,36848.0,0,0,0,0,36467.1171875,-528.0,-1136.0,-1766.0
2.58,0.42820021510124207,-0.010504587553441525,0.5246211290359497,0.0,0.0,0.0,-0.11974012106657028,0.2502126395702362,-1.280842900276184,0.0,-1.0,0.5246211290359497,34117.0,39603.0,34891.0,36317.0,0,0,0,0,36232.96484375,-1545.0,-1428.0,-1687.0
2.6,0.4308483600616455,-0.01165572926402092,0.5260117053985596,0.0,0.0,0.0,-0.15330706536769867,0.2504728436470032,-1.2614985704421997,0.0,-1.0,0.5260070562362671,33520.0,39928.0,35196.0,35976.0,0,0,0,0,36155.19140625,-951.0,-3022.0,-1807.0
2.62,0.4366455674171448,-0.011308693327009678,0.526599109172821,0.0,0.0,0.0,-0.18935154378414154,0.2747264802455902,-1.2391421794891357,0.0,-1.0,0.5266016125679016,33349.0,39257.0,35319.0,36471.0,0,0,0,0,36099.14453125,-751.0,-3498.0,-1716.0
2.64,0.4387487769126892,-0.011127984151244164,0.527214765548706,0.0,0.0,0.0,-0.23461869359016418,0.3704904615879059,-1.2250034809112549,0.0,-1.0,0.5275400876998901,34013.0,38597.0,34639.0,36971.0,0,0,0,0,36055.7265625,-227.0,-1384.0,-1731.0
2.66,0.44828537106513977,-0.013266980648040771,0.5281562209129333,0.0,0.0,0.0,-0.29719147086143494,0.3985060751438141,-1.2111338376998901,0.0,-1.0,0.5281562209129333,34118.0,40638.0,34384.0,35176.0,0,0,0,0,36079.8671875,-2197.0,-1868.0,-1834.0
2.68,0.452560693025589,-0.012683437205851078,0.5287371873855591,0.0,0.0,0.0,-0.38581931591033936,0.395766943693161,-1.1936341524124146,0.0,-1.0,0.5287398099899292,33647.0,40371.0,35141.0,35277.0,0,0,0,0,36109.375,-174.0,-575.0,-1713.0
2.7,0.4570011496543884,-0.015349454246461391,0.529277503490448,0.0,0.0,0.0,-0.38588640093803406,0.42247316241264343,-1.1856868267059326,0.0,-1.0,0.5291531085968018,33352.0,40004.0,35626.0,35670.0,0,0,0,0,36163.16015625,-1870.0,-3456.0,-1731.0
2.72,0.4606170952320099,-0.015280874446034431,0.5296381711959839,0.0,0.0,0.0,-0.43311092257499695,0.46631279587745667,-1.1679452657699585,0.0,-1.0,0.5296376347541809,33298.0,39600.0,35488.0,36442.0,0,0,0,0,36207.59375,-1806.0,-2471.0,-1806.0
2.74,0.46449071168899536,-0.014956737868487835,0.5300797820091248,0.0,0.0,0.0,-0.47799527645111084,0.5311012864112854,-1.1471965312957764,0.0,-1.0,0.5300790667533875,34071.0,40079.0,34913.0,35869.0,0,0,0,0,36233.8203125,-653.0,-2204.0,-1764.0
2.76,0.46876460313796997,-0.014390802942216396,0.5304863452911377,0.0,0.0,0.0,-0.5329979658126831,0.5648769736289978,-1.1427806615829468,0.0,-1.0,0.530264139175415,35550.0,37696.0,33626.0,38408.0,0,0,0,0,36320.71875,-509.0,79.0,-1690.0
2.78,0.4723500609397888,-0.014352075755596161,0.5306033492088318,0.0,0.0,0.0,-0.5657150745391846,0.5779578685760498,-1.1250778436660767,0.0,-1.0,0.5306033492088318,34278.0,39134.0,34964.0,37012.0,0,0,0,0,36347.6484375,-2467.0,-2314.0,-1646.0
2.8,0.4758594036102295,-0.014131090603768826,0.5309171080589294,0.0,0.0,0.0,-0.5826125741004944,0.553776741027832,-1.1054232120513916,0.0,-1.0,0.5309131741523743,33498.0,39652.0,35686.0,36540.0,0,0,0,0,36344.046875,-1594.0,-1332.0,-1725.0
2.82,0.48045676946640015,-0.015322365798056126,0.53119295835495,0.0,0.0,0.0,-0.5377979874610901,0.5759516358375549,-1.0846786499023438,0.0,-1.0,0.53119295835495,33640.0,40450.0,35538.0,35768.0,0,0,0,0,36349.62109375,-1008.0,-3307.0,-1726.0
2.84,0.48565754294395447,-0.015295584686100483,0.5314881205558777,0.0,0.0,0.0,-0.5186874270439148,0.6547049283981323,-1.0716617107391357,0.0,-1.0,0.5314905643463135,33589.0,39125.0,35735.0,37199.0,0,0,0,0,36412.7109375,-642.0,-2016.0,-1776.0
2.86,0.48620811104774475,-0.015312784351408482,0.531508207321167,0.0,0.0,0.0,-0.5373186469078064,0.758374035358429,-1.0573982000350952,0.0,-1.0,0.5315059423446655,34618.0,38894.0,34824.0,37436.0,0,0,0,0,36443.07421875,-1178.0,-2302.0,-1796.0
2.88,0.4915863871574402,-0.015058783814311028,0.5317329168319702,0.0,0.0,0.0,-0.5996960997581482,0.7447022199630737,-1.0571074485778809,0.0,-1.0,0.5317329168319702,34052.0,40568.0,35314.0,35970.0,0,0,0,0,36476.234375,-1286.0,-1452.0,-1783.0
2.9,0.49574172496795654,-0.015018133446574211,0.5319585800170898,0.0,0.0,0.0,-0.6010003089904785,0.7165465950965881,-1.0465234518051147,0.0,-1.0,0.5319585800170898,34330.0,39812.0,34952.0,36810.0,0,0,0,0,36476.734375,-1255.0,-1438.0,-1829.0
2.92,0.49955883622169495,-0.01586129143834114,0.5321540236473083,0.0,0.0,0.0,-0.5548388957977295,0.6705707907676697,-1.046096920967102,0.0,-1.0,0.5321540236473083,33682.0,40972.0,35618.0,35620.0,0,0,0,0,36473.453125,-960.0,-2993.0,-1806.0
2.94,0.5036647915840149,-0.01601233333349228,0.532347559928894,0.0,0.0,0.0,-0.524985671043396,0.6462481617927551,-1.0511507987976074,0.0,-1.0,0.532347559928894,34315.0,40061.0,35015.0,36537.0,0,0,0,0,36482.3984375,-1413.0,-137.0,-1860.0
2.96,0.507869303226471,-0.01600160077214241,0.532538890838623,0.0,0.0,0.0,-0.5120449066162109,0.6076278686523438,-1.049475908279419,0.0,-1.0,0.5340369939804077,35323.0,39563.0,33443.0,36359.0,0,0,0,0,36172.03125,-819.0,-1414.0,-1818.0
2.98,0.5120849609375,-0.015262448228895664,0.5344085693359375,0.0,0.0,0.0,-0.47932136058807373,0.5371798276901245,-1.0455700159072876,0.0,-1.0,0.5344071388244629,33992.0,39472.0,34606.0,36410.0,0,0,0,0,36120.921875,-1493.0,-2542.0,-1806.0
3.0,0.515650749206543,-0.01672106422483921,0.5348063707351685,0.0,0.0,0.0,-0.4290328621864319,0.47063884139060974,-1.042474627494812,0.0,-1.0,0.5348063707351685,33865.0,39013.0,34723.0,36695.0,0,0,0,0,36074.24609375,-1808.0,-1347.0,-1731.0
3.02,0.5182913541793823,-0.01536029577255249,0.5352240204811096,0.0,0.0,0.0,-0.3894397020339966,0.46940916776657104,-1.0348926782608032,0.0,-1.0,0.5355719923973083,33056.0,40540.0,35584.0,34844.0,0,0,0,0,36006.11328125,-1526.0,-4798.0,-1697.0
3.04,0.5214740037918091,-0.014849703758955002,0.5360119938850403,0.0,0.0,0.0,-0.3639393150806427,0.4857032597064972,-1.0221279859542847,0.0,-1.0,0.5360146164894104,34072.0,39204.0,34588.0,36268.0,0,0,0,0,36033.84765625,-678.0,-1855.0,-1670.0
3.06,0.5303425788879395,-0.012513330206274986,0.5364083647727966,0.0,0.0,0.0,-0.3466455340385437,0.5031971335411072,-1.0016334056854248,0.0,-1.0,0.5364083647727966,34769.0,38085.0,33979.0,37455.0,0,0,0,0,36072.08203125,-1256.0,-1914.0,-1705.0
3.08,0.5345435738563538,-0.012542310170829296,0.5367680788040161,0.0,0.0,0.0,-0.31143060326576233,0.4877654016017914,-0.9801219701766968,0.0,-1.0,0.5367647409439087,34236.0,39614.0,34812.0,36454.0,0,0,0,0,36279.6484375,34.0,-2414.0,-1715.0
3.1,0.5392360091209412,-0.010865396820008755,0.5361083149909973,0.0,0.0,0.0,-0.3087390661239624,0.3886961340904236,-0.9633615016937256,0.0,-1.0,0.5361093878746033,34004.0,39808.0,35244.0,36308.0,0,0,0,0,36341.51171875,-1641.0,-3364.0,-1687.0
3.12,0.542763888835907,-0.012185391038656235,0.5362756252288818,0.0,0.0,0.0,-0.22339825332164764,0.38146674633026123,-0.9511135220527649,0.0,-1.0,0.5362765192985535,34078.0,40090.0,35412.0,36064.0,0,0,0,0,36411.703125,-1105.0,-4508.0,-1677.0
3.14,0.5451096892356873,-0.010643991641700268,0.5363866686820984,0.0,0.0,0.0,-0.14232243597507477,0.4778517484664917,-0.9363284707069397,0.0,-1.0,0.5363828539848328,33947.0,37887.0,35913.0,38265.0,0,0,0,0,36503.7734375,-2018.0,-4097.0,-1587.0
3.16,0.5500175356864929,-0.010315832681953907,0.536241888999939,0.0,0.0,0.0,-0.11825083196163177,0.5317449569702148,-0.916124165058136,0.0,-1.0,0.536241888999939,35640.0,39142.0,34226.0,37180.0,0,0,0,0,36547.05078125,-1078.0,-927.0,-1610.0
3.18,0.5539578795433044,-0.010127050802111626,0.5362530946731567,0.0,0.0,0.0,-0.13857872784137726,0.5272099375724792,-0.8821958303451538,0.0,-1.0,0.5362530946731567,34571.0,39265.0,35227.0,37245.0,0,0,0,0,36577.48046875,-2328.0,-1661.0,-1646.0
3.2,0.5584487318992615,-0.008621570654213428,0.5362452864646912,0.0,0.0,0.0,-0.108833909034729,0.4708813726902008,-0.8608535528182983,0.0,-1.0,0.5370123982429504,34105.0,40069.0,35245.0,36309.0,0,0,0,0,36432.96484375,-1671.0,-1247.0,-1722.0
3.22,0.5607062578201294,-0.009836158715188503,0.5370925664901733,0.0,0.0,0.0,-0.026542402803897858,0.44328054785728455,-0.8475418090820312,0.0,-1.0,0.5370911359786987,33742.0,39568.0,35850.0,36516.0,0,0,0,0,36419.7890625,-850.0,-2777.0,-1678.0
3.24,0.565730631351471,-0.00786629132926464,0.5371828675270081,0.0,0.0,0.0,0.038224682211875916,0.4472084939479828,-0.8364377021789551,0.0,-1.0,0.5371828675270081,34324.0,39670.0,35174.0,36508.0,0,0,0,0,36419.46484375,-789.0,-1426.0,-1618.0
3.26,0.5689104199409485,-0.00719091622158885,0.5372710227966309,0.0,0.0,0.0,0.05376308411359787,0.45072171092033386,-0.820441484451294,0.0,-1.0,0.5398657321929932,33906.0,39948.0,34786.0,35164.0,0,0,0,0,35951.8203125,-1056.0,-2511.0,-1555.0
3.28,0.5744715929031372,-0.004956346470862627,0.5402167439460754,0.0,0.0,0.0,0.04516631364822388,0.3790605962276459,-0.8037323355674744,0.0,-1.0,0.5402167439460754,34457.0,39297.0,34211.0,35867.0,0,0,0,0,35958.65625,-1470.0,-1257.0,-1662.0
3.3,0.5772531032562256,-0.00349767180159688,0.5405480861663818,0.0,0.0,0.0,0.07799017429351807,0.3388557434082031,-0.7798266410827637,0.0,-1.0,0.5405460596084595,34951.0,39413.0,33571.0,35837.0,0,0,0,0,35943.98828125,-630.0,-1160.0,-1704.0
3.32,0.580903947353363,-0.0033873682841658592,0.5408691763877869,0.0,0.0,0.0,0.17692914605140686,0.31460586190223694,-0.7700102925300598,0.0,-1.0,0.5409291386604309,33551.0,40195.0,34951.0,35147.0,0,0,0,0,35961.3125,-1505.0,-1473.0,-1722.0
3.34,0.584354817867279,-0.004974287003278732,0.5412218570709229,0.0,0.0,0.0,0.29647478461265564,0.3175077438354492,-0.7663582563400269,0.0,-1.0,0.5412225723266602,33563.0,38999.0,35293.0,36165.0,0,0,0,0,36005.37109375,-1586.0,-2125.0,-1694.0
3.36,0.585993766784668,-0.003343624761328101,0.5414687991142273,0.0,0.0,0.0,0.3633781969547272,0.3453402817249298,-0.7638097405433655,0.0,-1.0,0.5408568382263184,33979.0,38267.0,35415.0,36999.0,0,0,0,0,36165.50390625,-2081.0,-1156.0,-1573.0
3.38,0.5926211476325989,-0.0037902710027992725,0.540985643863678,0.0,0.0,0.0,0.38885900378227234,0.3026192784309387,-0.7516828775405884,0.0,-1.0,0.540985643863678,35002.0,38992.0,34762.0,36180.0,0,0,0,0,36234.26171875,-1867.0,-1709.0,-1564.0
3.4,0.5956506729125977,-0.0022116955369710922,0.5410619974136353,0.0,0.0,0.0,0.39031365513801575,0.243350550532341,-0.7286772727966309,0.0,-1.0,0.5410619974136353,34778.0,38724.0,35990.0,36500.0,0,0,0,0,36498.07421875,-1991.0,-3964.0,-1481.0
3.42,0.5983502864837646,-0.0023088278248906136,0.5397527813911438,0.0,0.0,0.0,0.4139564633369446,0.1966032236814499,-0.7011169791221619,0.0,-1.0,0.5397499203681946,35337.0,40773.0,35619.0,34499.0,0,0,0,0,36557.08203125,-9.0,-2019.0,-1437.0
3.44,0.6035110354423523,-0.00360825564712286,0.5396234393119812,0.0,0.0,0.0,0.4407525360584259,0.21498407423496246,-0.6664299964904785,0.0,-1.0,0.5396234393119812,35725.0,37533.0,35797.0,37337.0,0,0,0,0,36598.421875,-681.0,-1550.0,-1302.0
3.46,0.6073235869407654,-0.0035261299926787615,0.5394716262817383,0.0,0.0,0.0,0.4589436948299408,0.2869120240211487,-0.624077320098877,0.0,-1.0,0.5394716262817383,35287.0,39335.0,35567.0,35443.0,0,0,0,0,36408.13671875,-1090.0,-1624.0,-1453.0
3.48,0.6104887127876282,-0.003122993279248476,0.5405285358428955,0.0,0.0,0.0,0.4249485433101654,0.29738661646842957,-0.5755324363708496,0.0,-1.0,0.5405237078666687,35581.0,38963.0,35075.0,36077.0,0,0,0,0,36424.54296875,-1022.0,-1247.0,-1420.0
3.5,0.617810845375061,-0.001197913778014481,0.5404794216156006,0.0,0.0,0.0,0.37653040885925293,0.25226452946662903,-0.546019971370697,0.0,-1.0,0.5404779314994812,35169.0,39751.0,35627.0,35165.0,0,0,0,0,36428.9296875,-1739.0,-2964.0,-1355.0
3.52,0.6220983266830444,-0.0011861005332320929,0.5404306650161743,0.0,0.0,0.0,0.34042418003082275,0.22831882536411285,-0.5162916779518127,0.0,-1.0,0.5404306650161743,34695.0,40397.0,36113.0,34587.0,0,0,0,0,36448.48046875,-480.0,-3395.0,-1362.0
3.54,0.6243821382522583,-0.0016401547472923994,0.5402020215988159,0.0,0.0,0.0,0.3448352515697479,0.2953956723213196,-0.4835262596607208,0.0,-1.0,0.5402020215988159,34563.0,39689.0,36169.0,35239.0,0,0,0,0,36415.078125,-1943.0,-1563.0,-1492.0
3.56,0.6270723938941956,-0.0016086844261735678,0.5401760935783386,0.0,0.0,0.0,0.3478212058544159,0.3805939853191376,-0.45187121629714966,0.0,-1.0,0.5401760935783386,35408.0,37878.0,34938.0,37392.0,0,0,0,0,36404.08203125,-1591.0,309.0,-1427.0
3.58,0.6322704553604126,-0.0013552643358707428,0.5401618480682373,0.0,0.0,0.0,0.32444554567337036,0.3749915361404419,-0.43588316440582275,0.0,-1.0,0.5401618480682373,36112.0,38624.0,33674.0,36766.0,0,0,0,0,36294.5859375,97.0,-563.0,-1449.0
3.6,0.6370344161987305,-0.001036086119711399,0.5405783653259277,0.0,0.0,0.0,0.2774074375629425,0.2654106914997101,-0.42237892746925354,0.0,-1.0,0.5405783653259277,35165.0,39639.0,34407.0,35893.0,0,0,0,0,36276.01953125,-1421.0,-1348.0,-1475.0
3.62,0.6391941905021667,-0.0009357472881674767,0.5406532883644104,0.0,0.0,0.0,0.2531788647174835,0.2027536928653717,-0.4160851836204529,0.0,-1.0,0.5406532883644104,34359.0,38587.0,35175.0,36875.0,0,0,0,0,36249.49609375,-2730.0,-3684.0,-1514.0
3.64,0.6418983340263367,-0.0009256974444724619,0.5407409071922302,0.0,0.0,0.0,0.2563607394695282,0.2572203576564789,-0.4157250225543976,0.0,-1.0,0.5407409071922302,34026.0,39002.0,35514.0,36030.0,0,0,0,0,36143.54296875,-1495.0,-2181.0,-1441.0
3.66,0.6462852954864502,-0.0007456697057932615,0.5414122343063354,0.0,0.0,0.0,0.23633094131946564,0.2993413805961609,-0.41195908188819885,0.0,-1.0,0.5414122343063354,35044.0,38276.0,34346.0,36878.0,0,0,0,0,36136.828125,-2328.0,-2304.0,-1488.0
3.68,0.6503346562385559,-0.002003998029977083,0.5415521264076233,0.0,0.0,0.0,0.20721347630023956,0.2916833758354187,-0.4020673930644989,0.0,-1.0,0.5415503978729248,35024.0,38492.0,34138.0,36930.0,0,0,0,0,36146.2265625,-1829.0,-1375.0,-1404.0
3.7,0.6526029109954834,-0.0017865182599052787,0.541679322719574,0.0,0.0,0.0,0.18815037608146667,0.24348808825016022,-0.40439578890800476,0.0,-1.0,0.5405226945877075,35497.0,39197.0,34597.0,36193.0,0,0,0,0,36371.78125,-2248.0,-2531.0,-1435.0
3.72,0.6567050218582153,-0.001839395030401647,0.5405116677284241,0.0,0.0,0.0,0.1910368800163269,0.19642691314220428,-0.3926858901977539,0.0,-1.0,0.5405116677284241,34616.0,38948.0,35776.0,36200.0,0,0,0,0,36385.609375,-1446.0,-3368.0,-1412.0
3.74,0.6623699069023132,-0.0018674999009817839,0.5404891967773438,0.0,0.0,0.0,0.18984277546405792,0.17888477444648743,-0.3769148886203766,0.0,-1.0,0.5404906868934631,35051.0,38325.0,35235.0,36729.0,0,0,0,0,36335.80859375,24.0,-1833.0,-1376.0
3.76,0.6637705564498901,-0.0015658475458621979,0.5407093167304993,0.0,0.0,0.0,0.15163765847682953,0.22931654751300812,-0.3587304949760437,0.0,-1.0,0.5407093167304993,34977.0,38829.0,35285.0,36185.0,0,0,0,0,36319.83203125,-1988.0,-1285.0,-1447.0
3.78,0.6692306995391846,-0.0010172324255108833,0.5407247543334961,0.0,0.0,0.0,0.0779222920536995,0.2239617556333542,-0.3396429419517517,0.0,-1.0,0.5407247543334961,35813.0,38725.0,34943.0,36923.0,0,0,0,0,36601.3046875,32.0,-387.0,-1375.0
3.8,0.6768200397491455,-0.0006675561307929456,0.5391994714736938,0.0,0.0,0.0,0.028346557170152664,0.1672126203775406,-0.32443132996559143,0.0,-1.0,0.5391994714736938,35277.0,38847.0,35489.0,36751.0,0,0,0,0,36591.34375,-473.0,-1631.0,-1343.0
3.82,0.6793397068977356,-0.0005255787400528789,0.5390681624412537,0.0,0.0,0.0,0.014004220254719257,0.17289325594902039,-0.3073766529560089,0.0,-1.0,0.5390681624412537,34513.0,38977.0,36629.0,36197.0,0,0,0,0,36579.5,-724.0,-2880.0,-1307.0
3.84,0.6849097013473511,-0.0002633609692566097,0.5389511585235596,0.0,0.0,0.0,-0.016772495582699776,0.21285276114940643,-0.2847415506839752,0.0,-1.0,0.5389511585235596,35100.0,38504.0,35354.0,37254.0,0,0,0,0,36553.29296875,-1744.0,-1832.0,-1334.0
3.86,0.6882717609405518,-1.1370878382876981e-05,0.538901686668396,0.0,0.0,0.0,-0.032553885132074356,0.25357863306999207,-0.2719579339027405,0.0,-1.0,0.5402885675430298,35205.0,39515.0,34969.0,35371.0,0,0,0,0,36265.09375,-815.0,-622.0,-1320.0
3.88,0.6898266673088074,-0.0015286497073248029,0.5403767228126526,0.0,0.0,0.0,-0.048512935638427734,0.38308194279670715,-0.24098968505859375,0.0,-1.0,0.5403767228126526,35199.0,37329.0,34933.0,37395.0,0,0,0,0,36214.7265625,-1589.0,-1764.0,-1343.0
3.9,0.6946850419044495,-0.0016205504070967436,0.5404906868934631,0.0,0.0,0.0,-0.03316458687186241,0.39094164967536926,-0.2235986292362213,0.0,-1.0,0.5404906868934631,35267.0,38593.0,34647.0,36233.0,0,0,0,0,36185.296875,-529.0,-1993.0,-1353.0
3.92,0.6968263983726501,-0.001608672784641385,0.5406299233436584,0.0,0.0,0.0,-0.04306459054350853,0.38831982016563416,-0.21221469342708588,0.0,-1.0,0.5408031344413757,34053.0,38823.0,35721.0,36091.0,0,0,0,0,36172.625,-387.0,-2602.0,-1391.0
3.94,0.7017718553543091,-0.0013268678449094296,0.5409281849861145,0.0,0.0,0.0,-0.07269231230020523,0.36897847056388855,-0.20096269249916077,0.0,-1.0,0.5409281849861145,34065.0,39529.0,35639.0,35531.0,0,0,0,0,36191.09765625,-1027.0,-2404.0,-1401.0
3.96,0.7058848142623901,-0.0011150058126077056,0.5410292148590088,0.0,0.0,0.0,-0.10227411240339279,0.3718739449977875,-0.1977660208940506,0.0,-1.0,0.5410292148590088,35037.0,37817.0,34589.0,37433.0,0,0,0,0,36219.50390625,-1011.0,-1229.0,-1504.0
3.98,0.7086768746376038,-0.0009413560037501156,0.5411045551300049,0.0,0.0,0.0,-0.1241270899772644,0.3634544610977173,-0.19310487806797028,0.0,-1.0,0.5396358370780945,35073.0,38579.0,35017.0,37451.0,0,0,0,0,36530.3671875,62.0,-388.0,-1393.0
4.0,0.7125884890556335,-0.0010899283224716783,0.539520800113678,0.0,0.0,0.0,-0.1389957219362259,0.30036458373069763,-0.20119689404964447,0.0,-1.0,0.539520800113678,35306.0,39486.0,35078.0,36394.0,0,0,0,0,36566.13671875,92.0,402.0,-1426.0
4.02,0.7154564261436462,0.0005128700868226588,0.5394529104232788,0.0,0.0,0.0,-0.1536238193511963,0.2641858160495758,-0.19964177906513214,0.0,-1.0,0.5393800735473633,34471.0,39763.0,35945.0,36229.0,0,0,0,0,36602.359375,-1459.0,-2795.0,-1360.0
4.04,0.7198394536972046,0.0005620859446935356,0.539303719997406,0.0,0.0,0.0,-0.1605299413204193,0.20204465091228485,-0.19712013006210327,0.0,-1.0,0.5395905375480652,35171.0,38551.0,35383.0,37107.0,0,0,0,0,36553.08984375,-1096.0,-2160.0,-1382.0
4.06,0.7242756485939026,0.00026703800540417433,0.5395247936248779,0.0,0.0,0.0,-0.15025459229946136,0.23393431305885315,-0.19315117597579956,0.0,-1.0,0.5394592881202698,34449.0,39503.0,35787.0,36465.0,0,0,0,0,36551.828125,-1085.0,-852.0,-1377.0
4.08,0.7279142141342163,0.0013965416001155972,0.5393978357315063,0.0,0.0,0.0,-0.14133791625499725,0.23343691229820251,-0.18547707796096802,0.0,-1.0,0.5393373966217041,35317.0,39689.0,35103.0,35915.0,0,0,0,0,36506.29296875,-650.0,-1236.0,-1393.0
4.1,0.7322638630867004,0.0011724568903446198,0.5395514369010925,0.0,0.0,0.0,-0.09959238022565842,0.1561451256275177,-0.1793319433927536,0.0,-1.0,0.5395514369010925,35121.0,40263.0,34917.0,35683.0,0,0,0,0,36496.17578125,-502.0,-1685.0,-1335.0
4.12,0.733321487903595,0.0007554636104032397,0.5395074486732483,0.0,0.0,0.0,-0.06927269697189331,0.15090727806091309,-0.17709636688232422,0.0,-1.0,0.539465069770813,34384.0,39008.0,36164.0,36240.0,0,0,0,0,36449.54296875,-247.0,-2121.0,-1352.0
4.14,0.739220142364502,0.0009776984807103872,0.5394397377967834,0.0,0.0,0.0,0.029530171304941177,0.17051351070404053,-0.17555992305278778,0.0,-1.0,0.5394214391708374,34158.0,39558.0,35868.0,35680.0,0,0,0,0,36316.73046875,-1324.0,-1220.0,-1318.0
4.16,0.7422318458557129,0.0008132538641802967,0.5401301383972168,0.0,0.0,0.0,0.05439717322587967,0.20549166202545166,-0.16131208837032318,0.0,-1.0,0.540145754814148,35668.0,38598.0,34802.0,36196.0,0,0,0,0,36316.7265625,-636.0,-2630.0,-1215.0
4.18,0.746117115020752,0.0009417088585905731,0.5401612520217896,0.0,0.0,0.0,0.04573800787329674,0.23289914429187775,-0.15219774842262268,0.0,-1.0,0.5401673913002014,35227.0,39843.0,35519.0,35363.0,0,0,0,0,36488.515625,-1618.0,-1714.0,-1305.0
4.2,0.7534246444702148,0.0007215285440906882,0.5392869114875793,0.0,0.0,0.0,0.07011111080646515,0.1887114942073822,-0.1306592971086502,0.0,-1.0,0.5392499566078186,34455.0,39605.0,36333.0,35535.0,0,0,0,0,36482.265625,502.0,-2030.0,-1274.0
4.22,0.7535670399665833,0.0021075247786939144,0.5392169952392578,0.0,0.0,0.0,0.08494836837053299,0.21562567353248596,-0.11406295001506805,0.0,-1.0,0.5391781330108643,33672.0,38588.0,37046.0,36598.0,0,0,0,0,36476.59765625,335.0,-3098.0,-1281.0
4.24,0.7619370818138123,0.0020083030685782433,0.5391126275062561,0.0,0.0,0.0,0.10147185623645782,0.32872945070266724,-0.0883888453245163,0.0,-1.0,0.5390665531158447,34519.0,38875.0,36119.0,36495.0,0,0,0,0,36502.25,-817.0,-1794.0,-1288.0
4.26,0.7638514637947083,0.0022345520555973053,0.5390282869338989,0.0,0.0,0.0,0.09041275084018707,0.37716367840766907,-0.08157739788293839,0.0,-1.0,0.5389886498451233,35608.0,38424.0,34926.0,36966.0,0,0,0,0,36481.30859375,-728.0,-502.0,-1300.0
4.28,0.7668730616569519,0.0024624073412269354,0.538955807685852,0.0,0.0,0.0,0.05553295090794563,0.41996175050735474,-0.07054668664932251,0.0,-1.0,0.538925051689148,34932.0,39680.0,35322.0,35962.0,0,0,0,0,36474.45703125,-2196.0,-389.0,-1371.0
4.3,0.7737492918968201,0.0026001418009400368,0.5388675928115845,0.0,0.0,0.0,0.04295801371335983,0.3833472728729248,-0.06103676185011864,0.0,-1.0,0.5388675928115845,34649.0,38729.0,34815.0,36371.0,0,0,0,0,36141.54296875,-1000.0,-1206.0,-1387.0
4.32,0.7733825445175171,0.0007802813779562712,0.5407401919364929,0.0,0.0,0.0,0.07648143172264099,0.3863319158554077,-0.0625457614660263,0.0,-1.0,0.5408052802085876,34457.0,39237.0,35059.0,35743.0,0,0,0,0,36124.9921875,-994.0,-2284.0,-1381.0
4.34,0.7780393362045288,0.0015237245243042707,0.5408751964569092,0.0,0.0,0.0,0.10913603752851486,0.37326890230178833,-0.06654491275548935,0.0,-1.0,0.5409413576126099,34589.0,39281.0,34977.0,35705.0,0,0,0,0,36138.51171875,140.0,-2117.0,-1291.0
4.36,0.7798535823822021,0.001153663732111454,0.5410021543502808,0.0,0.0,0.0,0.13786470890045166,0.38275426626205444,-0.06713101267814636,0.0,-1.0,0.5410523414611816,35162.0,39286.0,35034.0,35242.0,0,0,0,0,36181.23828125,389.0,192.0,-1378.0
4.38,0.7834873795509338,0.0022440371103584766,0.5410701632499695,0.0,0.0,0.0,0.1688593327999115,0.3716181516647339,-0.06332523375749588,0.0,-1.0,0.5411046147346497,34861.0,38433.0,35031.0,36439.0,0,0,0,0,36191.05078125,-836.0,-1484.0,-1323.0
4.4,0.7866072654724121,0.0024676125030964613,0.5411351919174194,0.0,0.0,0.0,0.14254091680049896,0.2926798462867737,-0.050810739398002625,0.0,-1.0,0.5411569476127625,34873.0,39443.0,35339.0,35245.0,0,0,0,0,36225.35546875,-36.0,-1044.0,-1257.0
4.42,0.7920494675636292,0.002379423938691616,0.541181743144989,0.0,0.0,0.0,0.1565113067626953,0.22193342447280884,-0.03866579383611679,0.0,-1.0,0.5420088171958923,34209.0,39619.0,35507.0,35037.0,0,0,0,0,36093.4765625,47.0,-3365.0,-1311.0
4.44,0.7930237054824829,0.0025626609567552805,0.5420551300048828,0.0,0.0,0.0,0.15912947058677673,0.22679881751537323,-0.031547922641038895,0.0,-1.0,0.5420886278152466,34246.0,37834.0,35584.0,36916.0,0,0,0,0,36145.55078125,1038.0,-1771.0,-1226.0
4.46,0.7998854517936707,0.004171233158558607,0.5421144366264343,0.0,0.0,0.0,0.12765595316886902,0.2360713630914688,-0.02490556426346302,0.0,-1.0,0.5421267151832581,34899.0,38459.0,35263.0,36115.0,0,0,0,0,36184.75390625,-2333.0,-227.0,-1290.0
4.48,0.8036055564880371,0.004030481446534395,0.5421305298805237,0.0,0.0,0.0,0.12569813430309296,0.26624739170074463,-0.014523182064294815,0.0,-1.0,0.5438929796218872,34516.0,36976.0,34604.0,37540.0,0,0,0,0,35909.296875,-2018.0,-2660.0,-1326.0
4.5,0.808252215385437,0.004106604494154453,0.543968141078949,0.0,0.0,0.0,0.09033619612455368,0.17032073438167572,-0.0030130271334201097,0.0,-1.0,0.5440336465835571,34204.0,38388.0,35036.0,36124.0,0,0,0,0,35938.12109375,-1194.0,-560.0,-1326.0
4.52,0.812278151512146,0.003439239226281643,0.5441360473632812,0.0,0.0,0.0,0.15021935105323792,0.09509239345788956,-0.0057067302986979485,0.0,-1.0,0.5441360473632812,33473.0,39421.0,35919.0,35255.0,0,0,0,0,36017.171875,916.0,-782.0,-1249.0
4.54,0.8130906224250793,0.003260772442445159,0.5440949201583862,0.0,0.0,0.0,0.16767501831054688,0.09573019295930862,-0.004171675071120262,0.0,-1.0,0.5441057085990906,34522.0,37534.0,35314.0,36930.0,0,0,0,0,36075.5078125,-1820.0,-2235.0,-1258.0
4.56,0.8147402405738831,0.003137370338663459,0.5441027283668518,0.0,0.0,0.0,0.20057091116905212,0.1513412743806839,-0.0009927826467901468,0.0,-1.0,0.5440835356712341,34412.0,39356.0,35400.0,35408.0,0,0,0,0,36144.71484375,-2644.0,-1426.0,-1261.0
4.58,0.8169995546340942,0.001505630207248032,0.5440534353256226,0.0,0.0,0.0,0.209939107298851,0.15065854787826538,0.008936719968914986,0.0,-1.0,0.541886568069458,35421.0,38295.0,35783.0,36953.0,0,0,0,0,36613.36328125,-1251.0,-959.0,-1182.0
4.6,0.8240290284156799,0.001446989830583334,0.5415232181549072,0.0,0.0,0.0,0.20452070236206055,0.042785584926605225,0.02322239615023136,0.0,-1.0,0.5415232181549072,35053.0,39677.0,36049.0,35969.0,0,0,0,0,36687.06640625,90.0,-1469.0,-1170.0
4.62,0.8255977034568787,0.0016094589373096824,0.5413038730621338,0.0,0.0,0.0,0.18268147110939026,-0.015060504898428917,0.034519318491220474,0.0,-1.0,0.5410980582237244,35229.0,38629.0,36099.0,36271.0,0,0,0,0,36557.61328125,210.0,-1618.0,-1153.0
4.64,0.8327876329421997,0.00183313456363976,0.541531503200531,0.0,0.0,0.0,0.14225035905838013,-0.05872610956430435,0.05945373326539993,0.0,-1.0,0.541531503200531,34881.0,39807.0,36059.0,35477.0,0,0,0,0,36556.765625,-1428.0,-2081.0,-1229.0
4.66,0.8368043303489685,0.002403699327260256,0.5413742065429688,0.0,0.0,0.0,0.11357162147760391,-0.06116064637899399,0.07078374922275543,0.0,-1.0,0.5412209630012512,34600.0,40172.0,36226.0,35222.0,0,0,0,0,36555.50390625,-1241.0,-727.0,-1310.0
4.68,0.8402349352836609,0.0028669042512774467,0.5409253835678101,0.0,0.0,0.0,0.055158086121082306,-0.05871659144759178,0.08618040382862091,0.0,-1.0,0.5409253835678101,35891.0,39245.0,34589.0,37079.0,0,0,0,0,36701.2421875,16.0,-340.0,-1381.0
4.7,0.8412493467330933,0.003057180205360055,0.5398945212364197,0.0,0.0,0.0,0.04664814844727516,-0.05553768575191498,0.08539377152919769,0.0,-1.0,0.5397093296051025,34804.0,37986.0,36032.0,38006.0,0,0,0,0,36707.01953125,-2824.0,-860.0,-1332.0
4.72,0.8481926321983337,0.0033214320428669453,0.5393481850624084,0.0,0.0,0.0,0.02057303674519062,-0.12334224581718445,0.06516274064779282,0.0,-1.0,0.5393481850624084,34384.0,41940.0,36084.0,34352.0,0,0,0,0,36690.87109375,52.0,-1099.0,-1278.0
4.74,0.8524906039237976,0.0033406091388314962,0.5390118360519409,0.0,0.0,0.0,0.016651811078190804,-0.14339259266853333,0.05874432623386383,0.0,-1.0,0.5390118360519409,35274.0,38708.0,35928.0,37426.0,0,0,0,0,36834.9140625,-485.0,-2969.0,-1145.0
4.76,0.8538263440132141,0.0018098353175446391,0.5377568006515503,0.0,0.0,0.0,0.04892682284116745,-0.07368609309196472,0.06236017122864723,0.0,-1.0,0.5377568006515503,35786.0,38824.0,35308.0,37278.0,0,0,0,0,36799.81640625,-1979.0,-3038.0,-1290.0
4.78,0.8544413447380066,0.0018701996887102723,0.5375741124153137,0.0,0.0,0.0,0.036716364324092865,-0.05580693483352661,0.07279834896326065,0.0,-1.0,0.5374029278755188,35555.0,39741.0,35389.0,36323.0,0,0,0,0,36752.609375,322.0,-1422.0,-1275.0
4.8,0.8590359687805176,0.0030064985621720552,0.5372443795204163,0.0,0.0,0.0,0.05352744832634926,-0.03897450491786003,0.0775245726108551,0.0,-1.0,0.5370994210243225,34476.0,39692.0,36572.0,36388.0,0,0,0,0,36782.2109375,-1995.0,-3561.0,-1365.0
4.82,0.8629488348960876,0.0030457619577646255,0.5365037322044373,0.0,0.0,0.0,0.061247408390045166,-0.022112514823675156,0.08455877006053925,0.0,-1.0,0.5363579392433167,33937.0,40109.0,37009.0,36001.0,0,0,0,0,36764.03125,-2117.0,-2196.0,-1318.0
4.84,0.8667441010475159,0.003139268374070525,0.536217987537384,0.0,0.0,0.0,0.017826901748776436,-0.003691234393045306,0.08735912293195724,0.0,-1.0,0.5360912680625916,35477.0,39153.0,35179.0,36967.0,0,0,0,0,36694.8984375,-1280.0,-2390.0,-1399.0
4.86,0.8684606552124023,0.00033930077916011214,0.5359804630279541,0.0,0.0,0.0,0.029941843822598457,0.023326782509684563,0.08497199416160583,0.0,-1.0,0.5358832478523254,34515.0,37643.0,35425.0,37929.0,0,0,0,0,36378.08203125,-2092.0,-1822.0,-1401.0
4.88,0.8734899759292603,0.002811726415529847,0.5372991561889648,0.0,0.0,0.0,-0.024263091385364532,0.0011568386107683182,0.07355160266160965,0.0,-1.0,0.5373023152351379,35690.0,39278.0,33960.0,36252.0,0,0,0,0,36295.546875,-1186.0,-2424.0,-1450.0
4.9,0.8763086199760437,0.00278888875618577,0.5373213291168213,0.0,0.0,0.0,-0.05135905370116234,-0.07727596163749695,0.057916153222322464,0.0,-1.0,0.5373526215553284,34051.0,39133.0,35443.0,36357.0,0,0,0,0,36246.75390625,-1806.0,-2276.0,-1540.0
