time,x_kalman,y_kalman,z_kalman,x_lh,y_lh,z_lh,roll,pitch,yaw,motor.m1,motor.m2,motor.m3,motor.m4,rpm.m1,rpm.m2,rpm.m3,rpm.m4,controller.cmd_thrust,controller.cmd_roll,controller.cmd_pitch,controller.cmd_yaw
0.0,-0.004023578483611345,-0.003835564712062478,-0.0002665765641722828,-0.004040122032165527,-0.003024861216545105,-0.0008171498775482178,-1.433158040046692,-0.5824017524719238,1.2591766119003296,56112.0,52466.0,56210.0,56672.0,0.0,0.0,0.0,0.0,55576.95703125,-411.0,2140.0,769.0
0.02,-0.004016786813735962,-0.003933242056518793,2.0700905224657618e-05,-0.0042625367641448975,-0.0030210912227630615,-0.001065582036972046,-1.4203897714614868,-0.5820901393890381,1.248737096786499,55403.0,56915.0,58049.0,52733.0,0.0,0.0,0.0,0.0,55973.87890625,4465.0,4370.0,504.0
0.04,-0.004197268281131983,-0.004037502221763134,8.198888099286705e-05,-0.0042625367641448975,-0.0030210912227630615,-0.001065582036972046,-1.399550199508667,-0.5976966023445129,1.2442508935928345,54861.0,62725.0,54669.0,52357.0,0.0,0.0,0.0,0.0,56365.14453125,-7088.0,-9455.0,-219.0
0.06,-0.00463776383548975,-0.0040570758283138275,-0.0003908075741492212,-0.004210859537124634,-0.0029594600200653076,-0.0009202957153320312,-1.3298588991165161,-0.5618359446525574,1.1655219793319702,52742.0,62292.0,54416.0,54606.0,0.0,0.0,0.0,0.0,55160.6171875,-2111.0,-5789.0,-387.0
0.081,-0.0047368742525577545,-0.004859870299696922,0.0002781437069643289,-0.0038073062896728516,-0.003313496708869934,0.0005284547805786133,-0.8226158618927002,-0.14360427856445312,0.9867798686027527,47188.0,61254.0,55278.0,52068.0,0.0,0.0,0.0,0.0,52502.6875,2383.0,4018.0,-713.0
0.1,-0.005973941646516323,-0.010629909113049507,0.0021492233499884605,-0.0038073062896728516,-0.003313496708869934,0.0005284547805786133,-0.04461437091231346,0.45786774158477783,0.8401990532875061,51092.0,53230.0,44384.0,54566.0,0.0,0.0,0.0,0.0,49214.02734375,-2295.0,-7124.0,-857.0
0.121,-0.006479359231889248,-0.02209346927702427,0.005687292665243149,-0.003557533025741577,-0.004177480936050415,0.009685605764389038,0.4940881133079529,0.7925859689712524,0.6244428157806396,40392.0,52552.0,47764.0,48564.0,0.0,0.0,0.0,0.0,45638.05078125,-1335.0,-4061.0,-1099.0
0.14,-0.007695707492530346,-0.020596185699105263,0.014489395543932915,-0.003557533025741577,-0.004177480936050415,0.009685605764389038,0.12161216884851456,0.9870980381965637,0.42126861214637756,38333.0,48137.0,42359.0,46943.0,0.0,0.0,0.0,0.0,42653.73046875,-1965.0,-4337.0,-1259.0
0.16,-0.011408377438783646,-0.02417382039129734,0.024294104427099228,-0.003557533025741577,-0.004177480936050415,0.009685605764389038,-0.16456854343414307,1.3733923435211182,0.19362038373947144,37198.0,46742.0,36526.0,44490.0,0.0,0.0,0.0,0.0,39693.125,1042.0,-991.0,-1318.0
0.18,-0.011476811021566391,-0.018912309780716896,0.03904010355472565,-0.0035334527492523193,-0.003189653158187866,0.035999417304992676,-0.8555566668510437,1.3383930921554565,-0.06490319967269897,32781.0,44019.0,36621.0,40543.0,0.0,0.0,0.0,0.0,37468.79296875,-1341.0,-3366.0,-1397.0
0.2,-0.011365906335413456,-0.018776627257466316,0.054004453122615814,-0.003433406352996826,-0.0032754242420196533,0.05001470446586609,-1.1529935598373413,1.028420090675354,-0.2901039719581604,30679.0,42725.0,35435.0,38257.0,0.0,0.0,0.0,0.0,36072.078125,61.0,-3813.0,-1558.0
0.22,-0.014281954616308212,-0.01883152686059475,0.06904835253953934,-0.003433406352996826,-0.0032754242420196533,0.05001470446586609,-1.3852238655090332,0.8810217380523682,-0.48779577016830444,30149.0,39437.0,32689.0,38325.0,0.0,0.0,0.0,0.0,34583.59765625,-43.0,-2048.0,-1681.0
0.241,-0.011323203332722187,-0.016150079667568207,0.08779753744602203,-0.00263407826423645,-0.004961565136909485,0.08886533975601196,-1.6778936386108398,0.5471401810646057,-0.691716730594635,30589.0,38911.0,30281.0,37223.0,0.0,0.0,0.0,0.0,34075.859375,-620.0,-2881.0,-1775.0
0.26,-0.013770533725619316,-0.01847313530743122,0.1034715324640274,-0.00263407826423645,-0.004961565136909485,0.08886533975601196,-1.6166682243347168,0.4625508487224579,-0.8545416593551636,29890.0,41138.0,30608.0,34740.0,0.0,0.0,0.0,0.0,33139.24609375,-3300.0,-4400.0,-1759.0
0.28,-0.017047850415110588,-0.022227879613637924,0.12288259714841843,-0.00263407826423645,-0.004961565136909485,0.08886533975601196,-1.4431416988372803,0.3156346082687378,-1.0461176633834839,30420.0,37440.0,28730.0,35578.0,0.0,0.0,0.0,0.0,33040.0859375,-2383.0,-1681.0,-1768.0
0.3,-0.01729101873934269,-0.02412310615181923,0.13870610296726227,-0.00263407826423645,-0.004961565136909485,0.08886533975601196,-1.286839485168457,0.050014760345220566,-1.237908124923706,29609.0,37553.0,30159.0,35287.0,0.0,0.0,0.0,0.0,32765.3515625,-1828.0,-1590.0,-1803.0
0.32,-0.021403208374977112,-0.022664643824100494,0.15623173117637634,-0.00263407826423645,-0.004961565136909485,0.08886533975601196,-1.3364568948745728,-0.15421903133392334,-1.4070096015930176,28784.0,35320.0,30892.0,36600.0,0.0,0.0,0.0,0.0,33088.9921875,-1171.0,-2235.0,-1815.0
0.34,-0.022289369255304337,-0.02249261736869812,0.17094630002975464,-0.00263407826423645,-0.004961565136909485,0.08886533975601196,-1.3591270446777344,-0.5464451909065247,-1.5341845750808716,29390.0,35398.0,31304.0,37048.0,0.0,0.0,0.0,0.0,33720.75390625,1346.0,852.0,-1783.0
0.36,-0.019541645422577858,-0.01766584813594818,0.18329158425331116,0.0004646778106689453,-0.0006261616945266724,0.17009885609149933,-1.575219988822937,-0.9980411529541016,-1.6476857662200928,29988.0,36860.0,32318.0,36838.0,0.0,0.0,0.0,0.0,34294.671875,-2216.0,-3157.0,-1817.0
0.38,-0.020121639594435692,-0.017648424953222275,0.19616049528121948,0.0004646778106689453,-0.0006261616945266724,0.17009885609149933,-1.6440742015838623,-1.3774445056915283,-1.7958368062973022,31647.0,36517.0,34395.0,35861.0,0.0,0.0,0.0,0.0,35031.0,-2152.0,-2222.0,-1921.0
0.4,-0.020597942173480988,-0.014441595412790775,0.20673754811286926,0.002180248498916626,0.0008086711168289185,0.19426390528678894,-1.6772598028182983,-1.5649199485778809,-1.8671505451202393,33453.0,39369.0,34117.0,35909.0,0.0,0.0,0.0,0.0,36015.5703125,-26.0,217.0,-1897.0
0.42,-0.020711205899715424,-0.013273973949253559,0.2154356837272644,0.002180248498916626,0.0008086711168289185,0.19426390528678894,-1.5453553199768066,-1.742034673690796,-1.9444843530654907,33985.0,40871.0,34841.0,35535.0,0.0,0.0,0.0,0.0,36578.8671875,-1538.0,-1597.0,-1929.0
0.44,-0.02050880901515484,-0.014095492660999298,0.22561129927635193,0.002180248498916626,0.0008086711168289185,0.19426390528678894,-1.262323260307312,-1.8815257549285889,-2.0126824378967285,34817.0,40343.0,36309.0,38431.0,0.0,0.0,0.0,0.0,37719.68359375,-2073.0,-1535.0,-1860.0
0.46,-0.020656075328588486,-0.013799596577882767,0.23109829425811768,0.002180248498916626,0.0008086711168289185,0.19426390528678894,-0.9874240756034851,-1.923845887184143,-2.0661802291870117,36263.0,40221.0,36167.0,39133.0,0.0,0.0,0.0,0.0,38150.8984375,-1750.0,-2142.0,-1905.0
0.48,-0.02026357688009739,-0.013162191025912762,0.23938408493995667,0.002180248498916626,0.0008086711168289185,0.19426390528678894,-0.7736382484436035,-1.9591798782348633,-2.106210708618164,36295.0,41193.0,36675.0,39165.0,0.0,0.0,0.0,0.0,38720.42578125,-540.0,-3648.0,-1827.0
0.501,-0.01973884552717209,-0.012032371014356613,0.24567914009094238,0.009547144174575806,0.0043588727712631226,0.243184432387352,-0.6265131235122681,-1.9450377225875854,-2.1520683765411377,36384.0,42430.0,37362.0,39372.0,0.0,0.0,0.0,0.0,38986.36328125,477.0,-1966.0,-2025.0
0.52,-0.014819762669503689,-0.008371401578187943,0.2523641288280487,0.009547144174575806,0.0043588727712631226,0.243184432387352,-0.5375407934188843,-1.9339290857315063,-2.107381582260132,36183.0,43889.0,37341.0,38895.0,0.0,0.0,0.0,0.0,39164.28515625,-1216.0,-1609.0,-2024.0
0.54,-0.00981128215789795,-0.005295759066939354,0.2588927149772644,0.013508051633834839,0.0068498700857162476,0.25467580556869507,-0.42359718680381775,-1.8728415966033936,-2.17859148979187,36205.0,41897.0,38895.0,39791.0,0.0,0.0,0.0,0.0,39227.3359375,-669.0,-1713.0,-2035.0
0.56,-0.005484217777848244,-0.002433243440464139,0.2653190791606903,0.01561284065246582,0.007847845554351807,0.26127153635025024,-0.27212363481521606,-1.703045129776001,-2.211339235305786,35929.0,43891.0,38159.0,38901.0,0.0,0.0,0.0,0.0,39698.3125,-519.0,-2708.0,-2208.0
0.58,-0.0039929114282131195,-0.0016080359928309917,0.2692440152168274,0.01561284065246582,0.007847845554351807,0.26127153635025024,-0.1013156995177269,-1.4182779788970947,-2.2360105514526367,37418.0,43504.0,38488.0,39314.0,0.0,0.0,0.0,0.0,39656.0703125,-120.0,-1701.0,-2159.0
0.6,0.0013706362806260586,0.0011759215267375112,0.2753256559371948,0.020585358142852783,0.009607702493667603,0.2743787467479706,0.07620251178741455,-1.1600929498672485,-2.2839510440826416,36923.0,43737.0,37765.0,40035.0,0.0,0.0,0.0,0.0,39541.18359375,183.0,-1904.0,-2190.0
0.62,0.0059106238186359406,0.0031880210153758526,0.2814647853374481,0.023395270109176636,0.010408341884613037,0.28089162707328796,0.31401917338371277,-0.8549220561981201,-2.3468215465545654,37116.0,42036.0,37482.0,41598.0,0.0,0.0,0.0,0.0,39492.28125,-1444.0,-4621.0,-2300.0
0.641,0.010469094850122929,0.004842981230467558,0.2870885729789734,0.026663273572921753,0.010167181491851807,0.2897816300392151,0.5358959436416626,-0.5459646582603455,-2.3620972633361816,35569.0,44841.0,38623.0,38559.0,0.0,0.0,0.0,0.0,39330.87109375,-1146.0,-1070.0,-2333.0
0.66,0.012754163704812527,0.006010476965457201,0.2929769456386566,0.026663273572921753,0.010167181491851807,0.2897816300392151,0.7483632564544678,-0.13059581816196442,-2.426189661026001,34788.0,43702.0,39086.0,39336.0,0.0,0.0,0.0,0.0,39153.41015625,-1134.0,-1228.0,-2371.0
0.68,0.01533932238817215,0.007147352211177349,0.29895782470703125,0.026663273572921753,0.010167181491851807,0.2897816300392151,0.9620583653450012,0.3182268738746643,-2.4911749362945557,36010.0,43696.0,37622.0,38988.0,0.0,0.0,0.0,0.0,39024.234375,-906.0,-1875.0,-2379.0
0.701,0.02017258107662201,0.008434144780039787,0.30507880449295044,0.03518834710121155,0.011846587061882019,0.30860722064971924,1.1150498390197754,0.6928612589836121,-2.5141761302948,36534.0,42306.0,36854.0,40038.0,0.0,0.0,0.0,0.0,38646.57421875,65.0,-2362.0,-2271.0
0.72,0.022249307483434677,0.009367861784994602,0.3121339678764343,0.03518834710121155,0.011846587061882019,0.30860722064971924,1.2638568878173828,1.1193149089813232,-2.5620508193969727,36545.0,41753.0,36169.0,39913.0,0.0,0.0,0.0,0.0,38550.13671875,-1640.0,-2299.0,-2264.0
0.741,0.027019044384360313,0.0102424006909132,0.3182413876056671,0.0410136878490448,0.012374460697174072,0.32110944390296936,1.3650288581848145,1.4448891878128052,-2.549325466156006,35632.0,42680.0,36680.0,39008.0,0.0,0.0,0.0,0.0,38240.75,-1378.0,-2126.0,-2337.0
0.76,0.029290424659848213,0.011010616086423397,0.325229674577713,0.0410136878490448,0.012374460697174072,0.32110944390296936,1.4424645900726318,1.7819607257843018,-2.5973000526428223,35510.0,42454.0,36144.0,38772.0,0.0,0.0,0.0,0.0,38207.94140625,-455.0,-1286.0,-2317.0
0.78,0.031469278037548065,0.011310458183288574,0.3310885727405548,0.0410136878490448,0.012374460697174072,0.32110944390296936,1.5621979236602783,2.1026220321655273,-2.6346278190612793,34921.0,41797.0,36859.0,39279.0,0.0,0.0,0.0,0.0,38115.0703125,-1796.0,-2957.0,-2377.0
0.8,0.035895589739084244,0.012218259274959564,0.33736079931259155,0.04722246527671814,0.013358920812606812,0.33583083748817444,1.6324177980422974,2.331130266189575,-2.6468873023986816,35763.0,41337.0,35701.0,39719.0,0.0,0.0,0.0,0.0,38149.28515625,-1324.0,-3075.0,-2343.0
0.82,0.03818138316273689,0.012790331616997719,0.3429541289806366,0.04722246527671814,0.013358920812606812,0.33583083748817444,1.6573810577392578,2.596479654312134,-2.6787431240081787,35930.0,42708.0,35652.0,38430.0,0.0,0.0,0.0,0.0,38199.87109375,-1725.0,-2703.0,-2383.0
0.84,0.042169928550720215,0.01296898815780878,0.34846532344818115,0.051584064960479736,0.012541159987449646,0.3472757935523987,1.660132646560669,2.8103740215301514,-2.713916063308716,35534.0,41978.0,35836.0,38528.0,0.0,0.0,0.0,0.0,38001.62109375,-2427.0,-4002.0,-2303.0
0.86,0.043882668018341064,0.012779302895069122,0.35509443283081055,0.051584064960479736,0.012541159987449646,0.3472757935523987,1.6835315227508545,3.0385875701904297,-2.731861114501953,34856.0,41280.0,36520.0,39492.0,0.0,0.0,0.0,0.0,38090.4453125,-1253.0,-3649.0,-2348.0
0.881,0.04510471224784851,0.01267932914197445,0.3602806031703949,0.056612640619277954,0.009996473789215088,0.36067312955856323,1.6841336488723755,3.2718589305877686,-2.7414534091949463,34715.0,42729.0,36885.0,38183.0,0.0,0.0,0.0,0.0,38194.21875,-719.0,-2123.0,-2405.0
0.9,0.04830598458647728,0.012080616317689419,0.3653663396835327,0.056612640619277954,0.009996473789215088,0.36067312955856323,1.661156415939331,3.4286227226257324,-2.691542863845825,35720.0,40776.0,36114.0,40438.0,0.0,0.0,0.0,0.0,38343.4375,-1379.0,-2105.0,-2379.0
0.92,0.05118691176176071,0.011264815926551819,0.37005674839019775,0.05789026618003845,0.009360283613204956,0.3671349883079529,1.5705091953277588,3.542515516281128,-2.6677651405334473,35359.0,42535.0,36669.0,39117.0,0.0,0.0,0.0,0.0,38730.0078125,-796.0,-1906.0,-2406.0
0.94,0.05233246833086014,0.010793022811412811,0.3733489215373993,0.05789026618003845,0.009360283613204956,0.3671349883079529,1.4481632709503174,3.6019492149353027,-2.682055950164795,35025.0,43873.0,37965.0,38369.0,0.0,0.0,0.0,0.0,38865.02734375,-941.0,-1297.0,-2307.0
0.96,0.05306904762983322,0.009952854365110397,0.3774784505367279,0.05789026618003845,0.009360283613204956,0.3671349883079529,1.3313182592391968,3.6600348949432373,-2.6881134510040283,35961.0,43167.0,37317.0,39259.0,0.0,0.0,0.0,0.0,39151.578125,-1237.0,-917.0,-2280.0
0.98,0.054682645946741104,0.008663001470267773,0.3807835578918457,0.060158103704452515,0.0057973116636276245,0.3796318769454956,1.217705488204956,3.715527057647705,-2.6593668460845947,35200.0,43214.0,38534.0,39872.0,0.0,0.0,0.0,0.0,39251.30078125,-3046.0,-3087.0,-2298.0
1.0,0.056149277836084366,0.007037528324872255,0.38449573516845703,0.06052389740943909,0.004455253481864929,0.38351887464523315,1.1267390251159668,3.7169954776763916,-2.6786253452301025,35609.0,42375.0,38473.0,40671.0,0.0,0.0,0.0,0.0,39447.49609375,-2067.0,-2940.0,-2254.0
1.02,0.05700002238154411,0.005766218528151512,0.3874467611312866,0.06060868501663208,0.0029816776514053345,0.3871501684188843,1.001928687095642,3.699284791946411,-2.634714365005493,37283.0,41899.0,36999.0,41707.0,0.0,0.0,0.0,0.0,39501.6875,-754.0,-1524.0,-2306.0
1.04,0.056921642273664474,0.004854272585362196,0.3907773196697235,0.06162521243095398,0.00019487738609313965,0.39336979389190674,0.8137701153755188,3.646017551422119,-2.6282033920288086,36251.0,43367.0,38019.0,40343.0,0.0,0.0,0.0,0.0,39496.13671875,-2415.0,-2682.0,-2359.0
1.06,0.05731165036559105,0.0028175499755889177,0.3941631615161896,0.06162521243095398,0.00019487738609313965,0.39336979389190674,0.6159443259239197,3.5491116046905518,-2.5648207664489746,35975.0,42465.0,38213.0,40947.0,0.0,0.0,0.0,0.0,39375.1484375,-1833.0,-1250.0,-2349.0
1.08,0.05709197744727135,0.0011471861507743597,0.39790740609169006,0.05919554829597473,-0.0019196420907974243,0.3973124325275421,0.45016852021217346,3.474879264831543,-2.553392171859741,36155.0,42223.0,37875.0,41175.0,0.0,0.0,0.0,0.0,39357.76953125,-368.0,-1281.0,-2309.0
1.1,0.05599793419241905,-0.0002420206437818706,0.40110790729522705,0.05919554829597473,-0.0019196420907974243,0.3973124325275421,0.2852875888347626,3.3286595344543457,-2.5568039417266846,36565.0,43797.0,37821.0,40061.0,0.0,0.0,0.0,0.0,39561.87890625,-1321.0,-4766.0,-2326.0
1.12,0.055496424436569214,-0.0022126331459730864,0.40313321352005005,0.05731469392776489,-0.005435556173324585,0.4043264389038086,0.10001081973314285,3.1344008445739746,-2.572747230529785,36357.0,42973.0,37989.0,40669.0,0.0,0.0,0.0,0.0,39497.6484375,-1337.0,-2639.0,-2287.0
1.14,0.0543675571680069,-0.004144446924328804,0.4063306450843811,0.056147634983062744,-0.00730229914188385,0.4077611565589905,-0.09460324048995972,3.0019052028656006,-2.5704987049102783,37089.0,43135.0,36857.0,40655.0,0.0,0.0,0.0,0.0,39434.31640625,-314.0,-1532.0,-2383.0
1.16,0.05305373668670654,-0.005440690089017153,0.40890997648239136,0.056147634983062744,-0.00730229914188385,0.4077611565589905,-0.2974858582019806,2.8445327281951904,-2.586085796356201,36687.0,42123.0,37501.0,41565.0,0.0,0.0,0.0,0.0,39413.3515625,-1461.0,-1816.0,-2380.0
1.18,0.05155492573976517,-0.007512926589697599,0.4120781123638153,0.053237348794937134,-0.010744869709014893,0.4144856333732605,-0.4708431661128998,2.61887526512146,-2.6026833057403564,36972.0,44052.0,37096.0,39436.0,0.0,0.0,0.0,0.0,39197.4296875,212.0,-670.0,-2375.0
1.2,0.04963807016611099,-0.008584943599998951,0.4158470630645752,0.053237348794937134,-0.010744869709014893,0.4144856333732605,-0.6906459331512451,2.3381965160369873,-2.5810890197753906,36717.0,42253.0,36673.0,40973.0,0.0,0.0,0.0,0.0,39099.39453125,-2251.0,-1559.0,-2473.0
1.22,0.047795820981264114,-0.010825132951140404,0.4190685749053955,0.04931721091270447,-0.014091521501541138,0.42088374495506287,-0.8216203451156616,2.068572521209717,-2.6041293144226074,34136.0,43108.0,39434.0,39642.0,0.0,0.0,0.0,0.0,39053.4296875,-2002.0,-786.0,-2344.0
1.24,0.04566008970141411,-0.011870775371789932,0.42088478803634644,0.04931721091270447,-0.014091521501541138,0.42088374495506287,-0.9593896865844727,1.8041259050369263,-2.6147313117980957,36586.0,42134.0,37056.0,41352.0,0.0,0.0,0.0,0.0,39269.9921875,-611.0,-2905.0,-2441.0
1.26,0.04367441311478615,-0.013156029395759106,0.42373740673065186,0.04931721091270447,-0.014091521501541138,0.42088374495506287,-1.0982508659362793,1.556007981300354,-2.593236207962036,36051.0,42191.0,37777.0,41045.0,0.0,0.0,0.0,0.0,39266.078125,-238.0,-1880.0,-2317.0
1.28,0.04127603769302368,-0.01418362744152546,0.4265417754650116,0.04931721091270447,-0.014091521501541138,0.42088374495506287,-1.2335513830184937,1.2697489261627197,-2.5908560752868652,37213.0,41907.0,36105.0,41067.0,0.0,0.0,0.0,0.0,39052.79296875,-649.0,-3781.0,-2441.0
1.3,0.038563087582588196,-0.015227733179926872,0.43027883768081665,0.041015177965164185,-0.020440325140953064,0.43629997968673706,-1.3850009441375732,0.9707938432693481,-2.580552339553833,35774.0,42754.0,37272.0,40144.0,0.0,0.0,0.0,0.0,38986.7421875,-1280.0,-998.0,-2500.0
1.32,0.03699391707777977,-0.01737564243376255,0.433468222618103,0.041015177965164185,-0.020440325140953064,0.43629997968673706,-1.459208607673645,0.6691669225692749,-2.543689250946045,35919.0,42547.0,37295.0,40387.0,0.0,0.0,0.0,0.0,39061.3828125,-985.0,-1275.0,-2404.0
1.34,0.034374479204416275,-0.01821048930287361,0.4359204173088074,0.041015177965164185,-0.020440325140953064,0.43629997968673706,-1.5459550619125366,0.45448920130729675,-2.547020435333252,36949.0,41667.0,36289.0,41415.0,0.0,0.0,0.0,0.0,39053.36328125,196.0,-3793.0,-2364.0
1.36,0.032020483165979385,-0.019819656386971474,0.43892404437065125,0.03403139114379883,-0.02335391938686371,0.44319066405296326,-1.6071442365646362,0.20602749288082123,-2.562589645385742,35344.0,42212.0,37948.0,40712.0,0.0,0.0,0.0,0.0,39054.55859375,-1368.0,-3445.0,-2412.0
1.38,0.02964206226170063,-0.020756416022777557,0.44267675280570984,0.03403139114379883,-0.02335391938686371,0.44319066405296326,-1.676025152206421,-0.03680142015218735,-2.557941436767578,36374.0,41990.0,36420.0,40600.0,0.0,0.0,0.0,0.0,38808.48828125,-3370.0,-2927.0,-2369.0
1.4,0.027338992804288864,-0.022402558475732803,0.445624977350235,0.029179155826568604,-0.02536669373512268,0.44898414611816406,-1.7112637758255005,-0.25385212898254395,-2.569465398788452,35391.0,43077.0,37451.0,39309.0,0.0,0.0,0.0,0.0,38794.30078125,606.0,525.0,-2353.0
1.42,0.025300780311226845,-0.02349761314690113,0.448637455701828,0.02660408616065979,-0.026223838329315186,0.4537280797958374,-1.7134371995925903,-0.49935173988342285,-2.531827449798584,35125.0,42767.0,37645.0,39635.0,0.0,0.0,0.0,0.0,38793.0,-933.0,-1689.0,-2392.0
1.44,0.022648314014077187,-0.02380758710205555,0.45120787620544434,0.02660408616065979,-0.026223838329315186,0.4537280797958374,-1.7314670085906982,-0.6905760765075684,-2.509695529937744,35957.0,42133.0,36931.0,40395.0,0.0,0.0,0.0,0.0,38854.21484375,-799.0,-1758.0,-2394.0
1.46,0.020794935524463654,-0.024694081395864487,0.4545133411884308,0.02282288670539856,-0.026983678340911865,0.45736151933670044,-1.7431886196136475,-0.8776459097862244,-2.513603448867798,36521.0,42271.0,36195.0,40045.0,0.0,0.0,0.0,0.0,38777.91796875,-1080.0,-1454.0,-2403.0
1.48,0.018509922549128532,-0.024854598566889763,0.4569668173789978,0.02282288670539856,-0.026983678340911865,0.45736151933670044,-1.7883487939834595,-1.0681339502334595,-2.500408411026001,35659.0,42255.0,37109.0,40185.0,0.0,0.0,0.0,0.0,38802.578125,-2160.0,-3423.0,-2443.0
1.5,0.01664363034069538,-0.02542256936430931,0.45956289768218994,0.018941104412078857,-0.027593135833740234,0.4624709188938141,-1.7745503187179565,-1.2475255727767944,-2.496781587600708,36439.0,42383.0,36077.0,39829.0,0.0,0.0,0.0,0.0,38682.25390625,-2238.0,-3657.0,-2424.0
1.52,0.01463792659342289,-0.02546698786318302,0.4626254141330719,0.018941104412078857,-0.027593135833740234,0.4624709188938141,-1.7345000505447388,-1.323275089263916,-2.4861226081848145,36254.0,42520.0,36402.0,39708.0,0.0,0.0,0.0,0.0,38721.83984375,-1859.0,-1587.0,-2409.0
1.54,0.012772629968822002,-0.025456801056861877,0.4648994207382202,0.018941104412078857,-0.027593135833740234,0.4624709188938141,-1.6665705442428589,-1.4000346660614014,-2.4762535095214844,35643.0,42011.0,36977.0,40441.0,0.0,0.0,0.0,0.0,38810.0703125,-868.0,-1858.0,-2462.0
1.56,0.010784808546304703,-0.02509252354502678,0.46727028489112854,0.012858390808105469,-0.027551084756851196,0.47003844380378723,-1.6177946329116821,-1.495121955871582,-2.455059051513672,37226.0,41506.0,35506.0,41082.0,0.0,0.0,0.0,0.0,38830.36328125,-1942.0,-1647.0,-2455.0
1.58,0.009201090782880783,-0.025404201820492744,0.4694748818874359,0.012858390808105469,-0.027551084756851196,0.47003844380378723,-1.573757529258728,-1.5804942846298218,-2.4292683601379395,35724.0,42720.0,37260.0,40016.0,0.0,0.0,0.0,0.0,38930.90234375,-1903.0,-1290.0,-2468.0
1.6,0.008050327189266682,-0.025512881577014923,0.47159653902053833,0.011056482791900635,-0.027340516448020935,0.4733346402645111,-1.4924590587615967,-1.6621370315551758,-2.416921377182007,35237.0,42253.0,37865.0,40661.0,0.0,0.0,0.0,0.0,39033.671875,-667.0,-688.0,-2473.0
1.62,0.006496124900877476,-0.025007400661706924,0.4734439253807068,0.00912591814994812,-0.026779353618621826,0.47582685947418213,-1.3889144659042358,-1.7096699476242065,-2.409169912338257,36390.0,43058.0,36818.0,39918.0,0.0,0.0,0.0,0.0,39353.50390625,-1667.0,-1944.0,-2500.0
1.64,0.005338788032531738,-0.02486056089401245,0.47403278946876526,0.007965326309204102,-0.02635851502418518,0.47746139764785767,-1.3201907873153687,-1.7373099327087402,-2.359255075454712,37606.0,44186.0,36244.0,39448.0,0.0,0.0,0.0,0.0,39371.37109375,-407.0,-1929.0,-2408.0
1.66,0.004550182726234198,-0.02445659041404724,0.4757896661758423,0.007965326309204102,-0.02635851502418518,0.47746139764785767,-1.2112151384353638,-1.7399914264678955,-2.3287999629974365,36906.0,43086.0,37130.0,40642.0,0.0,0.0,0.0,0.0,39441.84375,-752.0,-977.0,-2426.0
1.68,0.003298170631751418,-0.02370034158229828,0.4763270616531372,0.007965326309204102,-0.02635851502418518,0.47746139764785767,-1.0960909128189087,-1.720282793045044,-2.314770221710205,36139.0,45077.0,38283.0,39161.0,0.0,0.0,0.0,0.0,39676.70703125,280.0,-707.0,-2498.0
1.7,0.0023058773949742317,-0.022885151207447052,0.4776199758052826,0.005561769008636475,-0.024472862482070923,0.48182544112205505,-1.017566204071045,-1.6770509481430054,-2.2992630004882812,36657.0,42697.0,37651.0,41599.0,0.0,0.0,0.0,0.0,39652.234375,980.0,-2277.0,-2396.0
1.72,0.002200177637860179,-0.022491667419672012,0.4791136384010315,0.005561769008636475,-0.024472862482070923,0.48182544112205505,-0.9058789610862732,-1.6014690399169922,-2.3002350330352783,36948.0,43564.0,37684.0,40800.0,0.0,0.0,0.0,0.0,39749.54296875,-165.0,-2502.0,-2387.0
1.74,0.0022194362245500088,-0.021760491654276848,0.48014014959335327,0.005569398403167725,-0.023290514945983887,0.48427027463912964,-0.8452885150909424,-1.559867262840271,-2.289778232574463,36297.0,44615.0,38051.0,39817.0,0.0,0.0,0.0,0.0,39695.48828125,-99.0,-919.0,-2513.0
1.76,0.0016298613045364618,-0.020848214626312256,0.4813764989376068,0.005569398403167725,-0.023290514945983887,0.48427027463912964,-0.7571604251861572,-1.4983515739440918,-2.278655529022217,36856.0,44058.0,37548.0,40266.0,0.0,0.0,0.0,0.0,39682.46484375,-1292.0,-2841.0,-2530.0
1.78,0.0011386823607608676,-0.019728878512978554,0.4825131297111511,0.005569398403167725,-0.023290514945983887,0.48427027463912964,-0.6410253643989563,-1.4261176586151123,-2.2738656997680664,36543.0,43459.0,37899.0,40603.0,0.0,0.0,0.0,0.0,39626.515625,-1269.0,-862.0,-2480.0
1.8,0.000738414004445076,-0.018547819927334785,0.4837818741798401,0.005569398403167725,-0.023290514945983887,0.48427027463912964,-0.5350683927536011,-1.2889344692230225,-2.277017831802368,35905.0,44089.0,38213.0,40093.0,0.0,0.0,0.0,0.0,39575.78125,-1770.0,-2436.0,-2513.0
1.82,0.0005360408686101437,-0.017288673669099808,0.48535439372062683,0.005569398403167725,-0.023290514945983887,0.48427027463912964,-0.42223915457725525,-1.1883763074874878,-2.273135185241699,36431.0,44283.0,37367.0,39827.0,0.0,0.0,0.0,0.0,39477.3984375,-778.0,-3429.0,-2499.0
1.84,0.0017689305823296309,-0.016670433804392815,0.4870147407054901,0.005905956029891968,-0.018725723028182983,0.49215197563171387,-0.2923950254917145,-1.0990773439407349,-2.2648656368255615,35903.0,43205.0,37701.0,40751.0,0.0,0.0,0.0,0.0,39390.94921875,-1218.0,-2502.0,-2531.0
1.86,0.001822194317355752,-0.01537181157618761,0.4889814853668213,0.005905956029891968,-0.018725723028182983,0.49215197563171387,-0.20017708837985992,-0.9691752791404724,-2.262338161468506,36074.0,43700.0,37370.0,39864.0,0.0,0.0,0.0,0.0,39252.109375,-2648.0,-3647.0,-2610.0
1.88,0.0019692578352987766,-0.014025844633579254,0.49042007327079773,0.005905956029891968,-0.018725723028182983,0.49215197563171387,-0.13540691137313843,-0.8606714010238647,-2.255990505218506,36407.0,42447.0,36897.0,41157.0,0.0,0.0,0.0,0.0,39227.26953125,-1068.0,-4109.0,-2525.0
1.9,0.0034753060899674892,-0.013286922127008438,0.49183809757232666,0.006665408611297607,-0.015735074877738953,0.4967784285545349,-0.015711357817053795,-0.7692170739173889,-2.2613978385925293,35844.0,44488.0,37518.0,39030.0,0.0,0.0,0.0,0.0,39220.97265625,-439.0,-320.0,-2526.0
1.92,0.0046712676994502544,-0.01243823952972889,0.49348369240760803,0.0071489810943603516,-0.014734029769897461,0.49818992614746094,0.09335461258888245,-0.6395326256752014,-2.2157835960388184,35800.0,42754.0,37560.0,40698.0,0.0,0.0,0.0,0.0,39203.40234375,-1586.0,-1708.0,-2487.0
1.94,0.005689900368452072,-0.011700154282152653,0.4951532781124115,0.007786780595779419,-0.013793036341667175,0.4998151659965515,0.20467135310173035,-0.5383777022361755,-2.226623773574829,36190.0,43978.0,37146.0,39238.0,0.0,0.0,0.0,0.0,39138.4375,-1449.0,-1682.0,-2508.0
1.96,0.006296329200267792,-0.010755392722785473,0.49667665362358093,0.007786780595779419,-0.013793036341667175,0.4998151659965515,0.3100343942642212,-0.3918848931789398,-2.2093124389648438,35685.0,44289.0,37469.0,39061.0,0.0,0.0,0.0,0.0,39126.15625,-1864.0,-1796.0,-2478.0
1.98,0.006655976176261902,-0.009378479793667793,0.4980452358722687,0.007786780595779419,-0.013793036341667175,0.4998151659965515,0.40591445565223694,-0.2283768653869629,-2.2002415657043457,36347.0,43555.0,36859.0,39443.0,0.0,0.0,0.0,0.0,39051.7265625,-277.0,-1610.0,-2466.0
2.0,0.007138006389141083,-0.008429419249296188,0.499944806098938,0.009161174297332764,-0.010787293314933777,0.5049288272857666,0.47718334197998047,-0.06650842726230621,-2.1814587116241455,35369.0,42847.0,37757.0,40215.0,0.0,0.0,0.0,0.0,39047.890625,-2362.0,-2537.0,-2496.0
2.02,0.007994962856173515,-0.007942096330225468,0.501514732837677,0.009161174297332764,-0.010787293314933777,0.5049288272857666,0.5124513506889343,0.0592392198741436,-2.138171672821045,35745.0,42839.0,37413.0,40347.0,0.0,0.0,0.0,0.0,39086.92578125,-2317.0,-2682.0,-2503.0
2.04,0.008589696139097214,-0.0070794727653265,0.5025740265846252,0.009161174297332764,-0.010787293314933777,0.5049288272857666,0.5708823800086975,0.17745812237262726,-2.127249002456665,35602.0,43948.0,37044.0,40114.0,0.0,0.0,0.0,0.0,39177.69921875,-1369.0,-2059.0,-2500.0
2.06,0.009170354343950748,-0.005908334627747536,0.503770112991333,0.009161174297332764,-0.010787293314933777,0.5049288272857666,0.6019421815872192,0.2692348062992096,-2.132272958755493,36390.0,44066.0,36118.0,40338.0,0.0,0.0,0.0,0.0,39228.14453125,-1498.0,-2499.0,-2522.0
2.08,0.009932668879628181,-0.004978358745574951,0.5042238235473633,0.009161174297332764,-0.010787293314933777,0.5049288272857666,0.632870078086853,0.34255075454711914,-2.1399710178375244,37057.0,43183.0,37183.0,40101.0,0.0,0.0,0.0,0.0,39381.02734375,-2284.0,-1472.0,-2505.0
2.1,0.01026051864027977,-0.004050338640809059,0.5052433609962463,0.009161174297332764,-0.010787293314933777,0.5049288272857666,0.6937674880027771,0.4451043903827667,-2.1179754734039307,36618.0,43406.0,37936.0,39792.0,0.0,0.0,0.0,0.0,39438.07421875,-780.0,-177.0,-2395.0
2.12,0.010943924076855183,-0.00340257422067225,0.5055752992630005,0.009161174297332764,-0.010787293314933777,0.5049288272857666,0.7298158407211304,0.5136095285415649,-2.0861093997955322,36954.0,43796.0,37300.0,40294.0,0.0,0.0,0.0,0.0,39586.19921875,-240.0,-2230.0,-2369.0
2.14,0.011486058123409748,-0.0027744497638195753,0.5064335465431213,0.009161174297332764,-0.010787293314933777,0.5049288272857666,0.7702695727348328,0.6046677827835083,-2.0621583461761475,36472.0,44044.0,38070.0,39846.0,0.0,0.0,0.0,0.0,39608.7265625,-609.0,-2137.0,-2381.0
2.16,0.011870365589857101,-0.0020730297546833754,0.5072662234306335,0.009161174297332764,-0.010787293314933777,0.5049288272857666,0.7718061804771423,0.6925098896026611,-2.0171589851379395,35641.0,43847.0,38475.0,40109.0,0.0,0.0,0.0,0.0,39518.12890625,-151.0,-1116.0,-2433.0
2.18,0.012696664780378342,-0.0009813435608521104,0.508655309677124,0.009161174297332764,-0.010787293314933777,0.5049288272857666,0.7589256763458252,0.7431492209434509,-2.0146477222442627,35710.0,44778.0,38540.0,38996.0,0.0,0.0,0.0,0.0,39506.20703125,-721.0,-2034.0,-2421.0
2.2,0.013207889162003994,-0.00043109056423418224,0.5095307230949402,0.009161174297332764,-0.010787293314933777,0.5049288272857666,0.7263726592063904,0.779625415802002,-1.976560354232788,36555.0,44471.0,37299.0,38967.0,0.0,0.0,0.0,0.0,39323.9765625,-501.0,-2151.0,-2351.0
2.22,0.013485834933817387,0.00014153457595966756,0.5112826824188232,0.009161174297332764,-0.010787293314933777,0.5049288272857666,0.7250441312789917,0.828819990158081,-1.9578303098678589,36683.0,42919.0,37149.0,40485.0,0.0,0.0,0.0,0.0,39309.5390625,-1982.0,-2613.0,-2385.0
2.24,0.013708681799471378,0.0006658126367256045,0.5122506022453308,0.009161174297332764,-0.010787293314933777,0.5049288272857666,0.7378724217414856,0.8525957465171814,-1.934108018875122,36839.0,43435.0,37015.0,39919.0,0.0,0.0,0.0,0.0,39302.12109375,-808.0,-1879.0,-2322.0
2.26,0.014173444360494614,0.0010389898670837283,0.5144149661064148,0.009161174297332764,-0.010787293314933777,0.5049288272857666,0.7526029348373413,0.8722774386405945,-1.909950613975525,36823.0,43663.0,36523.0,39275.0,0.0,0.0,0.0,0.0,39071.515625,-701.0,-1917.0,-2414.0
2.28,0.01429401058703661,0.0014592894585803151,0.5154818296432495,0.009161174297332764,-0.010787293314933777,0.5049288272857666,0.7501451969146729,0.8832511901855469,-1.8827637434005737,36863.0,42503.0,36603.0,40303.0,0.0,0.0,0.0,0.0,39068.421875,216.0,-4657.0,-2303.0
2.3,0.014348529279232025,0.0018328020814806223,0.5184004902839661,0.009161174297332764,-0.010787293314933777,0.5049288272857666,0.7321351170539856,0.8767825365066528,-1.8601447343826294,35366.0,43310.0,37302.0,38926.0,0.0,0.0,0.0,0.0,38726.90234375,391.0,-2085.0,-2411.0
2.32,0.014345449395477772,0.002155568217858672,0.5196099281311035,0.009161174297332764,-0.010787293314933777,0.5049288272857666,0.6779231429100037,0.8688431978225708,-1.834038257598877,36205.0,42773.0,36347.0,39663.0,0.0,0.0,0.0,0.0,38747.84375,-735.0,-2430.0,-2453.0
2.34,0.014349429868161678,0.001880092779174447,0.5211187601089478,0.009161174297332764,-0.010787293314933777,0.5049288272857666,0.652590811252594,0.8657346367835999,-1.8244932889938354,36193.0,41723.0,36483.0,40541.0,0.0,0.0,0.0,0.0,38735.62109375,-2271.0,-2421.0,-2445.0
2.36,0.014230283908545971,0.002084760693833232,0.5222406983375549,0.009161174297332764,-0.010787293314933777,0.5049288272857666,0.6007260680198669,0.8196249604225159,-1.8115853071212769,36392.0,42272.0,36392.0,40196.0,0.0,0.0,0.0,0.0,38813.31640625,-1582.0,-2051.0,-2391.0
2.38,0.01405419036746025,0.0022498429752886295,0.5232700705528259,0.009161174297332764,-0.010787293314933777,0.5049288272857666,0.5980507135391235,0.756392776966095,-1.8051608800888062,35775.0,44057.0,37831.0,38785.0,0.0,0.0,0.0,0.0,39112.16015625,-3001.0,-2032.0,-2312.0
2.4,0.013544928282499313,0.002484834985807538,0.5230472087860107,0.009161174297332764,-0.010787293314933777,0.5049288272857666,0.5707870125770569,0.6778590679168701,-1.7812669277191162,36681.0,43467.0,37099.0,39649.0,0.0,0.0,0.0,0.0,39224.75,-1902.0,-1725.0,-2367.0
2.42,0.012779384851455688,0.002572121797129512,0.5237551331520081,0.009161174297332764,-0.010787293314933777,0.5049288272857666,0.5609214305877686,0.6327725052833557,-1.7495585680007935,36594.0,42924.0,37550.0,40384.0,0.0,0.0,0.0,0.0,39363.671875,-2829.0,-3794.0,-2271.0
2.44,0.013260520994663239,-0.0010944156674668193,0.5241200923919678,0.013974815607070923,-0.00346490740776062,0.5279279947280884,0.5796645879745483,0.5673667192459106,-1.7253062725067139,36706.0,42466.0,37662.0,40770.0,0.0,0.0,0.0,0.0,39401.5234375,-1740.0,-1375.0,-1817.0
2.46,0.013090763241052628,-0.002353798830881715,0.5248791575431824,0.013482093811035156,-0.0035828053951263428,0.5283492803573608,0.5403825640678406,0.5371049642562866,-1.6842559576034546,36857.0,44107.0,38107.0,38533.0,0.0,0.0,0.0,0.0,39401.3203125,-647.0,-2785.0,-2228.0
2.48,0.01262616366147995,-0.002881768625229597,0.5250396728515625,0.012905240058898926,-0.003812834620475769,0.5287283062934875,0.4398442208766937,0.4689670503139496,-1.6357179880142212,35996.0,43690.0,38660.0,39730.0,0.0,0.0,0.0,0.0,39519.515625,-541.0,-1748.0,-2169.0
2.5,0.012164070270955563,-0.0032658809795975685,0.5255012512207031,0.012905240058898926,-0.003812834620475769,0.5287283062934875,0.31599926948547363,0.42012250423431396,-1.6044411659240723,36518.0,44086.0,37952.0,39596.0,0.0,0.0,0.0,0.0,39538.16796875,-1544.0,-1343.0,-2328.0
2.52,0.011593067087233067,-0.0034017094876617193,0.5248486995697021,0.012905240058898926,-0.003812834620475769,0.5287283062934875,0.17726270854473114,0.409175843000412,-1.5777733325958252,37105.0,42995.0,37965.0,40971.0,0.0,0.0,0.0,0.0,39759.76171875,-765.0,-1487.0,-2271.0
2.54,0.011154220439493656,-0.003776571014896035,0.5251640677452087,0.012905240058898926,-0.003812834620475769,0.5287283062934875,0.07252489030361176,0.3505910038948059,-1.5614304542541504,36749.0,44459.0,37657.0,40191.0,0.0,0.0,0.0,0.0,39764.296875,-1703.0,-2081.0,-2350.0
2.56,0.010320449247956276,-0.004398860037326813,0.5258287787437439,0.010791748762130737,-0.004667758941650391,0.5301530361175537,-0.026608800515532494,0.2695467472076416,-1.5584808588027954,36924.0,44376.0,37158.0,40254.0,0.0,0.0,0.0,0.0,39678.77734375,-2494.0,-1533.0,-2321.0
2.58,0.009797679260373116,-0.004906731657683849,0.5263950228691101,0.010266304016113281,-0.004931584000587463,0.5304033756256104,-0.11239379644393921,0.20252260565757751,-1.5579026937484741,37262.0,41992.0,37202.0,41892.0,0.0,0.0,0.0,0.0,39587.32421875,-1577.0,-3934.0,-2307.0
2.6,0.009205843321979046,-0.005314837675541639,0.5270457863807678,0.00977104902267456,-0.005133986473083496,0.5310307145118713,-0.18751491606235504,0.17211119830608368,-1.5427428483963013,37101.0,44749.0,36871.0,38711.0,0.0,0.0,0.0,0.0,39358.44921875,-736.0,-3453.0,-2267.0
2.62,0.008642332628369331,-0.0056891730055212975,0.5283452868461609,0.00977104902267456,-0.005133986473083496,0.5310307145118713,-0.263824999332428,0.1328706592321396,-1.5315662622451782,35246.0,43292.0,38666.0,40036.0,0.0,0.0,0.0,0.0,39310.8125,-734.0,-3632.0,-2323.0
2.64,0.008036283776164055,-0.0059997462667524815,0.5289478898048401,0.00977104902267456,-0.005133986473083496,0.5310307145118713,-0.32594579458236694,0.07735972106456757,-1.5348188877105713,35804.0,43330.0,37952.0,40094.0,0.0,0.0,0.0,0.0,39295.96875,-1589.0,-2851.0,-2348.0
2.66,0.007320625241845846,-0.006352038588374853,0.5295959711074829,0.00977104902267456,-0.005133986473083496,0.5310307145118713,-0.4271155595779419,0.04361386224627495,-1.5266791582107544,37602.0,43740.0,36184.0,39626.0,0.0,0.0,0.0,0.0,39288.0234375,-173.0,-1664.0,-2371.0
2.68,0.006604743655771017,-0.0065251910127699375,0.5301925539970398,0.00977104902267456,-0.005133986473083496,0.5310307145118713,-0.5043833255767822,0.0008270012331195176,-1.5189646482467651,36923.0,42103.0,36929.0,41285.0,0.0,0.0,0.0,0.0,39310.7890625,-2703.0,-4237.0,-2380.0
2.7,0.005699227564036846,-0.006866856478154659,0.5301886200904846,0.00977104902267456,-0.005133986473083496,0.5310307145118713,-0.5626442432403564,-0.08436764776706696,-1.5110245943069458,37012.0,43200.0,37074.0,40430.0,0.0,0.0,0.0,0.0,39429.86328125,-406.0,-3521.0,-2406.0
2.72,0.005172218196094036,-0.007127789314836264,0.530676007270813,0.00977104902267456,-0.005133986473083496,0.5310307145118713,-0.606223464012146,-0.18711769580841064,-1.5081534385681152,36479.0,43993.0,37601.0,39723.0,0.0,0.0,0.0,0.0,39449.25,-1030.0,-1849.0,-2452.0
2.74,0.004496876150369644,-0.007479376159608364,0.5300174355506897,0.00977104902267456,-0.005133986473083496,0.5310307145118713,-0.6261469721794128,-0.25952932238578796,-1.5022656917572021,37196.0,43240.0,37326.0,40910.0,0.0,0.0,0.0,0.0,39668.03125,-1996.0,-2565.0,-2366.0
2.76,0.003854807000607252,-0.007825827226042747,0.5303546786308289,0.00977104902267456,-0.005133986473083496,0.5310307145118713,-0.6257992386817932,-0.31533902883529663,-1.4867477416992188,37651.0,44175.0,36859.0,39907.0,0.0,0.0,0.0,0.0,39648.72265625,-480.0,-2851.0,-2327.0
2.78,0.003138232044875622,-0.007856695912778378,0.5300655961036682,0.00977104902267456,-0.005133986473083496,0.5310307145118713,-0.6486181020736694,-0.37809816002845764,-1.4764821529388428,36989.0,43867.0,37649.0,40451.0,0.0,0.0,0.0,0.0,39739.3515625,-1540.0,-1823.0,-2509.0
2.8,0.0026258218567818403,-0.007006483152508736,0.5305848717689514,0.0033485591411590576,-0.0052480995655059814,0.5349651575088501,-0.639420211315155,-0.42764991521835327,-1.4568270444869995,36792.0,43122.0,37652.0,41110.0,0.0,0.0,0.0,0.0,39669.1171875,-1448.0,-4390.0,-2371.0
2.82,0.0021187900565564632,-0.006207010243088007,0.5311718583106995,0.002629786729812622,-0.004796281456947327,0.5354864597320557,-0.6522228717803955,-0.4811627268791199,-1.4633798599243164,38635.0,41845.0,35657.0,42171.0,0.0,0.0,0.0,0.0,39577.21875,836.0,-1004.0,-2399.0
2.84,0.001431673881597817,-0.006098011042922735,0.5316134691238403,0.002629786729812622,-0.004796281456947327,0.5354864597320557,-0.640986442565918,-0.47057899832725525,-1.4566537141799927,37543.0,43113.0,36929.0,40519.0,0.0,0.0,0.0,0.0,39526.0078125,-3745.0,-4.0,-2181.0
2.86,0.0011598262935876846,-0.00550833810120821,0.5322756171226501,0.0020641684532165527,-0.004303261637687683,0.5363351702690125,-0.6704206466674805,-0.503457248210907,-1.4157522916793823,37103.0,42851.0,36971.0,41139.0,0.0,0.0,0.0,0.0,39516.26953125,-1182.0,-3201.0,-1870.0
2.88,0.0006433713715523481,-0.0049410536885261536,0.5325774550437927,0.0007698535919189453,-0.0035239756107330322,0.5366662740707397,-0.6231652498245239,-0.5556977987289429,-1.3930859565734863,37285.0,42227.0,36901.0,41375.0,0.0,0.0,0.0,0.0,39447.96484375,-1376.0,-855.0,-2400.0
2.9,0.00027841090923175216,-0.004560595378279686,0.5330705046653748,0.0007698535919189453,-0.0035239756107330322,0.5366662740707397,-0.5556755661964417,-0.5784616470336914,-1.3920550346374512,35477.0,43893.0,38535.0,39727.0,0.0,0.0,0.0,0.0,39408.8671875,-1871.0,-3367.0,-2397.0
2.92,9.607480023987591e-05,-0.0038126306608319283,0.5326583385467529,0.0007187426090240479,-0.0027919411659240723,0.5379148721694946,-0.48627087473869324,-0.6160162687301636,-1.3983194828033447,35830.0,44000.0,38590.0,39932.0,0.0,0.0,0.0,0.0,39588.046875,-1324.0,-1953.0,-2350.0
2.94,-0.0006093742558732629,-0.003314612666144967,0.5330608487129211,0.0007187426090240479,-0.0027919411659240723,0.5379148721694946,-0.38283202052116394,-0.6040965914726257,-1.394442081451416,36939.0,44111.0,37415.0,39723.0,0.0,0.0,0.0,0.0,39547.32421875,-183.0,-2102.0,-2289.0
2.96,-0.0005850569577887654,-0.0026058759540319443,0.5334290862083435,-8.538365364074707e-05,-0.0015835762023925781,0.5389529466629028,-0.28775036334991455,-0.6399183869361877,-1.3603121042251587,36869.0,43029.0,37367.0,40847.0,0.0,0.0,0.0,0.0,39528.01953125,-431.0,-2687.0,-2470.0
2.98,-0.0008717656601220369,-0.0018133599078282714,0.5341161489486694,-0.00042489171028137207,-0.0008464604616165161,0.5395175814628601,-0.20761694014072418,-0.6452658176422119,-1.3669029474258423,37057.0,43819.0,37025.0,39899.0,0.0,0.0,0.0,0.0,39450.5234375,-2319.0,-3041.0,-2370.0
3.0,-0.0009779456304386258,-0.0009059086441993713,0.5337603092193604,-0.0005665719509124756,-0.00011786818504333496,0.5402390360832214,-0.1478840857744217,-0.6445671319961548,-1.3445249795913696,25932.0,55764.0,48454.0,28238.0,0.0,0.0,0.0,0.0,39597.15625,-1153.0,-24464.0,-2303.0
3.02,-0.001192307099699974,-0.0002536817919462919,0.5341678261756897,-0.0005665719509124756,-0.00011786818504333496,0.5402390360832214,-0.04123098403215408,-0.5564481019973755,-1.3577840328216553,33326.0,45438.0,40710.0,38738.0,0.0,0.0,0.0,0.0,39553.30859375,2109.0,-3725.0,-2648.0
3.04,-0.0012499142903834581,0.00028994461172260344,0.5345950126647949,-0.0005665719509124756,-0.00011786818504333496,0.5402390360832214,-0.005182717926800251,-0.8350161910057068,-1.3445985317230225,41266.0,39404.0,32742.0,43984.0,0.0,0.0,0.0,0.0,39349.5390625,-2196.0,8144.0,-2228.0
3.06,-0.0005877309013158083,0.0012928751530125737,0.5355496406555176,-0.0008033812046051025,0.0021458417177200317,0.5422909259796143,-0.11096911877393723,-2.695295810699463,-1.34380042552948,40474.0,41802.0,32982.0,41266.0,0.0,0.0,0.0,0.0,39131.9296875,-3528.0,4721.0,-1816.0
3.08,-0.0006494688568636775,0.0021273738238960505,0.5366249680519104,-0.0011790096759796143,0.003321424126625061,0.5429936647415161,-0.052798617631196976,-5.681241989135742,-1.3049737215042114,37936.0,45258.0,34558.0,37836.0,0.0,0.0,0.0,0.0,38897.52734375,-1985.0,-391.0,-2922.0
3.1,-0.00033341505331918597,0.0025465728249400854,0.5376173853874207,-0.0011790096759796143,0.003321424126625061,0.5429936647415161,0.20006078481674194,-8.240710258483887,-1.3304104804992676,35262.0,43134.0,37458.0,39550.0,0.0,0.0,0.0,0.0,38851.85546875,-1467.0,-3498.0,-2505.0
3.12,0.0004247284960001707,0.00307781295850873,0.5384716987609863,-0.0011790096759796143,0.003321424126625061,0.5429936647415161,0.36266738176345825,-10.126811027526855,-1.3388186693191528,32998.0,43524.0,38636.0,37886.0,0.0,0.0,0.0,0.0,38261.91796875,-52.0,-1586.0,-2430.0
3.14,0.002025645226240158,0.003658662084490061,0.5426921844482422,-0.0011790096759796143,0.003321424126625061,0.5429936647415161,0.3390348553657532,-11.556922912597656,-1.337971806526184,35085.0,41417.0,36585.0,40297.0,0.0,0.0,0.0,0.0,38346.25390625,408.0,-3159.0,-2484.0
3.16,0.0037802180740982294,0.004681450314819813,0.5434508919715881,0.004165619611740112,0.0063272565603256226,0.5469812750816345,0.263751745223999,-12.257071495056152,-1.3662683963775635,35015.0,43691.0,37259.0,38063.0,0.0,0.0,0.0,0.0,38507.07421875,-2342.0,-1804.0,-2355.0
3.18,0.0067670224234461784,0.005543671082705259,0.5477380156517029,0.007752716541290283,0.006886214017868042,0.5477337837219238,0.1755034625530243,-13.378700256347656,-1.3577338457107544,36630.0,41872.0,34808.0,39050.0,0.0,0.0,0.0,0.0,38090.25,-3014.0,-1799.0,-2399.0
3.2,0.010539840906858444,0.005949203856289387,0.5488694310188293,0.007752716541290283,0.006886214017868042,0.5477337837219238,0.18662796914577484,-14.37769603729248,-1.331191062927246,36998.0,43078.0,35034.0,38406.0,0.0,0.0,0.0,0.0,38379.69140625,-2004.0,-1361.0,-2313.0
3.22,0.01520533300936222,0.006286998279392719,0.5512607097625732,0.007752716541290283,0.006886214017868042,0.5477337837219238,0.23525454103946686,-15.318106651306152,-1.3079317808151245,35333.0,42455.0,36837.0,39067.0,0.0,0.0,0.0,0.0,38423.3671875,-2780.0,-3174.0,-2396.0
3.24,0.02445073425769806,0.00756625784561038,0.5522030591964722,0.020668864250183105,0.009579136967658997,0.5490487813949585,0.3159393072128296,-16.352825164794922,-1.278856635093689,36467.0,41829.0,36583.0,40305.0,0.0,0.0,0.0,0.0,38796.6796875,-671.0,-1776.0,-2272.0
3.26,0.027806082740426064,0.007864061743021011,0.552400529384613,0.020668864250183105,0.009579136967658997,0.5490487813949585,0.3494358956813812,-16.50617027282715,-1.2653452157974243,35791.0,42589.0,38021.0,39967.0,0.0,0.0,0.0,0.0,39092.8046875,-1705.0,-4148.0,-2181.0
3.28,0.03559316694736481,0.008491197600960732,0.5531108379364014,0.020668864250183105,0.009579136967658997,0.5490487813949585,0.33860087394714355,-16.63657569885254,-1.2312453985214233,36421.0,43213.0,37923.0,40299.0,0.0,0.0,0.0,0.0,39464.9453125,-1053.0,-2502.0,-2267.0
3.3,0.044142864644527435,0.00874406285583973,0.5530093312263489,0.020668864250183105,0.009579136967658997,0.5490487813949585,0.339698851108551,-16.4581298828125,-1.1900783777236938,35423.0,45117.0,39711.0,39005.0,0.0,0.0,0.0,0.0,39814.69921875,-1709.0,-1512.0,-2277.0
3.32,0.05458955466747284,0.009878856129944324,0.552660346031189,0.052649736404418945,0.012397468090057373,0.5471751689910889,0.3323059678077698,-16.01872444152832,-1.190841555595398,36943.0,43929.0,38955.0,40781.0,0.0,0.0,0.0,0.0,40152.80078125,288.0,-2749.0,-2277.0
3.34,0.06644362956285477,0.010082836262881756,0.551916778087616,0.052649736404418945,0.012397468090057373,0.5471751689910889,0.3450287878513336,-15.375316619873047,-1.1633023023605347,36029.0,44885.0,40449.0,40417.0,0.0,0.0,0.0,0.0,40445.65234375,-1089.0,-2840.0,-2242.0
3.36,0.07849478721618652,0.010410504415631294,0.5507202744483948,0.052649736404418945,0.012397468090057373,0.5471751689910889,0.33923768997192383,-14.580634117126465,-1.1375528573989868,36190.0,45158.0,40516.0,40424.0,0.0,0.0,0.0,0.0,40572.24609375,-2140.0,-3688.0,-2226.0
3.38,0.09126926213502884,0.010690431110560894,0.5497724413871765,0.052649736404418945,0.012397468090057373,0.5471751689910889,0.36567604541778564,-13.611190795898438,-1.1160249710083008,37854.0,45408.0,38934.0,40480.0,0.0,0.0,0.0,0.0,40669.7734375,-983.0,-4478.0,-2261.0
3.4,0.10560618340969086,0.011798504739999771,0.5459965467453003,0.10028991103172302,0.01459839940071106,0.5414511561393738,0.39293551445007324,-12.477450370788574,-1.0818346738815308,37037.0,45369.0,40577.0,41549.0,0.0,0.0,0.0,0.0,41133.82421875,-1836.0,-3816.0,-1817.0
3.42,0.12051595747470856,0.012137590907514095,0.544525146484375,0.12085139751434326,0.012923598289489746,0.5388599634170532,0.4087270498275757,-11.229596138000488,-1.0540703535079956,36651.0,48101.0,40897.0,38759.0,0.0,0.0,0.0,0.0,41102.15234375,-1056.0,-4541.0,-2312.0
3.44,0.13612189888954163,0.012523486278951168,0.5415526628494263,0.12085139751434326,0.012923598289489746,0.5388599634170532,0.3780418634414673,-9.903411865234375,-1.0472925901412964,37603.0,45621.0,40495.0,41517.0,0.0,0.0,0.0,0.0,41309.4609375,-2736.0,-6165.0,-2344.0
3.46,0.15232987701892853,0.012503592297434807,0.540351152420044,0.12085139751434326,0.012923598289489746,0.5388599634170532,0.4360905885696411,-8.392901420593262,-1.0494303703308105,36719.0,47627.0,40897.0,39193.0,0.0,0.0,0.0,0.0,41109.65625,-661.0,-4942.0,-2219.0
3.48,0.168867290019989,0.013406812213361263,0.5392313599586487,0.16038715839385986,0.016433730721473694,0.5362676978111267,0.4789949059486389,-6.827568054199219,-1.0298820734024048,37163.0,45771.0,41213.0,41601.0,0.0,0.0,0.0,0.0,41437.0390625,676.0,-5062.0,-2231.0
3.5,0.18597424030303955,0.014139330014586449,0.5352667570114136,0.17673859000205994,0.016913801431655884,0.5354261994361877,0.48113828897476196,-5.263760089874268,-1.032629370689392,35541.0,46581.0,42277.0,40229.0,0.0,0.0,0.0,0.0,41157.28125,-1328.0,-5966.0,-2230.0
3.52,0.2036195546388626,0.014144597575068474,0.5344493985176086,0.17673859000205994,0.016913801431655884,0.5354261994361877,0.4754444658756256,-3.699871063232422,-1.0268681049346924,36094.0,44630.0,41776.0,42068.0,0.0,0.0,0.0,0.0,41142.52734375,-2080.0,-6171.0,-2321.0
3.54,0.22107946872711182,0.014109142124652863,0.5322728753089905,0.17673859000205994,0.016913801431655884,0.5354261994361877,0.4909471869468689,-2.1678009033203125,-1.0199484825134277,36699.0,44573.0,40415.0,41529.0,0.0,0.0,0.0,0.0,40804.97265625,-1176.0,-4223.0,-2211.0
3.56,0.23861756920814514,0.01387415174394846,0.5319012403488159,0.17673859000205994,0.016913801431655884,0.5354261994361877,0.4929714798927307,-0.5980460047721863,-1.0172327756881714,35742.0,45812.0,40624.0,39674.0,0.0,0.0,0.0,0.0,40463.21484375,884.0,-4355.0,-2286.0
3.58,0.25658494234085083,0.013814348727464676,0.531019926071167,0.17673859000205994,0.016913801431655884,0.5354261994361877,0.46760886907577515,0.8493499755859375,-1.0058579444885254,36481.0,45091.0,39455.0,40061.0,0.0,0.0,0.0,0.0,40272.24609375,-915.0,-4838.0,-2230.0
3.6,0.2744448781013489,0.01366979070007801,0.5311022400856018,0.17673859000205994,0.016913801431655884,0.5354261994361877,0.44922739267349243,2.2447943687438965,-1.0030848979949951,35206.0,45986.0,40104.0,38316.0,0.0,0.0,0.0,0.0,39903.578125,610.0,-4242.0,-2198.0
3.62,0.2901670038700104,0.014854148030281067,0.5325616598129272,0.2771497964859009,0.017933860421180725,0.5369135737419128,0.4263777434825897,3.5775644779205322,-0.989779531955719,35834.0,44940.0,38436.0,38578.0,0.0,0.0,0.0,0.0,39447.921875,-575.0,-5586.0,-2276.0
3.64,0.3063547909259796,0.01539557334035635,0.5334389805793762,0.2931731045246124,0.01809270679950714,0.5380878448486328,0.39662957191467285,4.834631443023682,-1.0249817371368408,34534.0,43820.0,39466.0,38876.0,0.0,0.0,0.0,0.0,39174.84765625,-326.0,-5429.0,-1959.0
3.661,0.33044832944869995,0.015877721831202507,0.539609432220459,0.3087138831615448,0.018073558807373047,0.5393676161766052,0.4195144474506378,6.571441650390625,-0.9801535606384277,33794.0,42982.0,37942.0,37554.0,0.0,0.0,0.0,0.0,38068.48046875,399.0,-3987.0,-2239.0
3.68,0.3460533916950226,0.016256948933005333,0.5412194728851318,0.3238433301448822,0.01820017397403717,0.540977418422699,0.41946685314178467,7.522348880767822,-0.9258600473403931,33748.0,43724.0,37570.0,36654.0,0.0,0.0,0.0,0.0,37924.6171875,-601.0,-4854.0,-2247.0
3.7,0.36118730902671814,0.016385937109589577,0.5429821014404297,0.33830299973487854,0.01811830699443817,0.5425392389297485,0.44594332575798035,8.433055877685547,-0.9382625222206116,33202.0,43616.0,36934.0,35324.0,0.0,0.0,0.0,0.0,37269.2890625,1083.0,-4134.0,-2207.0
3.72,0.37613338232040405,0.0164681114256382,0.5481398105621338,0.33830299973487854,0.01811830699443817,0.5425392389297485,0.48220038414001465,9.223589897155762,-0.8619254231452942,33043.0,41099.0,37425.0,37817.0,0.0,0.0,0.0,0.0,37346.66796875,-1432.0,-2922.0,-2104.0
3.74,0.38103264570236206,0.016175931319594383,0.5489312410354614,0.37173834443092346,0.015332356095314026,0.5460461378097534,0.5030578374862671,9.596349716186523,-0.8700957298278809,31956.0,41616.0,37900.0,36688.0,0.0,0.0,0.0,0.0,37040.3828125,-953.0,-4964.0,-2057.0
3.76,0.3950357735157013,0.01602497510612011,0.55307936668396,0.37173834443092346,0.015332356095314026,0.5460461378097534,0.5305924415588379,10.186299324035645,-0.8371301889419556,33405.0,40173.0,36957.0,38589.0,0.0,0.0,0.0,0.0,37281.19140625,-1332.0,-5488.0,-2021.0
3.78,0.41479548811912537,0.01573302410542965,0.5555248856544495,0.37173834443092346,0.015332356095314026,0.5460461378097534,0.5350615978240967,10.812775611877441,-0.7878365516662598,34000.0,42652.0,37108.0,36484.0,0.0,0.0,0.0,0.0,37561.76953125,-592.0,-3200.0,-1986.0
3.8,0.4207964241504669,0.015894319862127304,0.5579846501350403,0.37173834443092346,0.015332356095314026,0.5460461378097534,0.5381243228912354,10.968815803527832,-0.7693380117416382,34520.0,42544.0,36536.0,36512.0,0.0,0.0,0.0,0.0,37528.1328125,407.0,-2421.0,-1899.0
3.82,0.43248891830444336,0.015620104037225246,0.5598128437995911,0.4203580617904663,0.017066195607185364,0.5492438077926636,0.5781423449516296,11.230439186096191,-0.7241867184638977,34048.0,42822.0,38088.0,36878.0,0.0,0.0,0.0,0.0,37959.26953125,-764.0,-4397.0,-1881.0
3.84,0.43936842679977417,0.015797005966305733,0.5607097148895264,0.4203580617904663,0.017066195607185364,0.5492438077926636,0.5573320388793945,11.344350814819336,-0.6193082928657532,35202.0,41620.0,37356.0,38382.0,0.0,0.0,0.0,0.0,38140.6640625,-146.0,-3755.0,-1847.0
3.86,0.4496285617351532,0.015618042089045048,0.561403214931488,0.4203580617904663,0.017066195607185364,0.5492438077926636,0.5586745142936707,11.3632173538208,-0.6121233701705933,37340.0,41536.0,35972.0,39152.0,0.0,0.0,0.0,0.0,38500.046875,-363.0,-2617.0,-1801.0
3.88,0.458909273147583,0.015276875346899033,0.5617711544036865,0.4203580617904663,0.017066195607185364,0.5492438077926636,0.5463902950286865,11.303094863891602,-0.5951645374298096,36225.0,41453.0,37747.0,39687.0,0.0,0.0,0.0,0.0,38778.84375,-759.0,-3384.0,-1806.0
3.9,0.46783772110939026,0.014854546636343002,0.562048614025116,0.4203580617904663,0.017066195607185364,0.5492438077926636,0.5446577072143555,11.096850395202637,-0.5224732160568237,36144.0,43330.0,38378.0,38472.0,0.0,0.0,0.0,0.0,39081.96875,-1873.0,-3538.0,-1788.0
3.92,0.4761401116847992,0.014597025699913502,0.5618897080421448,0.4203580617904663,0.017066195607185364,0.5492438077926636,0.5291460156440735,10.855504035949707,-0.4542142152786255,36944.0,42850.0,38866.0,39816.0,0.0,0.0,0.0,0.0,39619.609375,-1555.0,-3310.0,-1675.0
3.94,0.483407199382782,0.01419456209987402,0.5598741173744202,0.4203580617904663,0.017066195607185364,0.5492438077926636,0.5245072841644287,10.59156322479248,-0.4277132749557495,36395.0,43519.0,39805.0,39613.0,0.0,0.0,0.0,0.0,39833.50390625,-1041.0,-3790.0,-1759.0
3.96,0.48968106508255005,0.014123761095106602,0.5591721534729004,0.46396467089653015,0.014942258596420288,0.5405932068824768,0.5013747811317444,10.29708194732666,-0.3663554787635803,37538.0,45380.0,40270.0,39316.0,0.0,0.0,0.0,0.0,40626.02734375,-2222.0,-5078.0,-1728.0
3.98,0.4863787591457367,0.013934205286204815,0.5546990633010864,0.46396467089653015,0.014942258596420288,0.5405932068824768,0.45558539032936096,10.100200653076172,-0.3265535235404968,38341.0,43681.0,39723.0,41247.0,0.0,0.0,0.0,0.0,40748.51171875,-154.0,-2230.0,-1391.0
4.0,0.48522457480430603,0.013743700459599495,0.5527876615524292,0.4688030779361725,0.014095768332481384,0.5378223657608032,0.41667112708091736,9.807852745056152,-0.26897358894348145,38667.0,43959.0,40383.0,41783.0,0.0,0.0,0.0,0.0,41198.53515625,-273.0,-1816.0,-1681.0
4.02,0.48886093497276306,0.013217945583164692,0.5497612953186035,0.4688030779361725,0.014095768332481384,0.5378223657608032,0.37648579478263855,9.283087730407715,-0.3013153374195099,38030.0,45318.0,40976.0,40332.0,0.0,0.0,0.0,0.0,41164.30859375,-109.0,97.0,-1719.0
4.04,0.49198535084724426,0.012872977182269096,0.5483535528182983,0.4729158282279968,0.013255298137664795,0.5326474905014038,0.2890002429485321,8.61532974243164,-0.24815556406974792,39692.0,44468.0,39078.0,41370.0,0.0,0.0,0.0,0.0,41152.62890625,420.0,-3597.0,-1739.0
4.06,0.488953173160553,0.012516758404672146,0.5426594018936157,0.4729158282279968,0.013255298137664795,0.5326474905014038,0.2600734829902649,8.002488136291504,-0.22232285141944885,38235.0,44723.0,41795.0,42067.0,0.0,0.0,0.0,0.0,41705.3046875,548.0,-3606.0,-1078.0
4.08,0.4868364930152893,0.01237491611391306,0.540678858757019,0.47428566217422485,0.012830942869186401,0.5305266380310059,0.20211049914360046,7.257152557373047,-0.16013100743293762,38825.0,44263.0,40625.0,42519.0,0.0,0.0,0.0,0.0,41558.328125,-512.0,-2781.0,-1722.0
4.1,0.4875306785106659,0.011797456070780754,0.5392979979515076,0.47428566217422485,0.012830942869186401,0.5305266380310059,0.1264135092496872,6.464020252227783,-0.1820962280035019,39913.0,42873.0,40601.0,44617.0,0.0,0.0,0.0,0.0,42001.85546875,-804.0,-1516.0,-1776.0
4.12,0.4846126139163971,0.011484979651868343,0.5339218378067017,0.4735631048679352,0.012292549014091492,0.5280106067657471,0.09034321457147598,5.723521709442139,-0.13802577555179596,38863.0,45643.0,41031.0,41359.0,0.0,0.0,0.0,0.0,41724.76953125,-2362.0,-2322.0,-1843.0
4.14,0.48439040780067444,0.010992050170898438,0.5326869487762451,0.4735631048679352,0.012292549014091492,0.5280106067657471,0.07609322667121887,4.855354309082031,-0.12345653027296066,38190.0,45558.0,42092.0,41880.0,0.0,0.0,0.0,0.0,41930.125,-1434.0,-1370.0,-1854.0
4.16,0.48398831486701965,0.010370294563472271,0.5285710096359253,0.4703478217124939,0.011053293943405151,0.5263286828994751,0.06745749711990356,4.025672912597656,-0.11946319043636322,37856.0,44424.0,41674.0,42330.0,0.0,0.0,0.0,0.0,41571.4296875,414.0,-1758.0,-1820.0
4.18,0.47998103499412537,0.010223602876067162,0.5276217460632324,0.4686644673347473,0.010798618197441101,0.526436984539032,0.05039632320404053,3.251760721206665,-0.13656505942344666,38522.0,45022.0,40088.0,40824.0,0.0,0.0,0.0,0.0,41114.17578125,-1707.0,-1855.0,-1805.0
4.2,0.47640472650527954,0.009839346632361412,0.5273223519325256,0.4671238362789154,0.010577023029327393,0.5271104574203491,-0.005668489262461662,2.475050926208496,-0.14575646817684174,38592.0,43260.0,39270.0,41698.0,0.0,0.0,0.0,0.0,40705.4296875,-394.0,-2433.0,-1716.0
4.22,0.47343385219573975,0.00953612383455038,0.5271900296211243,0.4671238362789154,0.010577023029327393,0.5271104574203491,-0.022844087332487106,1.71964693069458,-0.18294110894203186,37783.0,44345.0,39999.0,40437.0,0.0,0.0,0.0,0.0,40641.99609375,-878.0,-1662.0,-1785.0
4.24,0.4703110456466675,0.00927657075226307,0.5258494019508362,0.4646706283092499,0.010365009307861328,0.528602123260498,-0.03340809419751167,0.965671718120575,-0.11196844279766083,37771.0,43967.0,39141.0,40385.0,0.0,0.0,0.0,0.0,40316.73828125,211.0,-4136.0,-1820.0
4.26,0.4682878851890564,0.009020818397402763,0.5261433124542236,0.46193036437034607,0.009979844093322754,0.5304355621337891,-0.06659412384033203,0.1867046356201172,-0.0992627888917923,36891.0,42885.0,39565.0,40635.0,0.0,0.0,0.0,0.0,39994.91015625,-2649.0,-330.0,-1853.0
4.28,0.4655562937259674,0.008862985298037529,0.5265852212905884,0.4603159427642822,0.009778082370758057,0.5320608019828796,-0.10021279007196426,-0.4659280478954315,-0.125780388712883,36879.0,42969.0,39037.0,40251.0,0.0,0.0,0.0,0.0,39784.87890625,-476.0,-2202.0,-1887.0
4.3,0.46281489729881287,0.008615543134510517,0.5274710059165955,0.45889756083488464,0.009667947888374329,0.5340054035186768,-0.12443923950195312,-1.087706446647644,-0.1360938549041748,38719.0,42263.0,36785.0,40509.0,0.0,0.0,0.0,0.0,39569.46484375,-1171.0,-3936.0,-1679.0
4.32,0.4596508741378784,0.008345827460289001,0.5296385884284973,0.45889756083488464,0.009667947888374329,0.5340054035186768,-0.1845615655183792,-1.9466170072555542,-0.16857700049877167,38757.0,41201.0,36061.0,41233.0,0.0,0.0,0.0,0.0,39313.08203125,-1070.0,-2081.0,-1840.0
4.34,0.45850688219070435,0.008194808848202229,0.5301659107208252,0.45889756083488464,0.009667947888374329,0.5340054035186768,-0.16815067827701569,-2.1880640983581543,-0.18926076591014862,36636.0,41320.0,38252.0,40604.0,0.0,0.0,0.0,0.0,39203.64453125,-573.0,-2898.0,-1710.0
4.36,0.4568383991718292,0.007864284329116344,0.5313091278076172,0.45889756083488464,0.009667947888374329,0.5340054035186768,-0.10177674144506454,-2.7214033603668213,-0.19854432344436646,35880.0,41034.0,38538.0,40456.0,0.0,0.0,0.0,0.0,38977.10546875,-311.0,-461.0,-1755.0
