time,x_kalman,y_kalman,z_kalman,x_lh,y_lh,z_lh,roll,pitch,yaw,F,R,Z,motor.m1,motor.m2,motor.m3,motor.m4,rpm.m1,rpm.m2,rpm.m3,rpm.m4,controller.cmd_thrust,controller.cmd_roll,controller.cmd_pitch,controller.cmd_yaw
0.0,-0.00036755180917680264,-0.002048070076853037,0.0059906006790697575,0.0,0.0,0.0,-1.7486803531646729,-0.48540109395980835,0.02757013961672783,0.0,-1.0,0.005965173244476318,54155.0,53775.0,56221.0,56593.0,0,0,0,0,55186.8828125,3982.0,1970.0,-77.0
0.02,-0.00038181483978405595,-0.0022590092848986387,0.005939490627497435,0.0,0.0,0.0,-1.7454959154129028,-0.48507946729660034,0.028400588780641556,0.0,-1.0,0.005916719324886799,54180.0,54896.0,57106.0,56210.0,0,0,0,0,55598.00390625,1342.0,1439.0,-67.0
0.04,-0.003168490482494235,-0.00250979489646852,0.005902016535401344,0.0,0.0,0.0,-1.7407264709472656,-0.39845922589302063,0.020934751257300377,0.0,-1.0,0.005893557798117399,55732.0,62450.0,55192.0,50586.0,0,0,0,0,55990.2734375,-5500.0,-3751.0,-1387.0
0.06,0.0008251831750385463,0.0005443255067802966,0.005511844996362925,0.0,0.0,0.0,-1.678100347518921,-0.5012569427490234,-0.02180321142077446,0.0,-1.0,0.005645912140607834,53823.0,59809.0,55691.0,53821.0,0,0,0,0,55786.4453125,-2717.0,-2069.0,-1797.0
0.08,-0.009821340441703796,0.017961256206035614,0.005976555403321981,0.0,0.0,0.0,-1.5055935382843018,0.07502547651529312,-0.13214854896068573,0.0,-1.0,0.006943183951079845,44367.0,55067.0,60747.0,54115.0,0,0,0,0,53574.9453125,7560.0,-11211.0,-1802.0
0.1,-0.010084987618029118,0.0336947999894619,0.009351913817226887,0.0,0.0,0.0,-1.301891565322876,0.5501017570495605,-0.23515398800373077,0.0,-1.0,0.011716816574335098,46188.0,46856.0,53218.0,53762.0,0,0,0,0,50006.09375,3814.0,-2402.0,-1767.0
0.12,0.011206982657313347,0.05134088918566704,0.014223694801330566,0.0,0.0,0.0,-1.5613614320755005,0.47564437985420227,-0.3050220310688019,0.0,-1.0,0.018083415925502777,48826.0,49384.0,41780.0,44910.0,0,0,0,0,46225.515625,-8595.0,-2821.0,-1791.0
0.14,0.0028782642912119627,0.03541536256670952,0.02545759454369545,0.0,0.0,0.0,-0.5967345833778381,0.7658865451812744,-0.41638922691345215,0.0,-1.0,0.019095439463853836,42003.0,50529.0,42433.0,40063.0,0,0,0,0,43757.9921875,-4731.0,-4711.0,-2820.0
0.16,-0.02009827271103859,0.03381028771400452,0.024540148675441742,0.0,0.0,0.0,0.8319037556648254,1.6931195259094238,-0.5681764483451843,0.0,-1.0,0.030802441760897636,34333.0,44295.0,43897.0,38739.0,0,0,0,0,40316.8046875,2873.0,-7200.0,-2569.0
0.18,-0.024427257478237152,0.02932792715728283,0.03770803287625313,0.0,0.0,0.0,2.102046489715576,2.1669623851776123,-0.7143408060073853,0.0,-1.0,0.04495110362768173,35066.0,38772.0,37066.0,39376.0,0,0,0,0,37570.37109375,-78.0,-1081.0,-3030.0
0.2,-0.02686283364892006,0.030756186693906784,0.05252201482653618,0.0,0.0,0.0,2.5273163318634033,2.230666399002075,-0.8493832349777222,0.0,-1.0,0.053804680705070496,36461.0,36799.0,33503.0,40129.0,0,0,0,0,36723.9765625,736.0,3804.0,-2933.0
0.22,-0.01416843943297863,0.026212818920612335,0.062035270035266876,0.0,0.0,0.0,2.8167502880096436,1.2924703359603882,-1.0073888301849365,0.0,-1.0,0.06996635347604752,35748.0,37012.0,31598.0,36654.0,0,0,0,0,35253.76171875,-2863.0,1824.0,-2539.0
0.24,-0.018891826272010803,0.022704295814037323,0.07782216370105743,0.0,0.0,0.0,3.0585684776306152,0.6112696528434753,-1.1109431982040405,0.0,-1.0,0.08591731637716293,33409.0,38801.0,31971.0,32915.0,0,0,0,0,34274.14453125,-3055.0,-1790.0,-2458.0
0.26,-0.02042965777218342,0.02277049794793129,0.09710591286420822,0.0,0.0,0.0,3.2331857681274414,-0.07064281404018402,-1.197120189666748,0.0,-1.0,0.10538646578788757,30491.0,36261.0,31915.0,33469.0,0,0,0,0,33034.31640625,-650.0,-2921.0,-2246.0
0.28,-0.01619534380733967,0.026784254238009453,0.11408577859401703,0.0,0.0,0.0,3.171555995941162,-0.683568000793457,-1.29290771484375,0.0,-1.0,0.12229526042938232,29204.0,33308.0,32638.0,34942.0,0,0,0,0,32523.197265625,1960.0,-3246.0,-1991.0
0.3,-0.014495112001895905,0.026292312890291214,0.13046559691429138,0.0,0.0,0.0,3.0196266174316406,-1.0351476669311523,-1.3763595819473267,0.0,-1.0,0.13849402964115143,29273.0,34023.0,32285.0,33667.0,0,0,0,0,32312.630859375,1326.0,-2037.0,-1933.0
0.32,-0.015142282471060753,0.025958674028515816,0.15075962245464325,0.0,0.0,0.0,2.7038230895996094,-1.2000941038131714,-1.432051181793213,0.0,-1.0,0.15876133739948273,28642.0,33606.0,31432.0,32188.0,0,0,0,0,31467.1015625,204.0,-3888.0,-1824.0
0.34,-0.017330260947346687,0.02812672033905983,0.16749989986419678,0.0,0.0,0.0,2.289940118789673,-1.2280765771865845,-1.4616461992263794,0.0,-1.0,0.17518869042396545,29437.0,33159.0,30777.0,32779.0,0,0,0,0,31538.78515625,967.0,-1307.0,-1648.0
0.36,-0.017803486436605453,0.027707168832421303,0.18271008133888245,0.0,0.0,0.0,2.033291816711426,-1.2681576013565063,-1.4957029819488525,0.0,-1.0,0.1900443136692047,29201.0,33421.0,31411.0,32883.0,0,0,0,0,31729.318359375,-810.0,-3992.0,-1488.0
0.38,-0.017647573724389076,0.025966662913560867,0.19904419779777527,0.0,0.0,0.0,1.8572845458984375,-1.3493326902389526,-1.5292482376098633,0.0,-1.0,0.20609281957149506,30272.0,33546.0,30416.0,32578.0,0,0,0,0,31703.912109375,-443.0,66.0,-1300.0
0.4,-0.016184775158762932,0.02357010915875435,0.21295906603336334,0.0,0.0,0.0,1.7628904581069946,-1.4644944667816162,-1.5570569038391113,0.0,-1.0,0.21963408589363098,30526.0,34708.0,31220.0,31846.0,0,0,0,0,32075.267578125,-432.0,-1692.0,-1047.0
0.42,-0.016430623829364777,0.021238116547465324,0.2290913462638855,0.0,0.0,0.0,1.6860666275024414,-1.5432368516921997,-1.5514689683914185,0.0,-1.0,0.23553775250911713,30482.0,34212.0,30944.0,32158.0,0,0,0,0,31949.791015625,-402.0,-2007.0,-923.0
0.44,-0.01563495770096779,0.019819986075162888,0.2417648881673813,0.0,0.0,0.0,1.5515817403793335,-1.5900733470916748,-1.5448079109191895,0.0,-1.0,0.2477908879518509,29564.0,33946.0,33006.0,33144.0,0,0,0,0,32415.3203125,59.0,-1950.0,-868.0
0.46,-0.015158889815211296,0.01692310720682144,0.258600652217865,0.0,0.0,0.0,1.3678497076034546,-1.5681507587432861,-1.5293552875518799,0.0,-1.0,0.26450681686401367,29077.0,32837.0,32435.0,33455.0,0,0,0,0,31951.95703125,1298.0,-1751.0,-1032.0
0.48,-0.014369257725775242,0.014731068164110184,0.2702134847640991,0.0,0.0,0.0,1.1043263673782349,-1.4829264879226685,-1.5199620723724365,0.0,-1.0,0.2757331132888794,29750.0,34890.0,32756.0,32244.0,0,0,0,0,32410.15625,-430.0,-3246.0,-954.0
0.5,-0.013917275704443455,0.011964983306825161,0.28105273842811584,0.0,0.0,0.0,0.7954734563827515,-1.3749585151672363,-1.5048997402191162,0.0,-1.0,0.28620198369026184,30666.0,34628.0,33030.0,33148.0,0,0,0,0,32868.24609375,349.0,-2164.0,-740.0
0.52,-0.01312420703470707,0.009618028998374939,0.29115206003189087,0.0,0.0,0.0,0.4933662414550781,-1.2163554430007935,-1.4841927289962769,0.0,-1.0,0.2944715619087219,31586.0,34762.0,33666.0,34538.0,0,0,0,0,33638.0,507.0,-1606.0,-741.0
0.54,-0.012655562721192837,0.0070759910158813,0.29898592829704285,0.0,0.0,0.0,0.21543572843074799,-1.043949842453003,-1.4564950466156006,0.0,-1.0,0.3033308684825897,31779.0,36821.0,34421.0,33595.0,0,0,0,0,34154.453125,1037.0,-930.0,-715.0
0.56,-0.011653894558548927,0.004403628408908844,0.3074866831302643,0.0,0.0,0.0,-0.07904808223247528,-0.9240551590919495,-1.4295947551727295,0.0,-1.0,0.31149640679359436,31931.0,37341.0,35225.0,34047.0,0,0,0,0,34636.67578125,115.0,-1734.0,-847.0
0.58,-0.011097641661763191,0.0019553545862436295,0.31382325291633606,0.0,0.0,0.0,-0.3727077841758728,-0.7713059782981873,-1.4050863981246948,0.0,-1.0,0.3174608051776886,32762.0,38066.0,35732.0,34680.0,0,0,0,0,35310.8046875,-597.0,-2005.0,-824.0
0.6,-0.010550243780016899,-0.0011996531393378973,0.3209587335586548,0.0,0.0,0.0,-0.6098850965499878,-0.5985219478607178,-1.3824682235717773,0.0,-1.0,0.32434287667274475,33113.0,38523.0,36085.0,34967.0,0,0,0,0,35672.2578125,1397.0,-2167.0,-860.0
0.62,-0.009188253432512283,-0.003952396102249622,0.32759812474250793,0.0,0.0,0.0,-0.8526715636253357,-0.46427014470100403,-1.3622807264328003,0.0,-1.0,0.3307647407054901,34123.0,38327.0,35583.0,35783.0,0,0,0,0,35954.015625,756.0,-1228.0,-1114.0
0.64,-0.008493407629430294,-0.006751770619302988,0.3357376456260681,0.0,0.0,0.0,-1.1261321306228638,-0.3057038486003876,-1.3542201519012451,0.0,-1.0,0.33881351351737976,33312.0,38878.0,35990.0,35164.0,0,0,0,0,35836.171875,-223.0,-3238.0,-1178.0
0.66,-0.006983649451285601,-0.009577502496540546,0.3417987823486328,0.0,0.0,0.0,-1.3716503381729126,-0.1914457529783249,-1.3556073904037476,0.0,-1.0,0.34471842646598816,34028.0,38796.0,35736.0,35424.0,0,0,0,0,35996.71484375,717.0,-2927.0,-909.0
0.68,-0.005884804297238588,-0.012413330376148224,0.34755951166152954,0.0,0.0,0.0,-1.5725351572036743,-0.02446269616484642,-1.3437250852584839,0.0,-1.0,0.35034191608428955,33249.0,38035.0,36835.0,36377.0,0,0,0,0,36124.81640625,-774.0,-3422.0,-924.0
0.7,-0.004531166050583124,-0.014629662036895752,0.3560889661312103,0.0,0.0,0.0,-1.7750217914581299,0.1330312043428421,-1.327283263206482,0.0,-1.0,0.3588910400867462,33161.0,37557.0,35855.0,36279.0,0,0,0,0,35713.171875,157.0,-862.0,-1119.0
0.72,-0.003193527227267623,-0.01740649715065956,0.36163094639778137,0.0,0.0,0.0,-1.963770866394043,0.308613657951355,-1.3184921741485596,0.0,-1.0,0.3643192946910858,33521.0,39015.0,35675.0,34969.0,0,0,0,0,35795.05859375,-479.0,-2761.0,-1163.0
0.74,-0.0018716588383540511,-0.020169377326965332,0.36907076835632324,0.0,0.0,0.0,-2.1449761390686035,0.4453670084476471,-1.3158457279205322,0.0,-1.0,0.37175434827804565,33836.0,36966.0,34860.0,36346.0,0,0,0,0,35502.078125,499.0,-2828.0,-1100.0
0.76,-0.0006908991490490735,-0.022645557299256325,0.3743792176246643,0.0,0.0,0.0,-2.2827422618865967,0.5665906667709351,-1.3155628442764282,0.0,-1.0,0.37695062160491943,32628.0,40004.0,36116.0,33568.0,0,0,0,0,35579.96484375,555.0,-1605.0,-1188.0
0.78,0.0001573619374539703,-0.02473912574350834,0.3788973391056061,0.0,0.0,0.0,-2.4211857318878174,0.6714092493057251,-1.3115814924240112,0.0,-1.0,0.38132768869400024,32673.0,38613.0,36691.0,35195.0,0,0,0,0,35793.63671875,-126.0,-2436.0,-1011.0
0.8,0.002077191136777401,-0.02726532146334648,0.38369667530059814,0.0,0.0,0.0,-2.5275228023529053,0.7539240717887878,-1.3079410791397095,0.0,-1.0,0.38601285219192505,32097.0,38203.0,37305.0,35959.0,0,0,0,0,35891.06640625,1536.0,-3161.0,-1239.0
0.82,0.0032344290520995855,-0.029641276225447655,0.3882741928100586,0.0,0.0,0.0,-2.6289520263671875,0.8562155365943909,-1.3062950372695923,0.0,-1.0,0.3904768228530884,33750.0,37454.0,35886.0,37026.0,0,0,0,0,36029.15234375,-959.0,-1753.0,-1203.0
0.84,0.004375678952783346,-0.031580545008182526,0.38810884952545166,0.0,0.0,0.0,-2.738814353942871,0.9784191846847534,-1.3048675060272217,0.0,-1.0,0.38996997475624084,34859.0,39871.0,36615.0,36547.0,0,0,0,0,36973.4765625,-500.0,-2063.0,-1212.0
0.86,0.006011619232594967,-0.033920079469680786,0.3917849659919739,0.0,0.0,0.0,-2.780555248260498,1.0527762174606323,-1.305528163909912,0.0,-1.0,0.3935624361038208,34566.0,41212.0,37144.0,35302.0,0,0,0,0,37056.40625,-138.0,-1727.0,-1166.0
0.88,0.007784189656376839,-0.03567260503768921,0.3953123986721039,0.0,0.0,0.0,-2.7850611209869385,1.1122705936431885,-1.301026701927185,0.0,-1.0,0.39703741669654846,34558.0,40072.0,37092.0,36602.0,0,0,0,0,37081.0078125,59.0,-3127.0,-1276.0
0.9,0.009102377109229565,-0.03685159608721733,0.3973996043205261,0.0,0.0,0.0,-2.8026537895202637,1.1818724870681763,-1.3003722429275513,0.0,-1.0,0.3990175127983093,33864.0,40618.0,38218.0,36560.0,0,0,0,0,37315.4921875,531.0,-2067.0,-1319.0
0.92,0.010344834998250008,-0.03907853364944458,0.40062281489372253,0.0,0.0,0.0,-2.8231959342956543,1.2591489553451538,-1.3068721294403076,0.0,-1.0,0.40221986174583435,34279.0,40897.0,37709.0,36183.0,0,0,0,0,37267.6171875,-716.0,-2672.0,-1354.0
0.94,0.012132348492741585,-0.04067216441035271,0.40381595492362976,0.0,0.0,0.0,-2.8379018306732178,1.3030134439468384,-1.3161914348602295,0.0,-1.0,0.40541285276412964,34990.0,40184.0,37034.0,36488.0,0,0,0,0,37174.5625,-142.0,-2120.0,-1022.0
0.96,0.013949408195912838,-0.04148855060338974,0.4058919847011566,0.0,0.0,0.0,-2.8008015155792236,1.3862252235412598,-1.3105857372283936,0.0,-1.0,0.407441645860672,35208.0,40834.0,36754.0,36220.0,0,0,0,0,37254.8671875,986.0,-1575.0,-1217.0
0.98,0.014618024230003357,-0.04278227686882019,0.40899917483329773,0.0,0.0,0.0,-2.7469217777252197,1.4787803888320923,-1.2996935844421387,0.0,-1.0,0.410562127828598,34946.0,39774.0,36860.0,36984.0,0,0,0,0,37141.90234375,-165.0,-1308.0,-1278.0
1.0,0.0156015045940876,-0.04369926452636719,0.4135853946208954,0.0,0.0,0.0,-2.7311880588531494,1.5278635025024414,-1.2980293035507202,0.0,-1.0,0.4152340292930603,34116.0,38558.0,36762.0,37592.0,0,0,0,0,36757.59765625,100.0,-2798.0,-1419.0
1.02,0.017454972490668297,-0.04499435052275658,0.416888564825058,0.0,0.0,0.0,-2.6714072227478027,1.5420410633087158,-1.3112354278564453,0.0,-1.0,0.418544739484787,34147.0,39917.0,36535.0,35945.0,0,0,0,0,36636.69921875,-927.0,-3217.0,-1363.0
1.04,0.01789197139441967,-0.04488522931933403,0.4205280542373657,0.0,0.0,0.0,-2.6044368743896484,1.5754820108413696,-1.318658471107483,0.0,-1.0,0.42220649123191833,33940.0,39066.0,36456.0,36398.0,0,0,0,0,36465.8671875,-679.0,-2774.0,-1285.0
1.06,0.0188866276293993,-0.04571377858519554,0.4238782525062561,0.0,0.0,0.0,-2.4919674396514893,1.599705457687378,-1.3226439952850342,0.0,-1.0,0.4255436360836029,33809.0,39081.0,36293.0,36393.0,0,0,0,0,36394.34765625,-739.0,-1959.0,-1452.0
1.08,0.020623015239834785,-0.04645214602351189,0.42719921469688416,0.0,0.0,0.0,-2.3995015621185303,1.5850083827972412,-1.327696681022644,0.0,-1.0,0.4288433790206909,34031.0,39583.0,35885.0,35837.0,0,0,0,0,36334.25,1549.0,-930.0,-1451.0
1.1,0.021919654682278633,-0.04667529836297035,0.428946852684021,0.0,0.0,0.0,-2.3056178092956543,1.5557384490966797,-1.3402822017669678,0.0,-1.0,0.4304731786251068,34286.0,40464.0,36246.0,35448.0,0,0,0,0,36611.97265625,-510.0,-3324.0,-1362.0
1.12,0.022487644106149673,-0.04627043008804321,0.43198004364967346,0.0,0.0,0.0,-2.2246062755584717,1.531665563583374,-1.3462728261947632,0.0,-1.0,0.4336136281490326,33901.0,39539.0,36717.0,36303.0,0,0,0,0,36615.0078125,-1317.0,-2275.0,-1303.0
1.14,0.023789823055267334,-0.04666075110435486,0.43508288264274597,0.0,0.0,0.0,-2.088062286376953,1.5408965349197388,-1.3458222150802612,0.0,-1.0,0.436536967754364,33599.0,40459.0,36805.0,35489.0,0,0,0,0,36588.65625,-337.0,-2437.0,-1483.0
1.16,0.024428702890872955,-0.04642026126384735,0.43844708800315857,0.0,0.0,0.0,-1.9470633268356323,1.5511906147003174,-1.3538340330123901,0.0,-1.0,0.4398920238018036,34587.0,38835.0,35663.0,36931.0,0,0,0,0,36504.765625,820.0,-1942.0,-1482.0
1.18,0.025000236928462982,-0.046078115701675415,0.4413180351257324,0.0,0.0,0.0,-1.8336281776428223,1.5520728826522827,-1.3623842000961304,0.0,-1.0,0.442729115486145,34352.0,39104.0,35716.0,36772.0,0,0,0,0,36486.6953125,-493.0,-1903.0,-1455.0
1.2,0.02498953603208065,-0.045013248920440674,0.4441237151622772,0.0,0.0,0.0,-1.7449268102645874,1.523896336555481,-1.3729746341705322,0.0,-1.0,0.4454992711544037,34616.0,39832.0,35548.0,36028.0,0,0,0,0,36506.7890625,-1489.0,-1281.0,-1447.0
1.22,0.026643121615052223,-0.04410819336771965,0.4466157555580139,0.0,0.0,0.0,-1.5999256372451782,1.4598612785339355,-1.3912149667739868,0.0,-1.0,0.4479321241378784,34512.0,40020.0,35738.0,36010.0,0,0,0,0,36570.75,-1076.0,-1959.0,-1451.0
1.24,0.026443134993314743,-0.04281334951519966,0.4492250978946686,0.0,0.0,0.0,-1.4385381937026978,1.4309462308883667,-1.4042212963104248,0.0,-1.0,0.4504932165145874,33932.0,39460.0,36362.0,36678.0,0,0,0,0,36608.6328125,354.0,-1970.0,-1445.0
1.26,0.02634000964462757,-0.04083388298749924,0.4517405927181244,0.0,0.0,0.0,-1.3153884410858154,1.3988759517669678,-1.4101808071136475,0.0,-1.0,0.4517405927181244,34488.0,38924.0,35714.0,37426.0,0,0,0,0,36638.984375,-1726.0,-2639.0,-1534.0
1.28,0.02598213031888008,-0.03934093192219734,0.4532236158847809,0.0,0.0,0.0,-1.2085356712341309,1.3476958274841309,-1.4299094676971436,0.0,-1.0,0.4532236158847809,35272.0,40328.0,35390.0,36278.0,0,0,0,0,36817.35546875,-1553.0,-3693.0,-1502.0
1.3,0.025930846109986305,-0.03745206817984581,0.45549333095550537,0.0,0.0,0.0,-1.035190224647522,1.2776402235031128,-1.4490841627120972,0.0,-1.0,0.4554932415485382,34517.0,39335.0,36331.0,37049.0,0,0,0,0,36808.03515625,-114.0,-2800.0,-1381.0
1.32,0.027855882421135902,-0.03670988231897354,0.4591860771179199,0.0,0.0,0.0,-0.8198701739311218,1.1791794300079346,-1.4435784816741943,0.0,-1.0,0.4591860771179199,34398.0,39258.0,35884.0,36636.0,0,0,0,0,36544.37109375,-1073.0,-2167.0,-1423.0
1.34,0.027878670021891594,-0.03553503006696701,0.46150606870651245,0.0,0.0,0.0,-0.6381232738494873,1.0870826244354248,-1.4381753206253052,0.0,-1.0,0.4615074396133423,34746.0,38702.0,35356.0,37264.0,0,0,0,0,36517.16015625,-61.0,-1435.0,-1458.0
1.36,0.028306081891059875,-0.03398808836936951,0.46469658613204956,0.0,0.0,0.0,-0.46284982562065125,1.0121809244155884,-1.4426249265670776,0.0,-1.0,0.46469658613204956,33784.0,38452.0,36130.0,37130.0,0,0,0,0,36374.5234375,-84.0,-1936.0,-1453.0
1.38,0.029497211799025536,-0.03230056166648865,0.46700069308280945,0.0,0.0,0.0,-0.3016313910484314,0.9588665962219238,-1.4439483880996704,0.0,-1.0,0.46700069308280945,33546.0,40484.0,36172.0,35278.0,0,0,0,0,36370.16015625,41.0,-2790.0,-1509.0
1.4,0.028267819434404373,-0.031042123213410378,0.4692394733428955,0.0,0.0,0.0,-0.15296585857868195,0.9373064041137695,-1.4436709880828857,0.0,-1.0,0.46924132108688354,34021.0,38715.0,35911.0,36965.0,0,0,0,0,36403.18359375,349.0,-2320.0,-1510.0
1.42,0.029374321922659874,-0.028356745839118958,0.4703422784805298,0.0,0.0,0.0,-0.02060355432331562,0.9121980667114258,-1.4408502578735352,0.0,-1.0,0.4703422784805298,34120.0,40962.0,36090.0,35448.0,0,0,0,0,36655.125,-1329.0,-3820.0,-1557.0
1.44,0.028712552040815353,-0.026537522673606873,0.47228479385375977,0.0,0.0,0.0,0.0792495608329773,0.8729115724563599,-1.4469925165176392,0.0,-1.0,0.4722856879234314,34668.0,40014.0,35680.0,36522.0,0,0,0,0,36721.078125,-924.0,-3342.0,-1496.0
1.46,0.02857724018394947,-0.025162093341350555,0.47413602471351624,0.0,0.0,0.0,0.20849601924419403,0.8191462755203247,-1.4581118822097778,0.0,-1.0,0.47413602471351624,35208.0,39498.0,35450.0,36872.0,0,0,0,0,36757.37890625,-888.0,-1852.0,-1439.0
1.48,0.028440354391932487,-0.021809592843055725,0.476404070854187,0.0,0.0,0.0,0.34172090888023376,0.7722185850143433,-1.452237606048584,0.0,-1.0,0.476404070854187,34063.0,40953.0,36055.0,35653.0,0,0,0,0,36681.59375,-693.0,-3229.0,-1615.0
1.5,0.02765577659010887,-0.019978772848844528,0.478177934885025,0.0,0.0,0.0,0.4646483063697815,0.7202088832855225,-1.4578323364257812,0.0,-1.0,0.478177934885025,34177.0,38337.0,36047.0,38263.0,0,0,0,0,36706.4140625,294.0,-745.0,-1585.0
1.52,0.026255540549755096,-0.017470212653279305,0.47989168763160706,0.0,0.0,0.0,0.5823675394058228,0.7025494575500488,-1.4703434705734253,0.0,-1.0,0.47989168763160706,34043.0,40049.0,36359.0,36481.0,0,0,0,0,36733.34765625,-865.0,-2277.0,-1540.0
1.54,0.02626573108136654,-0.016077594831585884,0.4821256697177887,0.0,0.0,0.0,0.6893463730812073,0.6216300129890442,-1.4780516624450684,0.0,-1.0,0.4821256697177887,34764.0,40470.0,35348.0,35934.0,0,0,0,0,36629.71875,-1292.0,-2590.0,-1618.0
1.56,0.026319848373532295,-0.013722963631153107,0.48379966616630554,0.0,0.0,0.0,0.8138190507888794,0.5320459604263306,-1.4783049821853638,0.0,-1.0,0.48379966616630554,34273.0,40615.0,35909.0,35767.0,0,0,0,0,36641.80078125,-476.0,-2622.0,-1577.0
1.58,0.02501699887216091,-0.012476001866161823,0.4854240417480469,0.0,0.0,0.0,0.9533554911613464,0.47315892577171326,-1.4775168895721436,0.0,-1.0,0.4854240417480469,34578.0,39628.0,35620.0,36942.0,0,0,0,0,36692.890625,-694.0,-2151.0,-1592.0
1.6,0.024978822097182274,-0.011170216836035252,0.4864097833633423,0.0,0.0,0.0,1.053789734840393,0.39878129959106445,-1.4825711250305176,0.0,-1.0,0.48641034960746765,34497.0,40825.0,35985.0,36005.0,0,0,0,0,36828.3515625,-789.0,-2803.0,-1619.0
1.62,0.02384311705827713,-0.011051904410123825,0.48783814907073975,0.0,0.0,0.0,1.1376163959503174,0.31871795654296875,-1.4853609800338745,0.0,-1.0,0.48783814907073975,34430.0,40052.0,36190.0,36792.0,0,0,0,0,36866.76953125,-1131.0,-1909.0,-1590.0
1.64,0.024042541161179543,-0.009490128606557846,0.4902494251728058,0.0,0.0,0.0,1.1947002410888672,0.23975443840026855,-1.486873745918274,0.0,-1.0,0.4902494251728058,34815.0,40407.0,35379.0,36295.0,0,0,0,0,36724.15234375,-1543.0,-2357.0,-1642.0
1.66,0.023071035742759705,-0.008142084814608097,0.49166181683540344,0.0,0.0,0.0,1.234758973121643,0.18783874809741974,-1.487471103668213,0.0,-1.0,0.4916617274284363,33953.0,39825.0,36381.0,36813.0,0,0,0,0,36743.109375,-574.0,-1377.0,-1582.0
1.68,0.02146442048251629,-0.00811879150569439,0.4922083020210266,0.0,0.0,0.0,1.2881561517715454,0.14760750532150269,-1.4930264949798584,0.0,-1.0,0.4922083020210266,35228.0,39044.0,35348.0,38000.0,0,0,0,0,36905.80859375,-747.0,-1637.0,-1609.0
1.7,0.019938385114073753,-0.007771787233650684,0.49344757199287415,0.0,0.0,0.0,1.2998138666152954,0.08190389722585678,-1.49347984790802,0.0,-1.0,0.4934486150741577,34723.0,39403.0,35975.0,37707.0,0,0,0,0,36952.6875,153.0,-1290.0,-1618.0
1.72,0.02129339799284935,-0.007906228303909302,0.4946309030056,0.0,0.0,0.0,1.2939592599868774,0.0038904333487153053,-1.4950854778289795,0.0,-1.0,0.4946309030056,34559.0,39501.0,36215.0,37581.0,0,0,0,0,36964.03515625,680.0,-1457.0,-1583.0
1.74,0.020336300134658813,-0.007030854467302561,0.4945732355117798,0.0,0.0,0.0,1.2648459672927856,-0.07507432997226715,-1.4952315092086792,0.0,-1.0,0.49457332491874695,35109.0,40193.0,36069.0,37457.0,0,0,0,0,37207.2109375,-1316.0,-3328.0,-1633.0
1.76,0.023065807297825813,-0.009932984597980976,0.49556294083595276,0.0,0.0,0.0,1.2483652830123901,-0.16819074749946594,-1.4938685894012451,0.0,-1.0,0.49556294083595276,35413.0,40589.0,35737.0,37117.0,0,0,0,0,37214.7578125,-343.0,-1914.0,-1613.0
1.78,0.021247630938887596,-0.012526755221188068,0.49653303623199463,0.0,0.0,0.0,1.2222042083740234,-0.17945446074008942,-1.4925812482833862,0.0,-1.0,0.49653303623199463,34725.0,40277.0,36475.0,37295.0,0,0,0,0,37193.2265625,-421.0,-2958.0,-1580.0
1.8,0.020379235967993736,-0.012098836712539196,0.4981782138347626,0.0,0.0,0.0,1.1195045709609985,-0.16791026294231415,-1.4891133308410645,0.0,-1.0,0.4981788098812103,34038.0,40916.0,36774.0,36540.0,0,0,0,0,37067.30078125,-732.0,-2164.0,-1657.0
1.82,0.021970711648464203,-0.011805822141468525,0.49921292066574097,0.0,0.0,0.0,0.9584941864013672,-0.14437799155712128,-1.4819868803024292,0.0,-1.0,0.4992119073867798,34663.0,38385.0,36151.0,38897.0,0,0,0,0,37024.890625,-718.0,-1869.0,-1600.0
1.84,0.022472087293863297,-0.015314698219299316,0.5002576112747192,0.0,0.0,0.0,0.8243526220321655,-0.1359640210866928,-1.483481526374817,0.0,-1.0,0.5002576112747192,34305.0,41411.0,36183.0,36025.0,0,0,0,0,36981.0390625,-916.0,-2827.0,-1717.0
1.86,0.023847023025155067,-0.015992067754268646,0.5005048513412476,0.0,0.0,0.0,0.6793845295906067,-0.14336474239826202,-1.4852776527404785,0.0,-1.0,0.5005044937133789,34323.0,41929.0,36421.0,35723.0,0,0,0,0,37099.3828125,-607.0,-3740.0,-1690.0
1.88,0.02370787225663662,-0.018773287534713745,0.5014863610267639,0.0,0.0,0.0,0.5560941100120544,-0.11210127174854279,-1.4927043914794922,0.0,-1.0,0.5014870166778564,34635.0,39391.0,36169.0,38065.0,0,0,0,0,37065.2109375,-90.0,-2332.0,-1696.0
1.9,0.027491116896271706,-0.02011425979435444,0.502478837966919,0.0,0.0,0.0,0.4053729176521301,-0.06778386235237122,-1.4899258613586426,0.0,-1.0,0.502478837966919,34000.0,39944.0,36270.0,37258.0,0,0,0,0,36868.6171875,160.0,-2718.0,-1747.0
1.92,0.026788096874952316,-0.0203538965433836,0.5044711828231812,0.0,0.0,0.0,0.20670244097709656,0.0057030715979635715,-1.4950528144836426,0.0,-1.0,0.5044692754745483,33875.0,40465.0,36367.0,36629.0,0,0,0,0,36834.65625,-1255.0,-3105.0,-1727.0
1.94,0.03127017617225647,-0.025288380682468414,0.5055617690086365,0.0,0.0,0.0,0.029662776738405228,0.07130545377731323,-1.503646731376648,0.0,-1.0,0.5055617690086365,34748.0,40104.0,35470.0,37006.0,0,0,0,0,36832.0546875,-749.0,-1012.0,-1711.0
1.96,0.030936729162931442,-0.025641627609729767,0.5070272088050842,0.0,0.0,0.0,-0.1711559295654297,0.15782961249351501,-1.509879469871521,0.0,-1.0,0.5070261359214783,33916.0,37990.0,36036.0,39058.0,0,0,0,0,36750.6640625,1060.0,-1522.0,-1761.0
1.98,0.03382251039147377,-0.030341753736138344,0.5081207752227783,0.0,0.0,0.0,-0.3346342444419861,0.22903452813625336,-1.5254656076431274,0.0,-1.0,0.5081207752227783,33944.0,40270.0,36034.0,36796.0,0,0,0,0,36761.78125,-321.0,-2684.0,-1741.0
2.0,0.03571951389312744,-0.032283589243888855,0.5091070532798767,0.0,0.0,0.0,-0.5446664690971375,0.33863741159439087,-1.5314745903015137,0.0,-1.0,0.5091070532798767,34079.0,39585.0,35907.0,37485.0,0,0,0,0,36764.51953125,-9.0,-1185.0,-1771.0
2.02,0.036143962293863297,-0.03427458927035332,0.510141909122467,0.0,0.0,0.0,-0.7358336448669434,0.48924481868743896,-1.5335824489593506,0.0,-1.0,0.5101420879364014,33899.0,39547.0,36087.0,37615.0,0,0,0,0,36787.48828125,-1791.0,-5462.0,-1796.0
2.04,0.03503961116075516,-0.033703457564115524,0.5111350417137146,0.0,0.0,0.0,-0.9925100803375244,0.5907317399978638,-1.5349622964859009,0.0,-1.0,0.5111348032951355,33714.0,41018.0,36350.0,36226.0,0,0,0,0,36827.23828125,1046.0,-1282.0,-1802.0
2.06,0.033429719507694244,-0.0354221872985363,0.510694146156311,0.0,0.0,0.0,-1.1935174465179443,0.7222212553024292,-1.539803147315979,0.0,-1.0,0.5106942057609558,34601.0,40015.0,36011.0,37689.0,0,0,0,0,37079.9140625,-674.0,-2435.0,-1773.0
2.08,0.036706890910863876,-0.03814809396862984,0.5114701986312866,0.0,0.0,0.0,-1.3360645771026611,0.7868017554283142,-1.540142297744751,0.0,-1.0,0.5114701986312866,34528.0,39638.0,36116.0,38158.0,0,0,0,0,37110.5703125,21.0,-1918.0,-1737.0
2.1,0.03641297295689583,-0.03848571702837944,0.5122131109237671,0.0,0.0,0.0,-1.4706754684448242,0.8414146900177002,-1.536529541015625,0.0,-1.0,0.5122132301330566,34799.0,40247.0,35937.0,37549.0,0,0,0,0,37133.5859375,-1333.0,-2930.0,-1818.0
2.12,0.03728647902607918,-0.03973795473575592,0.5126649141311646,0.0,0.0,0.0,-1.5934072732925415,0.9002298712730408,-1.5305677652359009,0.0,-1.0,0.5126649141311646,34811.0,39721.0,35943.0,38261.0,0,0,0,0,37184.25390625,-581.0,-2286.0,-1865.0
2.14,0.03833979740738869,-0.04046207666397095,0.5133387446403503,0.0,0.0,0.0,-1.713527798652649,0.9536944627761841,-1.52763032913208,0.0,-1.0,0.5133388638496399,34510.0,40382.0,36228.0,37552.0,0,0,0,0,37168.66015625,535.0,-2515.0,-1848.0
2.16,0.03774832561612129,-0.041262973099946976,0.5140149593353271,0.0,0.0,0.0,-1.8186993598937988,1.0030796527862549,-1.5313156843185425,0.0,-1.0,0.5140149593353271,33889.0,40289.0,36635.0,37815.0,0,0,0,0,37157.21875,-913.0,-4179.0,-1817.0
2.18,0.03882976248860359,-0.0440925695002079,0.5154735445976257,0.0,0.0,0.0,-1.8758761882781982,1.0306596755981445,-1.5348373651504517,0.0,-1.0,0.5154738426208496,34603.0,38559.0,35857.0,38905.0,0,0,0,0,36981.171875,-1370.0,-2741.0,-1799.0
2.2,0.03967311978340149,-0.04527423530817032,0.5162451863288879,0.0,0.0,0.0,-1.8993728160858154,1.0849734544754028,-1.5247948169708252,0.0,-1.0,0.5162451863288879,33607.0,40001.0,36603.0,37593.0,0,0,0,0,36951.91015625,-1822.0,-3842.0,-1833.0
2.22,0.03916298970580101,-0.04509393498301506,0.5170265436172485,0.0,0.0,0.0,-1.9288420677185059,1.1249479055404663,-1.5239131450653076,0.0,-1.0,0.5170265436172485,34098.0,40372.0,36072.0,36882.0,0,0,0,0,36856.59375,-228.0,-4166.0,-1795.0
2.24,0.038568656891584396,-0.044767554849386215,0.5180977582931519,0.0,0.0,0.0,-1.9541680812835693,1.1937956809997559,-1.5168585777282715,0.0,-1.0,0.5180984139442444,34421.0,39447.0,35563.0,37941.0,0,0,0,0,36843.73046875,-724.0,-2560.0,-1886.0
2.26,0.041963495314121246,-0.044632088392972946,0.5189157128334045,0.0,0.0,0.0,-1.9744155406951904,1.2008178234100342,-1.5145270824432373,0.0,-1.0,0.5189157128334045,34835.0,39811.0,35059.0,37663.0,0,0,0,0,36842.69140625,-841.0,-3016.0,-1904.0
2.28,0.04136477783322334,-0.04407505691051483,0.5191514492034912,0.0,0.0,0.0,-1.9678148031234741,1.1798230409622192,-1.5263259410858154,0.0,-1.0,0.5191515684127808,33979.0,41167.0,36115.0,36467.0,0,0,0,0,36932.64453125,-927.0,-3340.0,-1901.0
2.3,0.03970494866371155,-0.04413123428821564,0.5198846459388733,0.0,0.0,0.0,-1.9195373058319092,1.161480188369751,-1.5366640090942383,0.0,-1.0,0.5198846459388733,33773.0,41591.0,36289.0,35927.0,0,0,0,0,36895.14453125,-556.0,-2542.0,-1880.0
2.32,0.03947408124804497,-0.04305316507816315,0.5199649930000305,0.0,0.0,0.0,-1.8495985269546509,1.1638362407684326,-1.5327855348587036,0.0,-1.0,0.5199649930000305,33960.0,40720.0,36348.0,36968.0,0,0,0,0,36999.45703125,-357.0,-2515.0,-1869.0
2.34,0.040285322815179825,-0.0413304902613163,0.5206329226493835,0.0,0.0,0.0,-1.7493470907211304,1.1759428977966309,-1.5364148616790771,0.0,-1.0,0.5206329226493835,34432.0,41026.0,35754.0,36876.0,0,0,0,0,37022.60546875,-273.0,-2283.0,-1919.0
2.36,0.040638964623212814,-0.03980241343379021,0.5212722420692444,0.0,0.0,0.0,-1.6707016229629517,1.1371605396270752,-1.5388078689575195,0.0,-1.0,0.5212733149528503,35169.0,39785.0,34977.0,38229.0,0,0,0,0,37040.52734375,-254.0,-1493.0,-1963.0
2.38,0.040294937789440155,-0.03817570209503174,0.5210673213005066,0.0,0.0,0.0,-1.5949543714523315,1.0659489631652832,-1.5469032526016235,0.0,-1.0,0.5210680365562439,35227.0,40563.0,35279.0,37711.0,0,0,0,0,37195.33203125,-613.0,-2257.0,-1933.0
2.4,0.04223444685339928,-0.037417612969875336,0.5215824842453003,0.0,0.0,0.0,-1.4487123489379883,0.9696285128593445,-1.554521918296814,0.0,-1.0,0.5215824842453003,34148.0,40718.0,36376.0,37514.0,0,0,0,0,37189.9140625,-630.0,-1691.0,-1889.0
2.42,0.04246533289551735,-0.03479670360684395,0.5220922827720642,0.0,0.0,0.0,-1.291553020477295,0.9296037554740906,-1.5569100379943848,0.0,-1.0,0.5220935940742493,34295.0,40551.0,36245.0,37549.0,0,0,0,0,37160.59375,-997.0,-2640.0,-1890.0
2.44,0.04367179796099663,-0.03442559763789177,0.5206828713417053,0.0,0.0,0.0,-1.134606957435608,0.8870739340782166,-1.5536019802093506,0.0,-1.0,0.5206795930862427,33691.0,41203.0,37511.0,37459.0,0,0,0,0,37466.34765625,-268.0,-2192.0,-1903.0
2.46,0.04083248972892761,-0.02896318957209587,0.5210351347923279,0.0,0.0,0.0,-0.9959258437156677,0.9083996415138245,-1.5434576272964478,0.0,-1.0,0.5210366249084473,35029.0,39511.0,36113.0,39167.0,0,0,0,0,37455.80859375,-1015.0,-3292.0,-1891.0
2.48,0.039535462856292725,-0.029296666383743286,0.5214093923568726,0.0,0.0,0.0,-0.7928391098976135,0.9213809370994568,-1.5413559675216675,0.0,-1.0,0.5214117765426636,35114.0,42114.0,35930.0,36422.0,0,0,0,0,37395.203125,-886.0,-2620.0,-1847.0
2.5,0.03952453285455704,-0.02784729190170765,0.5224686861038208,0.0,0.0,0.0,-0.5914483070373535,0.8486717343330383,-1.5310471057891846,0.0,-1.0,0.5224702954292297,34896.0,41286.0,35916.0,36818.0,0,0,0,0,37229.28125,-715.0,-1348.0,-1922.0
2.52,0.04145814850926399,-0.02656160295009613,0.5229871869087219,0.0,0.0,0.0,-0.3886060416698456,0.7476145029067993,-1.5132473707199097,0.0,-1.0,0.522985577583313,34749.0,41067.0,35785.0,37011.0,0,0,0,0,37153.76953125,-960.0,-1867.0,-1878.0
2.54,0.03834246098995209,-0.024092216044664383,0.5235485434532166,0.0,0.0,0.0,-0.188509002327919,0.699660062789917,-1.5055218935012817,0.0,-1.0,0.5235489010810852,34984.0,39752.0,35552.0,38208.0,0,0,0,0,37124.3671875,-604.0,-1687.0,-1878.0
2.56,0.03788677975535393,-0.02086673304438591,0.5237327218055725,0.0,0.0,0.0,-0.01973484270274639,0.6697896122932434,-1.493155837059021,0.0,-1.0,0.5237343907356262,34522.0,41236.0,35888.0,36950.0,0,0,0,0,37149.12109375,-939.0,-1418.0,-1978.0
2.58,0.03762880340218544,-0.02083389088511467,0.5242994427680969,0.0,0.0,0.0,0.15552499890327454,0.6180957555770874,-1.4954206943511963,0.0,-1.0,0.5242998600006104,34532.0,40258.0,35886.0,37756.0,0,0,0,0,37108.9140625,-1526.0,-2200.0,-1933.0
2.6,0.03797675669193268,-0.017436403781175613,0.522921621799469,0.0,0.0,0.0,0.3150135576725006,0.5317736268043518,-1.489296793937683,0.0,-1.0,0.5229214429855347,35090.0,39944.0,35886.0,38764.0,0,0,0,0,37421.48046875,198.0,-2589.0,-1858.0
2.62,0.03636254742741585,-0.017535988241434097,0.5233305096626282,0.0,0.0,0.0,0.4998258650302887,0.45524701476097107,-1.4878427982330322,0.0,-1.0,0.5233305096626282,33750.0,41344.0,37300.0,37178.0,0,0,0,0,37393.4921875,-227.0,-1866.0,-1843.0
2.64,0.03325217589735985,-0.014636202715337276,0.5263146162033081,0.0,0.0,0.0,0.6308403015136719,0.3908277451992035,-1.472514271736145,0.0,-1.0,0.5263153910636902,33062.0,40932.0,36746.0,36748.0,0,0,0,0,36872.015625,26.0,-2987.0,-1958.0
2.66,0.03307458385825157,-0.012187831103801727,0.5270364880561829,0.0,0.0,0.0,0.7362101674079895,0.34894320368766785,-1.4666954278945923,0.0,-1.0,0.5270364880561829,33245.0,40307.0,36367.0,37413.0,0,0,0,0,36833.3828125,-363.0,-1815.0,-2022.0
2.68,0.03173156827688217,-0.00902076717466116,0.5277706384658813,0.0,0.0,0.0,0.8213018178939819,0.2963804602622986,-1.4721158742904663,0.0,-1.0,0.5277715921401978,33547.0,40913.0,35993.0,36619.0,0,0,0,0,36768.3359375,-59.0,-986.0,-2036.0
2.7,0.02866337075829506,-0.007657246198505163,0.5296247005462646,0.0,0.0,0.0,0.905521035194397,0.2272365391254425,-1.4795483350753784,0.0,-1.0,0.5296247005462646,33597.0,40497.0,35333.0,36589.0,0,0,0,0,36504.52734375,-43.0,-3152.0,-2060.0
2.72,0.028550811111927032,-0.007112371269613504,0.5305219888687134,0.0,0.0,0.0,1.0218833684921265,0.1441199630498886,-1.4787472486495972,0.0,-1.0,0.5305219888687134,34956.0,40064.0,34076.0,36844.0,0,0,0,0,36485.86328125,-1240.0,-2243.0,-2046.0
2.74,0.027306504547595978,-0.004061897285282612,0.5313965678215027,0.0,0.0,0.0,1.1351524591445923,0.06671580672264099,-1.4793022871017456,0.0,-1.0,0.5313963294029236,33920.0,39868.0,34952.0,37312.0,0,0,0,0,36513.30859375,192.0,-2437.0,-2113.0
2.76,0.02636266127228737,-0.0028383471071720123,0.5323073863983154,0.0,0.0,0.0,1.2259331941604614,-0.05078556761145592,-1.4844073057174683,0.0,-1.0,0.5323067903518677,34409.0,39843.0,34577.0,37263.0,0,0,0,0,36523.8125,-1709.0,-2226.0,-2072.0
2.78,0.02552058920264244,-0.003124323207885027,0.5330898761749268,0.0,0.0,0.0,1.3113059997558594,-0.1702227145433426,-1.4904190301895142,0.0,-1.0,0.5330898761749268,34293.0,39999.0,34783.0,37229.0,0,0,0,0,36576.25,-783.0,-3054.0,-2047.0
2.8,0.024028215557336807,-0.001783024868927896,0.5338032841682434,0.0,0.0,0.0,1.4121170043945312,-0.2510884702205658,-1.491343379020691,0.0,-1.0,0.5338023900985718,33841.0,40533.0,35373.0,36793.0,0,0,0,0,36635.90625,-511.0,-1492.0,-2013.0
2.82,0.022370455786585808,-0.001415762584656477,0.5324441194534302,0.0,0.0,0.0,1.4636445045471191,-0.3171209692955017,-1.487770676612854,0.0,-1.0,0.5324442386627197,34232.0,39972.0,35810.0,38310.0,0,0,0,0,37081.34765625,817.0,-1394.0,-2040.0
2.84,0.0208869818598032,0.0014087192248553038,0.5327972173690796,0.0,0.0,0.0,1.4368271827697754,-0.38962164521217346,-1.4852393865585327,0.0,-1.0,0.5327972173690796,33970.0,41336.0,36258.0,37024.0,0,0,0,0,37147.98828125,-1414.0,-2439.0,-2060.0
2.86,0.019501350820064545,0.0024683319497853518,0.5330899357795715,0.0,0.0,0.0,1.4081249237060547,-0.46288642287254333,-1.4850484132766724,0.0,-1.0,0.5330898761749268,34266.0,40934.0,36362.0,37646.0,0,0,0,0,37302.46875,-1748.0,-2866.0,-1981.0
2.88,0.01961585320532322,0.003752294462174177,0.5327436327934265,0.0,0.0,0.0,1.4050496816635132,-0.527059018611908,-1.4791983366012573,0.0,-1.0,0.5327433347702026,34194.0,40212.0,36462.0,38396.0,0,0,0,0,37316.484375,-24.0,-2110.0,-1999.0
2.9,0.017250288277864456,0.004765307996422052,0.5329214930534363,0.0,0.0,0.0,1.41055428981781,-0.540895938873291,-1.4714514017105103,0.0,-1.0,0.5329214930534363,33761.0,40989.0,36711.0,37739.0,0,0,0,0,37300.60546875,112.0,-2417.0,-2054.0
2.92,0.015975672751665115,0.005548557732254267,0.532672107219696,0.0,0.0,0.0,1.3883740901947021,-0.5733842849731445,-1.4690678119659424,0.0,-1.0,0.5326716303825378,34091.0,41135.0,36379.0,37779.0,0,0,0,0,37346.08203125,555.0,-2856.0,-2082.0
2.94,0.01271209679543972,0.005866601597517729,0.5328465700149536,0.0,0.0,0.0,1.3547358512878418,-0.6195197105407715,-1.4697169065475464,0.0,-1.0,0.5328465700149536,34928.0,40428.0,35536.0,38356.0,0,0,0,0,37312.7578125,1.0,-557.0,-2065.0
2.96,0.011457212269306183,0.006447647698223591,0.5322077870368958,0.0,0.0,0.0,1.2956533432006836,-0.6600152850151062,-1.4695160388946533,0.0,-1.0,0.5322074294090271,34948.0,40474.0,35828.0,38370.0,0,0,0,0,37405.6171875,-409.0,-1598.0,-2014.0
2.98,0.008266293443739414,0.006910622585564852,0.5323712825775146,0.0,0.0,0.0,1.2513809204101562,-0.7307775616645813,-1.4636056423187256,0.0,-1.0,0.532370388507843,34254.0,40218.0,36440.0,38532.0,0,0,0,0,37361.56640625,586.0,-1852.0,-2041.0
3.0,0.005047892220318317,0.0054903216660022736,0.5325711369514465,0.0,0.0,0.0,1.21505606174469,-0.7898132801055908,-1.451255440711975,0.0,-1.0,0.5325711369514465,23223.0,52321.0,47289.0,26443.0,0,0,0,0,37319.6953125,-671.0,-25600.0,-2080.0
3.02,0.0038201429415494204,0.005754869431257248,0.5337638854980469,0.0,0.0,0.0,1.1333688497543335,-0.8669794797897339,-1.449070930480957,0.0,-1.0,0.5337638258934021,30223.0,44079.0,39753.0,34309.0,0,0,0,0,37091.80859375,72.0,-7158.0,-2106.0
3.04,0.0009921392193064094,0.006671719253063202,0.5341411232948303,0.0,0.0,0.0,0.9905640482902527,-1.2271980047225952,-1.4436655044555664,0.0,-1.0,0.5341408848762512,37437.0,37217.0,32053.0,40957.0,0,0,0,0,36916.28515625,-13.0,6434.0,-2073.0
3.06,0.007255733944475651,0.007645404897630215,0.534635603427887,0.0,0.0,0.0,0.7922451496124268,-3.064382791519165,-1.4193915128707886,0.0,-1.0,0.5346407294273376,38666.0,36990.0,30420.0,40836.0,0,0,0,0,36728.5625,-3256.0,4808.0,-2130.0
3.08,0.008476474322378635,0.007340945303440094,0.5366290211677551,0.0,0.0,0.0,0.7053601145744324,-5.868790626525879,-1.3884024620056152,0.0,-1.0,0.5366429090499878,35340.0,39492.0,32654.0,37686.0,0,0,0,0,36293.9765625,-3147.0,-1238.0,-2247.0
3.1,0.007619007956236601,0.004748797509819269,0.5375040173530579,0.0,0.0,0.0,0.7731574177742004,-8.463616371154785,-1.3812211751937866,0.0,-1.0,0.5375375747680664,32016.0,40392.0,35890.0,36458.0,0,0,0,0,36189.1484375,125.0,-3114.0,-2128.0
3.12,0.0051512042991817,0.004535508807748556,0.5384300351142883,0.0,0.0,0.0,0.7798296809196472,-10.34631633758545,-1.3795236349105835,0.0,-1.0,0.5384454727172852,31558.0,39720.0,36384.0,37122.0,0,0,0,0,36196.7109375,1092.0,-3627.0,-2160.0
3.14,0.0029223195742815733,0.007534238509833813,0.543533205986023,0.0,0.0,0.0,0.5731729865074158,-11.7108736038208,-1.3802119493484497,0.0,-1.0,0.543533205986023,31432.0,38570.0,35376.0,36902.0,0,0,0,0,35570.46484375,930.0,-3845.0,-2178.0
3.16,0.007963462732732296,0.0060916743241250515,0.5446749925613403,0.0,0.0,0.0,0.28419020771980286,-12.866256713867188,-1.3904657363891602,0.0,-1.0,0.5446889996528625,32302.0,39280.0,34770.0,36528.0,0,0,0,0,35720.6171875,-1055.0,-2792.0,-2171.0
3.18,0.010125234723091125,0.005349005106836557,0.5456641316413879,0.0,0.0,0.0,0.06147649511694908,-13.873022079467773,-1.4008957147598267,0.0,-1.0,0.5456641316413879,33294.0,38576.0,32970.0,36372.0,0,0,0,0,35303.71875,-1968.0,-2332.0,-2176.0
3.2,0.01197050977498293,0.0059257675893604755,0.550221860408783,0.0,0.0,0.0,-0.050949182361364365,-14.8335542678833,-1.4057098627090454,0.0,-1.0,0.550221860408783,33611.0,38587.0,33437.0,36717.0,0,0,0,0,35588.78125,-560.0,-1103.0,-2125.0
3.22,0.014706097543239594,0.00444682314991951,0.5510784983634949,0.0,0.0,0.0,-0.08057256042957306,-15.718751907348633,-1.4089367389678955,0.0,-1.0,0.5510709285736084,34084.0,39600.0,33486.0,36590.0,0,0,0,0,35940.703125,-1276.0,2.0,-2200.0
3.24,0.019819609820842743,0.004607166163623333,0.5559901595115662,0.0,0.0,0.0,-0.09836069494485855,-16.449172973632812,-1.4136544466018677,0.0,-1.0,0.555996298789978,33175.0,39661.0,33775.0,35669.0,0,0,0,0,35570.49609375,-1383.0,-2862.0,-2179.0
3.26,0.02532889135181904,0.0020479196682572365,0.5566032528877258,0.0,0.0,0.0,-0.09629039466381073,-16.95229721069336,-1.4124534130096436,0.0,-1.0,0.5566032528877258,32879.0,39775.0,34465.0,36825.0,0,0,0,0,35986.0625,-841.0,-2302.0,-2273.0
3.28,0.0339675098657608,0.0020955868531018496,0.5577426552772522,0.0,0.0,0.0,-0.15204745531082153,-17.162168502807617,-1.4227473735809326,0.0,-1.0,0.5577547550201416,32860.0,40200.0,35092.0,37008.0,0,0,0,0,36290.37109375,-536.0,-2893.0,-2191.0
3.3,0.04369242861866951,0.003056058892980218,0.5576875805854797,0.0,0.0,0.0,-0.25311341881752014,-17.06610107421875,-1.4344757795333862,0.0,-1.0,0.5576984286308289,33109.0,40389.0,36071.0,37315.0,0,0,0,0,36721.21875,-68.0,-1887.0,-2149.0
3.32,0.05338865518569946,0.0036493525840342045,0.557299792766571,0.0,0.0,0.0,-0.368838369846344,-16.686548233032227,-1.432800054550171,0.0,-1.0,0.557299792766571,33684.0,41460.0,36080.0,37284.0,0,0,0,0,37127.84765625,-807.0,-2219.0,-2151.0
3.34,0.06837406754493713,0.0038195387460291386,0.5557968020439148,0.0,0.0,0.0,-0.466118186712265,-16.100557327270508,-1.4293967485427856,0.0,-1.0,0.555843710899353,33947.0,41231.0,36879.0,38375.0,0,0,0,0,37608.55078125,-1216.0,-3805.0,-2087.0
3.36,0.08002038300037384,0.004382612183690071,0.5547866821289062,0.0,0.0,0.0,-0.5243427753448486,-15.304875373840332,-1.409554362297058,0.0,-1.0,0.5548509955406189,34434.0,41958.0,37198.0,37890.0,0,0,0,0,37870.5,-300.0,-3701.0,-2007.0
3.38,0.08679903298616409,0.004272508434951305,0.5536863207817078,0.0,0.0,0.0,-0.51521897315979,-14.28271770477295,-1.3768433332443237,0.0,-1.0,0.5536863207817078,34903.0,42165.0,37795.0,39109.0,0,0,0,0,38493.13671875,268.0,-2063.0,-2080.0
3.4,0.10663221776485443,0.003608184400945902,0.5499383211135864,0.0,0.0,0.0,-0.4992676377296448,-13.197999000549316,-1.3524070978164673,0.0,-1.0,0.5499839186668396,34847.0,41889.0,38169.0,39599.0,0,0,0,0,38626.77734375,474.0,-3255.0,-2072.0
3.42,0.119794562458992,0.0028083492070436478,0.5484105348587036,0.0,0.0,0.0,-0.45786187052726746,-11.933578491210938,-1.3258883953094482,0.0,-1.0,0.548477828502655,35278.0,43656.0,37886.0,37740.0,0,0,0,0,38640.29296875,-1163.0,-4110.0,-2001.0
3.44,0.13464397192001343,0.0024850466288626194,0.5469375252723694,0.0,0.0,0.0,-0.44701018929481506,-10.591080665588379,-1.2983936071395874,0.0,-1.0,0.5470186471939087,35108.0,42824.0,39328.0,39820.0,0,0,0,0,39270.60546875,-1099.0,-4861.0,-2035.0
3.46,0.14007025957107544,0.001850299071520567,0.5414389967918396,0.0,0.0,0.0,-0.4100671708583832,-9.098180770874023,-1.2616990804672241,0.0,-1.0,0.5414389967918396,34445.0,43835.0,39677.0,38587.0,0,0,0,0,39136.75390625,-961.0,-5581.0,-2038.0
3.48,0.16512879729270935,0.001278078299947083,0.5398122668266296,0.0,0.0,0.0,-0.40510520339012146,-7.625948429107666,-1.2310606241226196,0.0,-1.0,0.5398978590965271,36960.0,44552.0,39390.0,39730.0,0,0,0,0,40158.375,-1030.0,-2599.0,-1950.0
3.5,0.16979241371154785,0.001061128219589591,0.5316648483276367,0.0,0.0,0.0,-0.4055219292640686,-6.097537994384766,-1.2025359869003296,0.0,-1.0,0.5316648483276367,36651.0,43673.0,39165.0,39967.0,0,0,0,0,39864.4765625,-1334.0,-3973.0,-1928.0
3.52,0.1934545487165451,0.0006403645966202021,0.5299366116523743,0.0,0.0,0.0,-0.40019336342811584,-4.641469955444336,-1.1728914976119995,0.0,-1.0,0.5300158262252808,35182.0,44000.0,39744.0,38974.0,0,0,0,0,39475.12109375,294.0,-4682.0,-1979.0
3.54,0.19820111989974976,0.00041382655035704374,0.5232694745063782,0.0,0.0,0.0,-0.3969497084617615,-3.0964648723602295,-1.1381150484085083,0.0,-1.0,0.5232694745063782,36171.0,44533.0,39815.0,39493.0,0,0,0,0,40003.52734375,-1319.0,-4139.0,-2053.0
3.56,0.22519166767597198,2.5411616661585867e-05,0.521813690662384,0.0,0.0,0.0,-0.39944425225257874,-1.6408650875091553,-1.1212184429168701,0.0,-1.0,0.5218977332115173,34867.0,45261.0,39989.0,37747.0,0,0,0,0,39466.69921875,-451.0,-5794.0,-2037.0
3.58,0.24333913624286652,-0.0006139685865491629,0.5209044814109802,0.0,0.0,0.0,-0.37881597876548767,-0.1981026977300644,-1.1012459993362427,0.0,-1.0,0.5209731459617615,34757.0,44405.0,39099.0,37403.0,0,0,0,0,38916.984375,-1365.0,-4759.0,-1988.0
3.6,0.2502254843711853,-0.001210595015436411,0.5193369388580322,0.0,0.0,0.0,-0.36303412914276123,1.2417877912521362,-1.0855822563171387,0.0,-1.0,0.5193369388580322,33846.0,44428.0,39424.0,36666.0,0,0,0,0,38591.62890625,57.0,-5214.0,-1975.0
3.62,0.27637195587158203,-0.00028789060888811946,0.519207239151001,0.0,0.0,0.0,-0.3423444926738739,2.529184103012085,-1.0737229585647583,0.0,-1.0,0.5192615985870361,33106.0,42030.0,39262.0,37918.0,0,0,0,0,38079.23046875,503.0,-4707.0,-1869.0
3.64,0.2951110601425171,0.0005076306406408548,0.5195380449295044,0.0,0.0,0.0,-0.3253472149372101,3.8015968799591064,-1.048816442489624,0.0,-1.0,0.5195931196212769,33630.0,42250.0,37616.0,36944.0,0,0,0,0,37610.3984375,-1526.0,-5545.0,-1958.0
3.66,0.31068581342697144,0.0016775535186752677,0.5203249454498291,0.0,0.0,0.0,-0.34335654973983765,4.983921527862549,-1.0195919275283813,0.0,-1.0,0.5203551054000854,33039.0,42361.0,37497.0,35907.0,0,0,0,0,37201.47265625,-1401.0,-5722.0,-1904.0
3.68,0.3253771662712097,0.0005601477460004389,0.5213370323181152,0.0,0.0,0.0,-0.27578848600387573,6.132877349853516,-0.9975517392158508,0.0,-1.0,0.5213749408721924,33355.0,42645.0,36781.0,34799.0,0,0,0,0,36895.57421875,-643.0,-5210.0,-1908.0
3.7,0.3408447802066803,-0.0009391907951794565,0.5225481390953064,0.0,0.0,0.0,-0.17410889267921448,7.2355637550354,-0.9685335755348206,0.0,-1.0,0.522590160369873,32191.0,39239.0,36071.0,36103.0,0,0,0,0,35901.3125,-275.0,-4796.0,-1791.0
3.72,0.3521183729171753,-0.00033427219022996724,0.5281935334205627,0.0,0.0,0.0,-0.12457102537155151,8.212428092956543,-0.9409698247909546,0.0,-1.0,0.5281871557235718,31623.0,40879.0,36275.0,34003.0,0,0,0,0,35695.34765625,-1333.0,-5238.0,-1803.0
3.74,0.36358770728111267,-0.0007352819084189832,0.5300580263137817,0.0,0.0,0.0,-0.1115524023771286,9.012251853942871,-0.9073705077171326,0.0,-1.0,0.5300537347793579,32058.0,39816.0,35760.0,34926.0,0,0,0,0,35640.26171875,-934.0,-4963.0,-1749.0
3.76,0.3748950958251953,-0.0029166219756007195,0.531883180141449,0.0,0.0,0.0,-0.05947544425725937,9.725607872009277,-0.8714231252670288,0.0,-1.0,0.5318827033042908,30921.0,39745.0,35603.0,33867.0,0,0,0,0,35034.94921875,75.0,-2946.0,-1751.0
3.78,0.3875911235809326,-0.002367573557421565,0.5373857021331787,0.0,0.0,0.0,-0.02282635308802128,10.278181076049805,-0.8426802754402161,0.0,-1.0,0.537381112575531,31375.0,40743.0,35303.0,32971.0,0,0,0,0,35098.6484375,-239.0,-4880.0,-1680.0
3.8,0.3987797796726227,-0.0017754812724888325,0.5393005609512329,0.0,0.0,0.0,-0.005774357356131077,10.68273639678955,-0.8157424330711365,0.0,-1.0,0.5393005609512329,30707.0,38459.0,34711.0,33363.0,0,0,0,0,34310.96484375,-895.0,-4337.0,-1672.0
3.82,0.408617228269577,-0.001755803357809782,0.5465419292449951,0.0,0.0,0.0,0.007151857018470764,10.978204727172852,-0.7787026762962341,0.0,-1.0,0.5465413331985474,31012.0,38466.0,34510.0,33952.0,0,0,0,0,34485.28515625,322.0,-4743.0,-1706.0
3.84,0.4172717034816742,-0.0024706500116735697,0.5485237240791321,0.0,0.0,0.0,0.030235745012760162,11.128987312316895,-0.7495352029800415,0.0,-1.0,0.5485237240791321,31377.0,37721.0,34933.0,35033.0,0,0,0,0,34766.78515625,-230.0,-4245.0,-1613.0
3.86,0.42566826939582825,-0.001309450133703649,0.5507692694664001,0.0,0.0,0.0,0.03153739124536514,11.212920188903809,-0.7185565233230591,0.0,-1.0,0.5507698655128479,31143.0,40061.0,35477.0,33351.0,0,0,0,0,35008.37890625,-1555.0,-4386.0,-1678.0
3.88,0.4363113343715668,-0.001193281845189631,0.5521260499954224,0.0,0.0,0.0,0.004804948344826698,11.174285888671875,-0.694050133228302,0.0,-1.0,0.552125096321106,32019.0,38801.0,35525.0,35327.0,0,0,0,0,35418.84375,311.0,-2751.0,-1628.0
3.9,0.4430040717124939,-0.00019615271594375372,0.5530896186828613,0.0,0.0,0.0,0.0004237726388964802,11.042583465576172,-0.6672112941741943,0.0,-1.0,0.5530896186828613,32985.0,38985.0,34781.0,35149.0,0,0,0,0,35475.03515625,-2194.0,-4671.0,-1586.0
3.92,0.4496443569660187,-0.0003074192791245878,0.5557031631469727,0.0,0.0,0.0,0.018194500356912613,10.809083938598633,-0.6325404047966003,0.0,-1.0,0.5557023882865906,32692.0,41556.0,36092.0,33128.0,0,0,0,0,35867.5234375,-529.0,-3208.0,-1580.0
3.94,0.45559975504875183,0.0015242851804941893,0.5561418533325195,0.0,0.0,0.0,0.07223786413669586,10.552464485168457,-0.5867271423339844,0.0,-1.0,0.5561418533325195,33943.0,39427.0,35685.0,35937.0,0,0,0,0,36248.90625,-648.0,-3329.0,-1521.0
3.96,0.4634413421154022,0.001529502565972507,0.5562545657157898,0.0,0.0,0.0,0.0840701088309288,10.216973304748535,-0.5404300689697266,0.0,-1.0,0.5562545657157898,34738.0,40264.0,36094.0,36832.0,0,0,0,0,36982.82421875,-949.0,-3073.0,-1538.0
3.98,0.47035670280456543,0.0016903161304071546,0.5538407564163208,0.0,0.0,0.0,0.08362814038991928,9.812374114990234,-0.5063373446464539,0.0,-1.0,0.553838849067688,34574.0,40682.0,37110.0,36810.0,0,0,0,0,37294.68359375,-1023.0,-2467.0,-1457.0
4.0,0.4758831560611725,0.002637915313243866,0.5532179474830627,0.0,0.0,0.0,0.09900661557912827,9.369733810424805,-0.464667946100235,0.0,-1.0,0.5532140135765076,35050.0,40418.0,37196.0,37492.0,0,0,0,0,37539.73046875,-235.0,-1027.0,-1391.0
4.02,0.47936728596687317,0.00240957154892385,0.5524218082427979,0.0,0.0,0.0,0.13520081341266632,8.894683837890625,-0.42017316818237305,0.0,-1.0,0.5513136386871338,35475.0,41379.0,37697.0,37145.0,0,0,0,0,37924.3125,729.0,-2197.0,-1376.0
4.04,0.4812783896923065,0.0032594166696071625,0.550299346446991,0.0,0.0,0.0,0.16496868431568146,8.44683837890625,-0.3754482865333557,0.0,-1.0,0.5502973198890686,34894.0,41654.0,38322.0,37318.0,0,0,0,0,38047.05078125,169.0,-2682.0,-1460.0
4.06,0.48442256450653076,0.0046278382651507854,0.5492345094680786,0.0,0.0,0.0,0.1628441959619522,7.953334808349609,-0.3345266282558441,0.0,-1.0,0.5492331385612488,36387.0,40197.0,37615.0,39609.0,0,0,0,0,38452.671875,-30.0,-513.0,-1427.0
4.08,0.48719969391822815,0.006106805521994829,0.5461075305938721,0.0,0.0,0.0,0.13991671800613403,7.433621406555176,-0.3069383203983307,0.0,-1.0,0.5461028218269348,35841.0,41961.0,38227.0,37639.0,0,0,0,0,38417.56640625,-2052.0,-3851.0,-1462.0
4.1,0.4878932237625122,0.006611298304051161,0.5448725819587708,0.0,0.0,0.0,0.14831148087978363,6.866785526275635,-0.2837603986263275,0.0,-1.0,0.5448725819587708,36510.0,40984.0,37490.0,38312.0,0,0,0,0,38324.97265625,-1970.0,-3987.0,-1456.0
4.12,0.48847514390945435,0.007726795040071011,0.539571225643158,0.0,0.0,0.0,0.2318568080663681,6.347217559814453,-0.2620883584022522,0.0,-1.0,0.5395646691322327,36590.0,44250.0,38208.0,36776.0,0,0,0,0,38956.13671875,-796.0,-1665.0,-1472.0
4.14,0.4881024658679962,0.008169827051460743,0.5382534265518188,0.0,0.0,0.0,0.3114938735961914,5.762372970581055,-0.2485550045967102,0.0,-1.0,0.5382498502731323,36592.0,41040.0,38102.0,39450.0,0,0,0,0,38796.11328125,1195.0,-452.0,-1425.0
4.16,0.4881684482097626,0.00894789770245552,0.5371291637420654,0.0,0.0,0.0,0.3462992012500763,5.136836051940918,-0.22301657497882843,0.0,-1.0,0.5371224880218506,36886.0,42266.0,38756.0,39416.0,0,0,0,0,39331.05078125,-720.0,-3876.0,-1524.0
4.18,0.48767736554145813,0.00884952861815691,0.5318924188613892,0.0,0.0,0.0,0.3562720715999603,4.522388935089111,-0.2108776867389679,0.0,-1.0,0.5318905711174011,36470.0,41884.0,38912.0,39214.0,0,0,0,0,39120.93359375,-767.0,-3620.0,-1583.0
4.2,0.48539313673973083,0.010634162463247776,0.5308007001876831,0.0,0.0,0.0,0.3786088526248932,3.918452501296997,-0.19821667671203613,0.0,-1.0,0.5308007001876831,36801.0,40211.0,37921.0,40467.0,0,0,0,0,38850.10546875,-370.0,-2429.0,-1492.0
4.22,0.4834601581096649,0.011885598301887512,0.5299797654151917,0.0,0.0,0.0,0.42472121119499207,3.3261682987213135,-0.2038196176290512,0.0,-1.0,0.5261844992637634,36481.0,42713.0,38771.0,38923.0,0,0,0,0,39222.86328125,-158.0,-1428.0,-1423.0
4.24,0.48280271887779236,0.011147122830152512,0.5252645015716553,0.0,0.0,0.0,0.4790727496147156,2.7280335426330566,-0.19604375958442688,0.0,-1.0,0.5252665281295776,36920.0,40580.0,38000.0,40168.0,0,0,0,0,38917.25390625,-1691.0,-3224.0,-1467.0
4.26,0.48144710063934326,0.010367612354457378,0.5246425867080688,0.0,0.0,0.0,0.545662522315979,2.1478893756866455,-0.18219053745269775,0.0,-1.0,0.524641752243042,35546.0,41244.0,38996.0,38590.0,0,0,0,0,38594.875,-664.0,-4129.0,-1481.0
4.28,0.4793360233306885,0.012832722626626492,0.5241720676422119,0.0,0.0,0.0,0.5474385023117065,1.5897451639175415,-0.16263863444328308,0.0,-1.0,0.5241720676422119,35405.0,41551.0,38171.0,38033.0,0,0,0,0,38290.64453125,-787.0,-2529.0,-1554.0
4.3,0.4780198931694031,0.013030650094151497,0.5241107940673828,0.0,0.0,0.0,0.5204653143882751,1.0419657230377197,-0.16055025160312653,0.0,-1.0,0.5241107940673828,36281.0,39373.0,36727.0,39479.0,0,0,0,0,37965.34765625,-1917.0,-4650.0,-1497.0
4.32,0.47866368293762207,0.012561344541609287,0.5243156552314758,0.0,0.0,0.0,0.5321745872497559,0.4944206178188324,-0.15854139626026154,0.0,-1.0,0.5254176259040833,35171.0,40591.0,36957.0,37109.0,0,0,0,0,37457.2109375,-725.0,-2231.0,-1516.0
4.34,0.4764118492603302,0.014398541301488876,0.5259677171707153,0.0,0.0,0.0,0.5941764712333679,-0.0007277349359355867,-0.1438641995191574,0.0,-1.0,0.5259677171707153,34921.0,39445.0,36571.0,37871.0,0,0,0,0,37202.73828125,-1128.0,-3793.0,-1455.0
4.36,0.471780925989151,0.013112310320138931,0.5266920328140259,0.0,0.0,0.0,0.6209173798561096,-0.42959994077682495,-0.13463479280471802,0.0,-1.0,0.5266933441162109,34857.0,39259.0,36091.0,37581.0,0,0,0,0,36947.56640625,-739.0,-861.0,-1487.0
4.38,0.4721153676509857,0.014366467483341694,0.5279301404953003,0.0,0.0,0.0,0.6128715872764587,-0.8066572546958923,-0.12540008127689362,0.0,-1.0,0.5279301404953003,35303.0,39875.0,35307.0,36787.0,0,0,0,0,36818.84765625,-1834.0,-2938.0,-1519.0
4.4,0.4709877371788025,0.01425806526094675,0.5288758873939514,0.0,0.0,0.0,0.6315984725952148,-1.1527891159057617,-0.12629958987236023,0.0,-1.0,0.5288758277893066,34365.0,41463.0,36315.0,34805.0,0,0,0,0,36737.4765625,-1557.0,-2617.0,-1434.0
4.42,0.4711875319480896,0.014090406708419323,0.5298452973365784,0.0,0.0,0.0,0.6501522660255432,-1.4998584985733032,-0.11348585784435272,0.0,-1.0,0.5298458933830261,34138.0,40264.0,35548.0,35290.0,0,0,0,0,36310.51953125,-609.0,-2144.0,-1527.0
4.44,0.46934571862220764,0.015398796647787094,0.5329965949058533,0.0,0.0,0.0,0.6479994058609009,-1.771772027015686,-0.10376233607530594,0.0,-1.0,0.5329965949058533,34439.0,39637.0,35235.0,35837.0,0,0,0,0,36287.61328125,-2180.0,-3778.0,-1500.0
4.46,0.46754589676856995,0.015299099497497082,0.534142017364502,0.0,0.0,0.0,0.6639786958694458,-1.9682042598724365,-0.10148797929286957,0.0,-1.0,0.534142017364502,34971.0,37735.0,34825.0,37657.0,0,0,0,0,36297.8515625,-288.0,-1258.0,-1401.0
4.48,0.46697255969047546,0.015132028609514236,0.5352211594581604,0.0,0.0,0.0,0.6701840758323669,-2.141645908355713,-0.09180113673210144,0.0,-1.0,0.5352211594581604,33839.0,40561.0,36237.0,34803.0,0,0,0,0,36360.48828125,-1166.0,-3109.0,-1345.0
4.5,0.4659171998500824,0.015312831848859787,0.5363309383392334,0.0,0.0,0.0,0.6619032621383667,-2.2930748462677,-0.07406710088253021,0.0,-1.0,0.5363309383392334,34497.0,39541.0,35569.0,36101.0,0,0,0,0,36427.8046875,-371.0,-2741.0,-1415.0
4.52,0.46372857689857483,0.015364298596978188,0.5372018218040466,0.0,0.0,0.0,0.6515823006629944,-2.3643107414245605,-0.06119842454791069,0.0,-1.0,0.5372018218040466,34557.0,38935.0,35899.0,36861.0,0,0,0,0,36563.52734375,-909.0,-1897.0,-1395.0
4.54,0.4640788435935974,0.016782911494374275,0.537926197052002,0.0,0.0,0.0,0.6157311201095581,-2.44061279296875,-0.04840976372361183,0.0,-1.0,0.537926197052002,34773.0,38507.0,35855.0,37409.0,0,0,0,0,36636.23046875,47.0,-1687.0,-1308.0
4.56,0.46324384212493896,0.016872012987732887,0.5388768911361694,0.0,0.0,0.0,0.5861645340919495,-2.508849859237671,-0.03714681789278984,0.0,-1.0,0.5388768911361694,35344.0,40054.0,35446.0,36220.0,0,0,0,0,36766.29296875,-263.0,-266.0,-1348.0
4.58,0.46335652470588684,0.01658535748720169,0.5393635630607605,0.0,0.0,0.0,0.576768696308136,-2.5184834003448486,-0.019793082028627396,0.0,-1.0,0.5393635630607605,34831.0,39247.0,36183.0,37175.0,0,0,0,0,36859.96484375,-1350.0,-1856.0,-1381.0
4.6,0.46189403533935547,0.016451995819807053,0.5397469997406006,0.0,0.0,0.0,0.5778239965438843,-2.4826738834381104,-0.006898239720612764,0.0,-1.0,0.5397456288337708,34524.0,39640.0,36210.0,36822.0,0,0,0,0,36799.27734375,-270.0,-2020.0,-1413.0
4.62,0.46302008628845215,0.014986368827521801,0.5410354137420654,0.0,0.0,0.0,0.5868727564811707,-2.458421230316162,-0.002433233195915818,0.0,-1.0,0.5410354137420654,35099.0,39451.0,35929.0,37041.0,0,0,0,0,36880.3359375,-1213.0,-3346.0,-1368.0
4.64,0.4642702639102936,0.01514416839927435,0.5413298606872559,0.0,0.0,0.0,0.5445336699485779,-2.4019782543182373,0.004095014184713364,0.0,-1.0,0.5413298606872559,34862.0,39038.0,36302.0,37526.0,0,0,0,0,36932.02734375,-199.0,-1836.0,-1321.0
4.66,0.4654936194419861,0.014129928313195705,0.5415616035461426,0.0,0.0,0.0,0.5334389805793762,-2.281019926071167,0.011057835072278976,0.0,-1.0,0.5415616035461426,34554.0,39852.0,36316.0,36246.0,0,0,0,0,36742.98046875,-1137.0,-2029.0,-1327.0
4.68,0.4665209650993347,0.013615084812045097,0.5433525443077087,0.0,0.0,0.0,0.47861725091934204,-2.1723382472991943,0.02525406889617443,0.0,-1.0,0.5433525443077087,34596.0,40726.0,36468.0,35414.0,0,0,0,0,36801.3828125,-1527.0,-2782.0,-1300.0
4.7,0.4699108302593231,0.01307938527315855,0.5435933470726013,0.0,0.0,0.0,0.4135919213294983,-2.044140100479126,0.04162314906716347,0.0,-1.0,0.5435933470726013,34453.0,39255.0,36715.0,36921.0,0,0,0,0,36836.68359375,-801.0,-1829.0,-1312.0
4.72,0.47094085812568665,0.013361254706978798,0.5452411770820618,0.0,0.0,0.0,0.3325093984603882,-1.870692253112793,0.05575452372431755,0.0,-1.0,0.5452423095703125,34237.0,38875.0,36619.0,36949.0,0,0,0,0,36670.96484375,-237.0,-2679.0,-1259.0
4.74,0.47258880734443665,0.012731454335153103,0.5454933643341064,0.0,0.0,0.0,0.27041104435920715,-1.6907627582550049,0.0668300986289978,0.0,-1.0,0.5454933643341064,35020.0,41016.0,35818.0,35158.0,0,0,0,0,36753.125,-1407.0,-1649.0,-1315.0
4.76,0.47730156779289246,0.012694207951426506,0.5456620454788208,0.0,0.0,0.0,0.2377277910709381,-1.4809242486953735,0.07096993923187256,0.0,-1.0,0.5470449924468994,33864.0,40228.0,36524.0,35596.0,0,0,0,0,36553.83203125,-383.0,-2625.0,-1364.0
4.78,0.47826245427131653,0.01027593296021223,0.5472973585128784,0.0,0.0,0.0,0.22370915114879608,-1.2218784093856812,0.0740857794880867,0.0,-1.0,0.5472958087921143,33897.0,38701.0,36685.0,37253.0,0,0,0,0,36634.0859375,-1172.0,-3387.0,-1375.0
4.8,0.4798181653022766,0.011665291152894497,0.5474722981452942,0.0,0.0,0.0,0.15596400201320648,-0.9249973297119141,0.08049914985895157,0.0,-1.0,0.5474722981452942,33985.0,38867.0,36661.0,37307.0,0,0,0,0,36705.609375,-500.0,-2828.0,-1393.0
4.82,0.4830349087715149,0.011925097554922104,0.5464686155319214,0.0,0.0,0.0,0.06578214466571808,-0.6548627018928528,0.07793839275836945,0.0,-1.0,0.5464701652526855,34621.0,38311.0,36703.0,38333.0,0,0,0,0,36992.10546875,-8.0,-2196.0,-1325.0
4.84,0.48517242074012756,0.011953994631767273,0.5463742613792419,0.0,0.0,0.0,0.0010105440160259604,-0.41165655851364136,0.08251785486936569,0.0,-1.0,0.5463742613792419,34402.0,41860.0,37064.0,35010.0,0,0,0,0,37084.20703125,-1421.0,-4479.0,-1357.0
4.86,0.489419162273407,0.012258320115506649,0.5473600029945374,0.0,0.0,0.0,-0.027119267731904984,-0.135186105966568,0.08694110065698624,0.0,-1.0,0.5473600029945374,34794.0,40860.0,36500.0,35618.0,0,0,0,0,36943.19921875,-969.0,-2318.0,-1320.0
4.88,0.4881877899169922,0.011554064229130745,0.5472584366798401,0.0,0.0,0.0,-0.0703112855553627,0.1607772558927536,0.09946857392787933,0.0,-1.0,0.5472584366798401,34699.0,39779.0,36711.0,36783.0,0,0,0,0,36993.56640625,-556.0,-2329.0,-1258.0
4.9,0.49072253704071045,0.011477280408143997,0.5471153259277344,0.0,0.0,0.0,-0.06976828724145889,0.37724772095680237,0.10977885127067566,0.0,-1.0,0.5471153259277344,35242.0,39480.0,36240.0,37078.0,0,0,0,0,37010.44921875,-181.0,-2570.0,-1265.0
4.92,0.4929790496826172,0.011321090161800385,0.5469539165496826,0.0,0.0,0.0,-0.06774219125509262,0.5905508399009705,0.1207379698753357,0.0,-1.0,0.5474160313606262,34408.0,40276.0,36850.0,36310.0,0,0,0,0,36961.0390625,-41.0,-2692.0,-1365.0
