time,x_kalman,y_kalman,z_kalman,x_lh,y_lh,z_lh,roll,pitch,yaw,F,R,Z,motor.m1,motor.m2,motor.m3,motor.m4,rpm.m1,rpm.m2,rpm.m3,rpm.m4,controller.cmd_thrust,controller.cmd_roll,controller.cmd_pitch,controller.cmd_yaw
0.0,-0.0006769943865947425,-0.001568311476148665,0.009300142526626587,0.0,0.0,0.0,-1.908345103263855,-0.3738648593425751,0.013610112480819225,0.0005172215751372278,2.8727142810821533,0.009299407713115215,53575.0,54673.0,56993.0,55599.0,0,0,0,0,55210.203125,2177.0,599.0,145.0
0.02,-0.0006528334924951196,-0.0006450748187489808,0.00909730140119791,0.0,0.0,0.0,-1.949264407157898,-0.36939388513565063,0.015047618187963963,0.0005180163425393403,2.8727152347564697,0.00910178106278181,54060.0,56126.0,56552.0,54866.0,0,0,0,0,55401.23046875,2562.0,1464.0,3.0
0.04,-0.0001966253184946254,-0.0010009835241362453,0.009297109209001064,0.0,0.0,0.0,-1.8901196718215942,-0.3307745158672333,0.015997949987649918,0.0005156362312845886,2.873514175415039,0.009297109209001064,58294.0,58154.0,53916.0,53648.0,0,0,0,0,56003.0859375,-4410.0,-3598.0,95.0
0.06,-0.0010994111653417349,-0.0013351193629205227,0.009194056503474712,0.0,0.0,0.0,-1.786177635192871,-0.26808086037635803,0.03612635284662247,0.0005155386752448976,2.87351393699646,0.009178059175610542,58709.0,60507.0,52973.0,52667.0,0,0,0,0,56214.2109375,-5622.0,-1636.0,-434.0
0.08,-0.000763613497838378,0.00047829007962718606,0.010346021503210068,0.0,0.0,0.0,-1.2536156177520752,0.07613237202167511,0.01871548593044281,0.00046254752669483423,2.8734872341156006,0.010207648389041424,52863.0,54139.0,55203.0,55815.0,0,0,0,0,54505.01953125,1801.0,480.0,-512.0
0.1,-0.0010148935252800584,0.0033343809191137552,0.011786512099206448,0.0,0.0,0.0,-0.697054922580719,0.3927628993988037,-0.05164839327335358,0.0004370452952571213,2.874340057373047,0.011520693078637123,48899.0,54969.0,52987.0,49777.0,0,0,0,0,51658.99609375,-2809.0,-762.0,-852.0
0.12,-0.008583101443946362,0.007984834723174572,0.017433229833841324,0.0,0.0,0.0,-0.6130051016807556,1.0026646852493286,-0.1405668556690216,0.0003382822033017874,2.873610019683838,0.010608994401991367,42495.0,54251.0,53171.0,44907.0,0,0,0,0,48706.5390625,336.0,-9389.0,-850.0
0.14,-0.026371898129582405,0.005895145237445831,0.01840086467564106,0.0,0.0,0.0,-0.12776871025562286,1.8628356456756592,-0.27138423919677734,0.00010355127596994862,2.8733277320861816,0.018048234283924103,43372.0,46170.0,44028.0,45494.0,0,0,0,0,44766.859375,-1118.0,-3024.0,-1015.0
0.16,-0.029944442212581635,0.0025526375975459814,0.0318189412355423,0.0,0.0,0.0,0.3595348000526428,1.7818284034729004,-0.4022151827812195,0.0002681129553820938,2.872643232345581,0.03207247704267502,39320.0,42408.0,39638.0,40850.0,0,0,0,0,40554.265625,-1118.0,-2774.0,-1076.0
0.18,-0.03825549781322479,-0.006603693589568138,0.04452662542462349,0.0,0.0,0.0,1.0268752574920654,1.3580574989318848,-0.536641001701355,0.027401166036725044,2.872260093688965,0.04461158439517021,34133.0,37715.0,38799.0,39881.0,0,0,0,0,37632.3515625,4803.0,907.0,-1178.0
0.2,-0.04306643083691597,0.0009639454074203968,0.060316551476716995,0.0,0.0,0.0,0.7568231821060181,0.6536261439323425,-0.6108275055885315,0.02804400771856308,2.8724184036254883,0.061000775545835495,30665.0,36215.0,36783.0,37069.0,0,0,0,0,35183.125,3237.0,-2228.0,-1484.0
0.22,-0.039685431867837906,0.004775655455887318,0.07063338160514832,0.0,0.0,0.0,0.4728056788444519,-0.001571553642861545,-0.6735196709632874,0.023366160690784454,2.8741772174835205,0.07135076820850372,33044.0,35582.0,33416.0,36978.0,0,0,0,0,34755.515625,1728.0,109.0,-1502.0
0.24,-0.0432547964155674,0.008625395596027374,0.09049471467733383,0.0,0.0,0.0,0.02862785942852497,-1.1499921083450317,-0.8879386186599731,0.01891327276825905,2.874601364135742,0.09101922065019608,31852.0,35786.0,31440.0,33390.0,0,0,0,0,33117.66015625,-890.0,179.0,-1460.0
0.26,-0.04269188269972801,0.009618455544114113,0.10860821604728699,0.0,0.0,0.0,0.11919466406106949,-2.015079975128174,-1.0330145359039307,0.019398368895053864,2.8747241497039795,0.10862584412097931,33070.0,34730.0,28872.0,32900.0,0,0,0,0,32393.845703125,-3048.0,480.0,-1422.0
0.28,-0.04492580145597458,0.007430214900523424,0.1257040947675705,0.0,0.0,0.0,0.5160503387451172,-2.651926279067993,-1.1401965618133545,0.019772140309214592,2.9259908199310303,0.12599064409732819,30388.0,35780.0,30906.0,30878.0,0,0,0,0,31988.935546875,-1745.0,-3620.0,-1334.0
0.3,-0.04702666029334068,0.006275266874581575,0.1500200480222702,0.0,0.0,0.0,0.9343395233154297,-3.206742286682129,-1.2225401401519775,0.01681758463382721,2.9328062534332275,0.15004350244998932,28796.0,33986.0,29390.0,29716.0,0,0,0,0,30472.771484375,-777.0,-1320.0,-1339.0
0.32,-0.04774835333228111,0.005328199360519648,0.1666923612356186,0.0,0.0,0.0,1.167812466621399,-3.592198133468628,-1.2894446849822998,0.01682143285870552,2.9328360557556152,0.16669568419456482,28997.0,31799.0,29587.0,31925.0,0,0,0,0,30577.26171875,-399.0,-947.0,-1260.0
0.34,-0.050717879086732864,0.004809193778783083,0.1825731247663498,0.0,0.0,0.0,1.2150577306747437,-3.828503131866455,-1.3286652565002441,0.016853341832756996,2.932861804962158,0.1825437694787979,28458.0,32560.0,31350.0,32000.0,0,0,0,0,31092.185546875,1832.0,-292.0,-1203.0
0.36,-0.051010265946388245,0.004126000218093395,0.20061978697776794,0.0,0.0,0.0,1.1197748184204102,-4.090816497802734,-1.3653838634490967,0.016870468854904175,2.9436399936676025,0.20065104961395264,28098.0,31856.0,31242.0,32180.0,0,0,0,0,30844.267578125,1971.0,-2375.0,-1333.0
0.38,-0.05239245295524597,0.005495649762451649,0.21499322354793549,0.0,0.0,0.0,0.8617172241210938,-4.214260578155518,-1.3899472951889038,0.016909724101424217,2.9436838626861572,0.21500034630298615,29128.0,33364.0,31450.0,31606.0,0,0,0,0,31387.541015625,-633.0,-2360.0,-1102.0
0.4,-0.05386932194232941,0.0037216616328805685,0.22826044261455536,0.0,0.0,0.0,0.7160032391548157,-4.28321647644043,-1.3832861185073853,0.016494128853082657,2.9452786445617676,0.22751069068908691,30124.0,34292.0,31842.0,32250.0,0,0,0,0,32127.724609375,-832.0,347.0,-1204.0
0.42,-0.05411301925778389,0.0032659699209034443,0.2453681081533432,0.0,0.0,0.0,0.572495698928833,-4.363523960113525,-1.3932498693466187,0.01754242181777954,2.9490840435028076,0.245398610830307,29236.0,35980.0,32386.0,30026.0,0,0,0,0,31907.087890625,-1245.0,-3453.0,-1118.0
0.44,-0.05597807094454765,0.0032407669350504875,0.2573348879814148,0.0,0.0,0.0,0.45585283637046814,-4.391237258911133,-1.3887856006622314,0.0175771564245224,2.949122190475464,0.2572592496871948,30570.0,33522.0,32380.0,33712.0,0,0,0,0,32546.19921875,739.0,-1589.0,-1036.0
0.46,-0.05565992370247841,0.0033878018148243427,0.2681512236595154,0.0,0.0,0.0,0.38986968994140625,-4.379495143890381,-1.3952969312667847,0.017121775075793266,2.9506442546844482,0.26697349548339844,31876.0,35484.0,32766.0,33526.0,0,0,0,0,33413.06640625,-230.0,-1620.0,-1075.0
0.48,-0.05825057998299599,0.004116365220397711,0.2766856253147125,0.0,0.0,0.0,0.31161773204803467,-4.218099117279053,-1.383446455001831,0.01718561165034771,2.950547695159912,0.2766050100326538,31874.0,35266.0,34058.0,35350.0,0,0,0,0,34137.2734375,936.0,-1082.0,-1138.0
0.5,-0.05707192048430443,0.0037465388886630535,0.2859639823436737,0.0,0.0,0.0,0.27090615034103394,-4.100700855255127,-1.395654559135437,0.01696782186627388,2.950313091278076,0.2857629656791687,31982.0,37254.0,35540.0,34664.0,0,0,0,0,34860.31640625,-1055.0,-630.0,-1114.0
0.52,-0.054979849606752396,0.002063329564407468,0.29387179017066956,0.0,0.0,0.0,0.24063120782375336,-3.9834280014038086,-1.3950191736221313,0.0168114323168993,2.950143575668335,0.29372987151145935,33255.0,38163.0,35361.0,35061.0,0,0,0,0,35460.51953125,324.0,-816.0,-1169.0
0.54,-0.053487084805965424,0.0014248121296986938,0.30721938610076904,0.0,0.0,0.0,0.1914466917514801,-3.8612661361694336,-1.4044601917266846,0.018285613507032394,2.9483468532562256,0.30707213282585144,32122.0,36938.0,35660.0,35416.0,0,0,0,0,35034.66015625,1287.0,-884.0,-1131.0
0.56,-0.05086646229028702,2.4589826352894306e-06,0.3143886923789978,0.0,0.0,0.0,0.150518536567688,-3.747072696685791,-1.4097853899002075,0.018118325620889664,2.948167324066162,0.314247190952301,32801.0,37929.0,35723.0,35535.0,0,0,0,0,35497.33984375,586.0,-1205.0,-1270.0
0.58,-0.04812127724289894,-0.0011941745178774,0.32103586196899414,0.0,0.0,0.0,0.08876990526914597,-3.537943124771118,-1.4196425676345825,0.017933564260601997,2.9479684829711914,0.3208402097225189,33237.0,38625.0,35837.0,35885.0,0,0,0,0,35896.09765625,-451.0,-3968.0,-1283.0
0.6,-0.04497996345162392,-0.0019568782299757004,0.329377681016922,0.0,0.0,0.0,-0.002332833595573902,-3.248178482055664,-1.4408613443374634,0.018466953188180923,2.94498872756958,0.32918915152549744,33288.0,38396.0,35660.0,36132.0,0,0,0,0,35869.08203125,209.0,-1562.0,-1357.0
0.62,-0.0411154180765152,-0.0032640339341014624,0.33528557419776917,0.0,0.0,0.0,-0.09357846528291702,-2.8526058197021484,-1.4697520732879639,0.01829121634364128,2.944801092147827,0.3350902795791626,34268.0,39896.0,34832.0,35732.0,0,0,0,0,36182.62109375,779.0,-818.0,-1416.0
0.64,-0.03700918331742287,-0.0044850376434624195,0.3378642201423645,0.0,0.0,0.0,-0.15187646448612213,-2.708514928817749,-1.4910176992416382,0.018134666606783867,2.944633960723877,0.34062403440475464,33090.0,39650.0,36810.0,36194.0,0,0,0,0,36436.97265625,-1084.0,-1648.0,-1352.0
0.66,-0.032235048711299896,-0.005920352879911661,0.3431624174118042,0.0,0.0,0.0,-0.2482810914516449,-2.310758590698242,-1.5256023406982422,0.017639853060245514,2.8871803283691406,0.34269145131111145,35223.0,39923.0,36165.0,37421.0,0,0,0,0,37183.87890625,450.0,-3796.0,-1385.0
0.68,-0.028040997684001923,-0.007170702330768108,0.3449777662754059,0.0,0.0,0.0,-0.30334654450416565,-1.7997509241104126,-1.5419251918792725,0.017504824325442314,2.887021541595459,0.3473299741744995,34423.0,41303.0,37391.0,36519.0,0,0,0,0,37409.296875,141.0,-2814.0,-1464.0
0.7,-0.02304377406835556,-0.008647733367979527,0.3494446873664856,0.0,0.0,0.0,-0.377836138010025,-1.2743449211120605,-1.5637776851654053,0.01732420176267624,2.886807441711426,0.3516367971897125,35103.0,39477.0,37009.0,38775.0,0,0,0,0,37591.83984375,-1397.0,-1202.0,-1554.0
0.72,-0.018257729709148407,-0.01081900205463171,0.35263046622276306,0.0,0.0,0.0,-0.4776058495044708,-0.7315075397491455,-1.5893226861953735,0.016948511824011803,2.9001898765563965,0.35142940282821655,35651.0,43665.0,37881.0,36767.0,0,0,0,0,38491.0625,300.0,-2498.0,-1673.0
0.74,-0.01354879792779684,-0.012458664365112782,0.35314372181892395,0.0,0.0,0.0,-0.5700924396514893,-0.22214195132255554,-1.6284211874008179,0.01676056906580925,2.899977207183838,0.35493335127830505,36266.0,41042.0,37806.0,39142.0,0,0,0,0,38564.10546875,671.0,-132.0,-1533.0
0.76,-0.007390418089926243,-0.013813119381666183,0.35661542415618896,0.0,0.0,0.0,-0.6476532816886902,0.29992297291755676,-1.6708334684371948,0.01665380783379078,2.899855852127075,0.3584524095058441,34837.0,41963.0,38885.0,38447.0,0,0,0,0,38533.46484375,484.0,-3468.0,-1675.0
0.78,-0.002445786725729704,-0.015412107110023499,0.3601513206958771,0.0,0.0,0.0,-0.759533166885376,0.8284553289413452,-1.6800280809402466,0.016560859978199005,2.8980391025543213,0.362354040145874,36011.0,41693.0,37063.0,38125.0,0,0,0,0,38223.33984375,-1029.0,-2438.0,-1721.0
0.8,0.0032809171825647354,-0.017050743103027344,0.36469602584838867,0.0,0.0,0.0,-0.8673808574676514,1.381941318511963,-1.7117063999176025,0.01646324433386326,2.898310899734497,0.36659741401672363,35610.0,40678.0,37180.0,38808.0,0,0,0,0,38069.3515625,-1259.0,-1506.0,-1632.0
0.82,0.008611940778791904,-0.018824785947799683,0.368426650762558,0.0,0.0,0.0,-0.9605103731155396,1.874920129776001,-1.7417858839035034,0.016362253576517105,2.898200273513794,0.3703380227088928,33932.0,43022.0,38612.0,36094.0,0,0,0,0,37915.828125,-449.0,-3791.0,-1657.0
0.84,0.014489916153252125,-0.02033095434308052,0.37218567728996277,0.0,0.0,0.0,-1.0334854125976562,2.295767307281494,-1.7614132165908813,0.016279039904475212,2.8983376026153564,0.37466537952423096,33858.0,42600.0,38156.0,35882.0,0,0,0,0,37624.625,-1570.0,-6212.0,-1627.0
0.86,0.019652076065540314,-0.02232065051794052,0.376636803150177,0.0,0.0,0.0,-1.0670241117477417,2.8015875816345215,-1.770813226699829,0.016216810792684555,2.898113489151001,0.37866950035095215,33941.0,41591.0,37521.0,36647.0,0,0,0,0,37425.3828125,5.0,-5400.0,-1724.0
0.88,0.02397448755800724,-0.023893527686595917,0.38067126274108887,0.0,0.0,0.0,-1.0858594179153442,3.4067699909210205,-1.777390480041504,0.0161576047539711,2.898050308227539,0.3827061057090759,32250.0,40810.0,38496.0,37364.0,0,0,0,0,37230.41796875,345.0,-3527.0,-1862.0
0.9,0.029917089268565178,-0.02564914897084236,0.3846958577632904,0.0,0.0,0.0,-1.1772122383117676,3.980069160461426,-1.7982869148254395,0.0160884577780962,2.897977113723755,0.3867863714694977,33437.0,39737.0,37079.0,38431.0,0,0,0,0,37171.78125,594.0,-2476.0,-1906.0
0.92,0.035128165036439896,-0.027592618018388748,0.38750460743904114,0.0,0.0,0.0,-1.347029209136963,4.447993755340576,-1.8414310216903687,0.01604786142706871,2.8992063999176025,0.3895350694656372,35296.0,40280.0,35178.0,37938.0,0,0,0,0,37173.20703125,-2042.0,-1161.0,-1841.0
0.94,0.04006113484501839,-0.029796723276376724,0.3914642035961151,0.0,0.0,0.0,-1.5101711750030518,4.7042975425720215,-1.889648199081421,0.015976978465914726,2.8991336822509766,0.3934648633003235,36043.0,41661.0,34471.0,36221.0,0,0,0,0,37099.703125,-1653.0,-2049.0,-1831.0
0.96,0.043620895594358444,-0.030621320009231567,0.3954237103462219,0.0,0.0,0.0,-1.541467547416687,4.820675849914551,-1.9303885698318481,0.015930917114019394,2.8990867137908936,0.3973640501499176,34152.0,40838.0,37100.0,37530.0,0,0,0,0,37405.51953125,818.0,-2909.0,-1766.0
0.98,0.04924750700592995,-0.03171266242861748,0.39645764231681824,0.0,0.0,0.0,-1.4713393449783325,4.871078014373779,-1.9560151100158691,0.015925399959087372,2.9002861976623535,0.3982129395008087,34720.0,40162.0,37024.0,38654.0,0,0,0,0,37640.1796875,986.0,-2819.0,-1791.0
1.0,0.05200181528925896,-0.03467207029461861,0.39991873502731323,0.0,0.0,0.0,-1.4849579334259033,4.996114253997803,-1.9673115015029907,0.01590009778738022,2.900261163711548,0.40159717202186584,35454.0,41534.0,36508.0,37312.0,0,0,0,0,37702.796875,-922.0,-2545.0,-1750.0
1.02,0.056840043514966965,-0.03610578551888466,0.40504273772239685,0.0,0.0,0.0,-1.6655961275100708,5.131499290466309,-1.969570517539978,0.015890108421444893,2.9005744457244873,0.40504926443099976,34802.0,40216.0,37246.0,38472.0,0,0,0,0,37684.59375,30.0,-2414.0,-1615.0
1.04,0.05845089256763458,-0.038670752197504044,0.40666258335113525,0.0,0.0,0.0,-1.662373423576355,5.185430526733398,-1.9701474905014038,0.015849465504288673,2.9005351066589355,0.4082592725753784,34393.0,40381.0,37681.0,38277.0,0,0,0,0,37683.671875,-1617.0,-3595.0,-1697.0
1.06,0.0619795098900795,-0.039649318903684616,0.409850150346756,0.0,0.0,0.0,-1.7127020359039307,5.242615222930908,-1.9535578489303589,0.015817303210496902,2.9005045890808105,0.41141006350517273,34553.0,40431.0,37299.0,38401.0,0,0,0,0,37671.875,-113.0,-2653.0,-1708.0
1.08,0.06574942171573639,-0.04198671504855156,0.4086279273033142,0.0,0.0,0.0,-1.7621227502822876,5.2434306144714355,-1.9482040405273438,0.01581559330224991,2.897930860519409,0.4099827706813812,35685.0,40905.0,37957.0,39005.0,0,0,0,0,38388.48828125,225.0,-3162.0,-1554.0
1.1,0.06701284646987915,-0.043227121233940125,0.411326140165329,0.0,0.0,0.0,-1.8218728303909302,5.2128071784973145,-1.9456125497817993,0.015801887959241867,2.897918701171875,0.4126550853252411,36792.0,41700.0,36886.0,38114.0,0,0,0,0,38373.93359375,-784.0,-2912.0,-1091.0
1.12,0.07051747292280197,-0.04422299936413765,0.41530922055244446,0.0,0.0,0.0,-1.930275559425354,5.168574810028076,-1.8971065282821655,0.015793217346072197,2.897911310195923,0.4153093695640564,35907.0,41165.0,37773.0,38443.0,0,0,0,0,38322.83984375,902.0,-773.0,-994.0
1.14,0.07207377254962921,-0.04617167264223099,0.4113604426383972,0.0,0.0,0.0,-1.953195333480835,5.119958400726318,-1.8572089672088623,0.015754537656903267,2.893649101257324,0.4135622978210449,37034.0,41352.0,37906.0,39236.0,0,0,0,0,38882.9296875,-424.0,-3306.0,-820.0
1.16,0.07331831008195877,-0.04705332592129707,0.41593489050865173,0.0,0.0,0.0,-1.9922510385513306,5.0357441902160645,-1.81369149684906,0.01575014553964138,2.893646240234375,0.4159359931945801,36687.0,40547.0,38157.0,39697.0,0,0,0,0,38772.33984375,-579.0,-1443.0,-778.0
1.18,0.07322601974010468,-0.04753288999199867,0.41839197278022766,0.0,0.0,0.0,-2.016655683517456,4.89648962020874,-1.7686536312103271,0.01575143076479435,2.8936479091644287,0.41839516162872314,38859.0,43119.0,39327.0,39971.0,0,0,0,0,40319.4296875,-1046.0,-1630.0,-574.0
1.2,0.07302381098270416,-0.04894480109214783,0.4105128049850464,0.0,0.0,0.0,-2.0194108486175537,4.722492218017578,-1.7141128778457642,0.01570928655564785,2.8882884979248047,0.413705438375473,37603.0,41737.0,38975.0,39581.0,0,0,0,0,39474.40625,423.0,-3333.0,-552.0
1.22,0.07298857718706131,-0.04795759916305542,0.41585907340049744,0.0,0.0,0.0,-2.0168423652648926,4.494097709655762,-1.6494630575180054,0.015711283311247826,2.888291358947754,0.41586214303970337,38018.0,41884.0,37904.0,39130.0,0,0,0,0,39234.03125,1123.0,-3002.0,-786.0
1.24,0.07247866690158844,-0.048493269830942154,0.4182232916355133,0.0,0.0,0.0,-2.012383222579956,4.254783630371094,-1.5999219417572021,0.015713272616267204,2.8882954120635986,0.4182297885417938,36402.0,41434.0,38916.0,38860.0,0,0,0,0,38903.5390625,-1178.0,-1784.0,-1259.0
1.26,0.07427161931991577,-0.05031241476535797,0.4196465313434601,0.0,0.0,0.0,-1.9833660125732422,4.103097438812256,-1.5842771530151367,0.04310508072376251,2.887237071990967,0.4230927526950836,37142.0,40188.0,36706.0,38472.0,0,0,0,0,38127.8125,-862.0,-1980.0,-1180.0
1.28,0.07304158061742783,-0.05183024704456329,0.4246044456958771,0.0,0.0,0.0,-1.9294670820236206,3.8391313552856445,-1.5461794137954712,0.04313631355762482,2.887255907058716,0.42618313431739807,36246.0,40008.0,36838.0,38040.0,0,0,0,0,37783.96875,-1264.0,-1234.0,-1234.0
1.3,0.07453015446662903,-0.0528518408536911,0.4289560317993164,0.0,0.0,0.0,-1.8539752960205078,3.5405478477478027,-1.5004411935806274,0.03941495344042778,2.8873555660247803,0.4306790828704834,35085.0,38969.0,36897.0,37937.0,0,0,0,0,37222.62109375,-968.0,-1687.0,-1262.0
1.32,0.07292429357767105,-0.05296057462692261,0.4324260652065277,0.0,0.0,0.0,-1.8045026063919067,3.258779525756836,-1.4634950160980225,0.03941849619150162,2.887357711791992,0.43418455123901367,33680.0,38690.0,35174.0,34964.0,0,0,0,0,35627.85546875,-727.0,-2660.0,-1192.0
1.34,0.0702948048710823,-0.05176566168665886,0.44402647018432617,0.0,0.0,0.0,-1.7824668884277344,2.9543240070343018,-1.4337053298950195,0.04491756856441498,2.8854942321777344,0.44616037607192993,33284.0,38386.0,35312.0,34770.0,0,0,0,0,35438.671875,-609.0,-2694.0,-1136.0
1.36,0.06476011127233505,-0.05111369490623474,0.4523801803588867,0.0,0.0,0.0,-1.716022253036499,2.6790504455566406,-1.397463083267212,0.04308899864554405,2.885942220687866,0.45476362109184265,32429.0,37073.0,34287.0,34107.0,0,0,0,0,34474.75,-877.0,-1356.0,-1141.0
1.38,0.06058782711625099,-0.05053103715181351,0.4610038101673126,0.0,0.0,0.0,-1.6247131824493408,2.397597551345825,-1.3608771562576294,0.04567888379096985,2.8853647708892822,0.46349456906318665,33106.0,36804.0,32292.0,33198.0,0,0,0,0,33850.09375,-504.0,-1727.0,-1118.0
1.4,0.05844501405954361,-0.05080438032746315,0.4659319519996643,0.0,0.0,0.0,-1.5258325338363647,2.042652130126953,-1.3255362510681152,0.04569106921553612,2.885373830795288,0.4682772159576416,32334.0,35840.0,33482.0,34344.0,0,0,0,0,34000.78515625,-638.0,-1038.0,-1095.0
1.42,0.055349286645650864,-0.049121905118227005,0.48049914836883545,0.0,0.0,0.0,-1.4504921436309814,1.6363224983215332,-1.2884352207183838,0.045381005853414536,2.8866167068481445,0.4831773340702057,30389.0,34625.0,31857.0,31721.0,0,0,0,0,32148.73046875,-1399.0,-1829.0,-1032.0
1.44,0.04998277127742767,-0.049059197306632996,0.48727917671203613,0.0,0.0,0.0,-1.3772929906845093,1.233195424079895,-1.2527235746383667,0.04632324352860451,2.8864758014678955,0.4898530840873718,31027.0,34313.0,31643.0,32685.0,0,0,0,0,32417.974609375,-1276.0,-2314.0,-1096.0
1.46,0.04829204082489014,-0.048222023993730545,0.4922679662704468,0.0,0.0,0.0,-1.3215534687042236,0.7905453443527222,-1.2093721628189087,0.04633849859237671,2.8864877223968506,0.49458205699920654,31656.0,34400.0,31778.0,33522.0,0,0,0,0,32839.9453125,-483.0,-1397.0,-1105.0
1.48,0.04725543409585953,-0.04807007312774658,0.5025243163108826,0.0,0.0,0.0,-1.2651453018188477,0.3277198076248169,-1.1774054765701294,0.046740733087062836,2.887234687805176,0.5047987103462219,30709.0,34215.0,31801.0,32635.0,0,0,0,0,32340.8515625,-620.0,-1734.0,-1093.0
1.5,0.04485825449228287,-0.04657761752605438,0.501251757144928,0.0,0.0,0.0,-1.223600149154663,-0.09445176273584366,-1.148759365081787,0.04356958717107773,2.8877015113830566,0.5030253529548645,32118.0,35778.0,33128.0,33852.0,0,0,0,0,33719.91796875,-604.0,-2078.0,-1056.0
1.52,0.04358644410967827,-0.04422614350914955,0.5046258568763733,0.0,0.0,0.0,-1.164883017539978,-0.48365628719329834,-1.1149351596832275,0.04381473362445831,2.8882501125335693,0.5100849866867065,32219.0,34935.0,32991.0,34583.0,0,0,0,0,33682.875,-595.0,-553.0,-1068.0
1.54,0.04167724400758743,-0.043625716120004654,0.5115560293197632,0.0,0.0,0.0,-1.0607777833938599,-0.8138227462768555,-1.0838675498962402,0.04382283240556717,2.8882570266723633,0.5128729939460754,32907.0,36733.0,34075.0,34773.0,0,0,0,0,34622.484375,-611.0,-1525.0,-1097.0
1.56,0.03972214087843895,-0.043143898248672485,0.5119941830635071,0.0,0.0,0.0,-0.9633220434188843,-1.0924330949783325,-1.0586860179901123,0.04277395084500313,2.888427495956421,0.5129380226135254,32639.0,37819.0,34931.0,34443.0,0,0,0,0,34958.3125,-587.0,-1689.0,-1145.0
1.58,0.039065949618816376,-0.04267106205224991,0.5155912637710571,0.0,0.0,0.0,-0.8570004105567932,-1.3256211280822754,-1.0433505773544312,0.04282921925187111,2.888685703277588,0.5163432955741882,33396.0,37382.0,35538.0,35952.0,0,0,0,0,35567.57421875,-65.0,115.0,-1123.0
1.6,0.037271540611982346,-0.04234299436211586,0.51368647813797,0.0,0.0,0.0,-0.7616285681724548,-1.4937970638275146,-1.0264978408813477,0.04119116812944412,2.888953447341919,0.5140708684921265,35310.0,38798.0,35476.0,36836.0,0,0,0,0,36605.59765625,-499.0,-683.0,-1252.0
1.62,0.03689923882484436,-0.03989137336611748,0.5153549313545227,0.0,0.0,0.0,-0.6790337562561035,-1.6238951683044434,-1.0067137479782104,0.041189562529325485,2.889085531234741,0.5155657529830933,34710.0,39292.0,36714.0,37088.0,0,0,0,0,36951.953125,-742.0,-1848.0,-1244.0
1.64,0.03513847663998604,-0.039206262677907944,0.5156852602958679,0.0,0.0,0.0,-0.6044579744338989,-1.6965386867523193,-1.0044203996658325,0.04120180010795593,2.889096736907959,0.5157299637794495,36122.0,39986.0,36066.0,37338.0,0,0,0,0,37378.15625,-1976.0,-994.0,-1241.0
1.66,0.03476732224225998,-0.038481369614601135,0.5156922936439514,0.0,0.0,0.0,-0.5518649816513062,-1.7026937007904053,-1.0090059041976929,0.03951051086187363,2.8893885612487793,0.5115788578987122,36383.0,39941.0,37685.0,39151.0,0,0,0,0,38290.96484375,-923.0,-1771.0,-1269.0
1.68,0.03499331325292587,-0.038549523800611496,0.5095134377479553,0.0,0.0,0.0,-0.4474998116493225,-1.7283586263656616,-1.0154582262039185,0.03957571089267731,2.889209270477295,0.5090844631195068,36913.0,41507.0,38327.0,38889.0,0,0,0,0,38909.45703125,-563.0,-1874.0,-1303.0
1.7,0.0336725115776062,-0.035964176058769226,0.50862717628479,0.0,0.0,0.0,-0.37123483419418335,-1.7015624046325684,-1.0129733085632324,0.039579786360263824,2.8892133235931396,0.5081655979156494,37526.0,42102.0,37850.0,38806.0,0,0,0,0,39071.83984375,-1325.0,-1271.0,-1392.0
1.72,0.03371693938970566,-0.03451775759458542,0.5076947212219238,0.0,0.0,0.0,-0.29089197516441345,-1.5990244150161743,-1.0145012140274048,0.03719841316342354,2.889683485031128,0.5006409287452698,37654.0,42622.0,39658.0,40358.0,0,0,0,0,40073.6171875,101.0,-1758.0,-1408.0
1.74,0.03542747348546982,-0.03352108970284462,0.4993123412132263,0.0,0.0,0.0,-0.20233039557933807,-1.517348289489746,-1.0273699760437012,0.037247832864522934,2.889631748199463,0.49862435460090637,39029.0,42047.0,38307.0,41281.0,0,0,0,0,40166.3203125,-1295.0,-1886.0,-1472.0
1.76,0.03537599369883537,-0.030765818431973457,0.49797940254211426,0.0,0.0,0.0,-0.16486088931560516,-1.4112299680709839,-1.0483955144882202,0.037246011197566986,2.8896305561065674,0.49739813804626465,38269.0,42905.0,38689.0,40085.0,0,0,0,0,39987.54296875,-1338.0,-3513.0,-1509.0
1.78,0.03399662300944328,-0.028138160705566406,0.4968887269496918,0.0,0.0,0.0,-0.08013199269771576,-1.2972350120544434,-1.075063705444336,0.03733675181865692,2.889488935470581,0.49365338683128357,38185.0,43205.0,39911.0,41087.0,0,0,0,0,40597.32421875,-522.0,-894.0,-1534.0
1.8,0.036213796585798264,-0.02735520899295807,0.4901946783065796,0.0,0.0,0.0,0.024112889543175697,-1.1375982761383057,-1.1027553081512451,0.036043260246515274,2.8898463249206543,0.4896993935108185,37778.0,43458.0,39690.0,40170.0,0,0,0,0,40274.98046875,-779.0,-2696.0,-1560.0
1.82,0.03801566734910011,-0.028480395674705505,0.48929673433303833,0.0,0.0,0.0,0.1284915655851364,-0.9679998755455017,-1.1328638792037964,0.03604449704289436,2.88984751701355,0.4889873266220093,37874.0,41978.0,39136.0,41316.0,0,0,0,0,40076.625,-687.0,-134.0,-1611.0
1.84,0.040936704725027084,-0.027624862268567085,0.4846220314502716,0.0,0.0,0.0,0.22463098168373108,-0.7827215790748596,-1.1615227460861206,0.0348048098385334,2.8901872634887695,0.4843529760837555,38014.0,42940.0,38908.0,40422.0,0,0,0,0,40071.85546875,-858.0,-3107.0,-1592.0
1.86,0.04142262786626816,-0.024877730756998062,0.4841884970664978,0.0,0.0,0.0,0.27296653389930725,-0.5687001943588257,-1.1969528198242188,0.034802984446287155,2.890186071395874,0.4841279089450836,36700.0,43524.0,39290.0,38998.0,0,0,0,0,39628.36328125,-570.0,-3304.0,-1622.0
1.88,0.04372760280966759,-0.024533936753869057,0.48417189717292786,0.0,0.0,0.0,0.33082035183906555,-0.3774913251399994,-1.2264230251312256,0.03480362147092819,2.8901870250701904,0.48432204127311707,37419.0,43109.0,38353.0,39027.0,0,0,0,0,39477.828125,-345.0,-3749.0,-1591.0
1.9,0.04623651131987572,-0.02457324042916298,0.4799809753894806,0.0,0.0,0.0,0.4126441180706024,-0.1325407773256302,-1.2521425485610962,0.03387228772044182,2.8904643058776855,0.4801155626773834,37385.0,42263.0,38171.0,40041.0,0,0,0,0,39465.93359375,-520.0,-2406.0,-1697.0
1.92,0.048088934272527695,-0.024368636310100555,0.48033857345581055,0.0,0.0,0.0,0.48401427268981934,0.14509500563144684,-1.274503231048584,0.03387175500392914,2.8904645442962646,0.48064178228378296,36200.0,42280.0,38556.0,39308.0,0,0,0,0,39086.45703125,7.0,-2791.0,-1735.0
1.94,0.0490499883890152,-0.02361084707081318,0.4810260236263275,0.0,0.0,0.0,0.5181405544281006,0.4169684648513794,-1.306581735610962,0.033867865800857544,2.8904614448547363,0.48148709535598755,35550.0,42532.0,39004.0,39406.0,0,0,0,0,39123.31640625,-309.0,591.0,-1837.0
1.96,0.05230602249503136,-0.02302190661430359,0.4784530997276306,0.0,0.0,0.0,0.5312619209289551,0.6183674335479736,-1.339951753616333,0.03360949829220772,2.890550136566162,0.47887763381004333,36483.0,42167.0,37943.0,39339.0,0,0,0,0,38983.1328125,-484.0,-2414.0,-1766.0
1.98,0.055262453854084015,-0.0237469170242548,0.47936537861824036,0.0,0.0,0.0,0.5718722939491272,0.7968730926513672,-1.3827511072158813,0.033607687801122665,2.8905487060546875,0.4799111485481262,34210.0,41956.0,39498.0,39092.0,0,0,0,0,38689.53515625,788.0,-3025.0,-1816.0
2.0,0.055583201348781586,-0.02280770055949688,0.4805143475532532,0.0,0.0,0.0,0.594772458076477,1.0134071111679077,-1.4148623943328857,0.03360488638281822,2.8905467987060547,0.48117372393608093,36445.0,40745.0,37387.0,40375.0,0,0,0,0,38738.4921875,-313.0,-2446.0,-1860.0
2.02,0.0581127293407917,-0.022204332053661346,0.47996461391448975,0.0,0.0,0.0,0.5767987966537476,1.255422830581665,-1.4449599981307983,0.03372810781002045,2.890515089035034,0.4806264340877533,35874.0,41298.0,37424.0,39244.0,0,0,0,0,38460.01171875,-449.0,-2084.0,-1800.0
2.04,0.0599941723048687,-0.02217911183834076,0.48133334517478943,0.0,0.0,0.0,0.5376207828521729,1.4286630153656006,-1.4721983671188354,0.033727340400218964,2.890514612197876,0.48208335041999817,35799.0,42055.0,36997.0,37989.0,0,0,0,0,38210.3203125,-1720.0,-1637.0,-1800.0
2.06,0.060700710862874985,-0.022138232365250587,0.4828763008117676,0.0,0.0,0.0,0.503418505191803,1.6017134189605713,-1.4916913509368896,0.03372679650783539,2.890514373779297,0.48370856046676636,37244.0,41548.0,36724.0,39616.0,0,0,0,0,38783.71484375,133.0,-1809.0,-1803.0
2.08,0.06240559741854668,-0.022062039002776146,0.48027732968330383,0.0,0.0,0.0,0.5239152908325195,1.7575560808181763,-1.5071676969528198,0.034571148455142975,2.890254020690918,0.4828113913536072,36788.0,40908.0,36204.0,39340.0,0,0,0,0,38310.76953125,-1156.0,-1426.0,-1801.0
2.1,0.06314778327941895,-0.02318510040640831,0.48357391357421875,0.0,0.0,0.0,0.522400438785553,1.9183341264724731,-1.5182629823684692,0.03457037732005119,2.8902535438537598,0.48436471819877625,36037.0,40707.0,36867.0,38913.0,0,0,0,0,38131.703125,-1554.0,-1650.0,-1678.0
2.12,0.06503777205944061,-0.022552553564310074,0.4851818084716797,0.0,0.0,0.0,0.44694462418556213,2.001242160797119,-1.5225297212600708,0.034570127725601196,2.8902535438537598,0.48602306842803955,36643.0,40566.0,36206.0,38954.0,0,0,0,0,37956.578125,63.0,-2027.0,-1775.0
2.14,0.06473951786756516,-0.021862264722585678,0.4832598567008972,0.0,0.0,0.0,0.35874083638191223,2.1001076698303223,-1.5102897882461548,0.03477868437767029,2.8902053833007812,0.4838319718837738,36147.0,41529.0,37425.0,39031.0,0,0,0,0,38533.390625,-820.0,-647.0,-1755.0
2.16,0.06400807946920395,-0.02417604625225067,0.48452237248420715,0.0,0.0,0.0,0.3192111551761627,2.203032970428467,-1.5168641805648804,0.034777525812387466,2.890204429626465,0.48523056507110596,36355.0,41901.0,37051.0,38357.0,0,0,0,0,38416.3828125,211.0,-1772.0,-1708.0
2.18,0.06319601833820343,-0.02354663424193859,0.48595568537712097,0.0,0.0,0.0,0.26944008469581604,2.2483811378479004,-1.5107229948043823,0.034777525812387466,2.890204429626465,0.4867006242275238,36068.0,41622.0,38256.0,39546.0,0,0,0,0,38873.77734375,-66.0,-3135.0,-1719.0
2.2,0.06238187104463577,-0.023003678768873215,0.48420533537864685,0.0,0.0,0.0,0.21281175315380096,2.2469515800476074,-1.499559760093689,0.03500110283493996,2.890145778656006,0.48481541872024536,35693.0,41151.0,37407.0,39145.0,0,0,0,0,38349.3671875,-211.0,-1805.0,-1810.0
2.22,0.06065985560417175,-0.02208290994167328,0.4881103038787842,0.0,0.0,0.0,0.11377816647291183,2.228234052658081,-1.4831737279891968,0.035666074603796005,2.889918088912964,0.4888730049133301,36297.0,41211.0,36459.0,38837.0,0,0,0,0,38201.75390625,-718.0,-2348.0,-1837.0
2.24,0.05896492302417755,-0.02418646775186062,0.48965463042259216,0.0,0.0,0.0,0.05101099610328674,2.1810386180877686,-1.4844201803207397,0.035664260387420654,2.889916181564331,0.49046608805656433,37133.0,39953.0,36405.0,40333.0,0,0,0,0,38456.3046875,-383.0,-2607.0,-1721.0
2.26,0.054841652512550354,-0.023745957762002945,0.488904744386673,0.0,0.0,0.0,-0.007660547737032175,2.122267007827759,-1.483702540397644,0.0358167439699173,2.8898680210113525,0.48963409662246704,35388.0,40836.0,36624.0,38080.0,0,0,0,0,37732.3046875,-529.0,-2892.0,-1714.0
2.28,0.05340048670768738,-0.023062996566295624,0.49415716528892517,0.0,0.0,0.0,-0.060834698379039764,1.9821703433990479,-1.4694392681121826,0.036724019795656204,2.88956356048584,0.4950845539569855,35295.0,40547.0,36263.0,38171.0,0,0,0,0,37569.9921875,-700.0,-1930.0,-1763.0
2.3,0.05305330827832222,-0.023950939998030663,0.49603158235549927,0.0,0.0,0.0,-0.10927824676036835,1.83612060546875,-1.4571177959442139,0.036726973950862885,2.889566659927368,0.49699050188064575,35142.0,39734.0,35298.0,37846.0,0,0,0,0,37005.57421875,-532.0,-1760.0,-1766.0
2.32,0.05175911635160446,-0.02446107752621174,0.5003131628036499,0.0,0.0,0.0,-0.18462948501110077,1.6327435970306396,-1.4568430185317993,0.03658542409539223,2.8896167278289795,0.5014129877090454,34572.0,39176.0,35162.0,37706.0,0,0,0,0,36654.0234375,-1108.0,-1168.0,-1751.0
2.34,0.04922362416982651,-0.023560410365462303,0.5040813088417053,0.0,0.0,0.0,-0.26836034655570984,1.4277245998382568,-1.4529067277908325,0.036947350949048996,2.889486312866211,0.5052284598350525,35161.0,39841.0,34589.0,36769.0,0,0,0,0,36590.51171875,-1542.0,-1219.0,-1733.0
2.36,0.047927118837833405,-0.031869348138570786,0.5063507556915283,0.0,0.0,0.0,-0.2548225224018097,1.208227515220642,-1.4508907794952393,0.03694311901926994,2.8894829750061035,0.5074600577354431,34401.0,40767.0,35413.0,35839.0,0,0,0,0,36605.421875,-1119.0,-1813.0,-1716.0
2.38,0.046640485525131226,-0.034461621195077896,0.5141053199768066,0.0,0.0,0.0,-0.259133905172348,0.9937120079994202,-1.43782639503479,0.03661928325891495,2.8895785808563232,0.5154454112052917,34005.0,38961.0,34247.0,36259.0,0,0,0,0,35868.94921875,-662.0,-2076.0,-1776.0
2.4,0.04263683035969734,-0.03377091884613037,0.5151247978210449,0.0,0.0,0.0,-0.3092741370201111,0.8460711240768433,-1.4191181659698486,0.036241788417100906,2.8897030353546143,0.5163189768791199,33572.0,38240.0,34936.0,37116.0,0,0,0,0,35966.0546875,-806.0,-1911.0,-1758.0
2.42,0.04103517532348633,-0.03477151691913605,0.5174562335014343,0.0,0.0,0.0,-0.44466379284858704,0.675920844078064,-1.4158854484558105,0.036239802837371826,2.8897011280059814,0.5185437798500061,34074.0,37648.0,34750.0,38016.0,0,0,0,0,36122.71484375,-203.0,-2991.0,-1727.0
2.44,0.04115936905145645,-0.033917419612407684,0.5267317891120911,0.0,0.0,0.0,-0.631320595741272,0.4609927535057068,-1.4074400663375854,0.035847850143909454,2.8898303508758545,0.528084933757782,33376.0,38344.0,32754.0,34646.0,0,0,0,0,34780.39453125,-626.0,-491.0,-1713.0
2.46,0.037144120782613754,-0.03187234327197075,0.5305421948432922,0.0,0.0,0.0,-0.7972598075866699,0.2632756233215332,-1.3919650316238403,0.03611714392900467,2.8897435665130615,0.531823992729187,33286.0,38364.0,33196.0,34954.0,0,0,0,0,34950.51171875,-1293.0,-1397.0,-1706.0
2.48,0.03594083711504936,-0.033925045281648636,0.5330348014831543,0.0,0.0,0.0,-0.8572890758514404,0.04744007810950279,-1.3796770572662354,0.03611672669649124,2.8897433280944824,0.5341684222221375,33317.0,37961.0,33531.0,35991.0,0,0,0,0,35200.125,-1706.0,-3753.0,-1739.0
2.5,0.03193023428320885,-0.03350614756345749,0.5352143049240112,0.0,0.0,0.0,-0.8919879794120789,-0.13990968465805054,-1.3668196201324463,0.035895638167858124,2.889815092086792,0.5408440828323364,30549.0,37585.0,35313.0,34849.0,0,0,0,0,34574.19921875,16.0,-1067.0,-1584.0
2.52,0.030350685119628906,-0.03301253169775009,0.5424730777740479,0.0,0.0,0.0,-0.9243120551109314,-0.3415899872779846,-1.359108328819275,0.036013323813676834,2.8897759914398193,0.5435275435447693,33095.0,36705.0,33553.0,36267.0,0,0,0,0,34905.703125,-1554.0,-596.0,-1599.0
2.54,0.02622131258249283,-0.033900514245033264,0.5444826483726501,0.0,0.0,0.0,-0.9683657288551331,-0.49245622754096985,-1.3326079845428467,0.036011382937431335,2.8897740840911865,0.5453516840934753,34015.0,38179.0,33253.0,35621.0,0,0,0,0,35267.0703125,202.0,-1210.0,-1617.0
2.56,0.02475101873278618,-0.03354337811470032,0.546118438243866,0.0,0.0,0.0,-1.0104382038116455,-0.6825424432754517,-1.3043814897537231,0.03601256012916565,2.889775276184082,0.5467885732650757,32744.0,38470.0,34524.0,35090.0,0,0,0,0,35207.74609375,-1263.0,-723.0,-1646.0
2.58,0.024627074599266052,-0.03309045732021332,0.5501136183738708,0.0,0.0,0.0,-1.045667052268982,-0.8803787231445312,-1.2792001962661743,0.03602581098675728,2.889770746231079,0.5507229566574097,33895.0,37419.0,34011.0,37035.0,0,0,0,0,35590.47265625,-150.0,265.0,-1605.0
2.6,0.022655649110674858,-0.032990992069244385,0.5512481927871704,0.0,0.0,0.0,-1.0657670497894287,-1.0364094972610474,-1.255039930343628,0.036027707159519196,2.889772891998291,0.5516764521598816,34243.0,38225.0,34709.0,36787.0,0,0,0,0,35991.11328125,-1305.0,196.0,-1509.0
2.62,0.020795447751879692,-0.031805314123630524,0.5520144104957581,0.0,0.0,0.0,-1.0691533088684082,-1.1945496797561646,-1.2320287227630615,0.036029327660799026,2.8897743225097656,0.5522640347480774,34216.0,38710.0,34668.0,36218.0,0,0,0,0,35953.25390625,-685.0,-851.0,-1487.0
2.64,0.021225258708000183,-0.029667088761925697,0.553898811340332,0.0,0.0,0.0,-1.0302964448928833,-1.3153389692306519,-1.197026014328003,0.03570510074496269,2.889882802963257,0.5540642142295837,33856.0,39502.0,35936.0,36686.0,0,0,0,0,36495.73046875,-744.0,-1740.0,-1575.0
2.66,0.018376637250185013,-0.030191028490662575,0.5541545748710632,0.0,0.0,0.0,-0.9882381558418274,-1.3815577030181885,-1.1667293310165405,0.03570523113012314,2.889883041381836,0.554172694683075,34291.0,40477.0,36157.0,36467.0,0,0,0,0,36848.25,-1370.0,-1786.0,-1631.0
2.68,0.016584312543272972,-0.029999377205967903,0.5541205406188965,0.0,0.0,0.0,-0.9625502228736877,-1.4480644464492798,-1.1474273204803467,0.03570512682199478,2.889883041381836,0.5540050864219666,35067.0,40051.0,35941.0,37125.0,0,0,0,0,37046.33984375,-675.0,643.0,-1549.0
2.7,0.015819722786545753,-0.028345569968223572,0.5534814596176147,0.0,0.0,0.0,-0.9054655432701111,-1.4801205396652222,-1.128196358680725,0.035445116460323334,2.8899688720703125,0.5532459020614624,35129.0,39913.0,36859.0,38163.0,0,0,0,0,37516.82421875,-714.0,-1958.0,-1509.0
2.72,0.013808765448629856,-0.02798556163907051,0.5529608726501465,0.0,0.0,0.0,-0.8212280869483948,-1.5013829469680786,-1.1033624410629272,0.0354449525475502,2.8899686336517334,0.5526356101036072,35757.0,41819.0,36507.0,36957.0,0,0,0,0,37760.35546875,325.0,-1179.0,-1610.0
2.74,0.013183577917516232,-0.02640930563211441,0.5522756576538086,0.0,0.0,0.0,-0.7881247401237488,-1.5124855041503906,-1.0843666791915894,0.03545256331562996,2.8899664878845215,0.5517094135284424,35912.0,41336.0,36888.0,37752.0,0,0,0,0,37972.48046875,-502.0,-1750.0,-1601.0
2.76,0.011088024824857712,-0.026423688977956772,0.5505090951919556,0.0,0.0,0.0,-0.7090288996696472,-1.475536584854126,-1.07526433467865,0.03528912365436554,2.890019416809082,0.5500457286834717,35114.0,41906.0,37986.0,37866.0,0,0,0,0,38218.7265625,-1972.0,-1427.0,-1687.0
2.78,0.01035675872117281,-0.02335513010621071,0.5495293140411377,0.0,0.0,0.0,-0.6620963215827942,-1.4513300657272339,-1.0626823902130127,0.03528841212391853,2.890018939971924,0.5490545630455017,36016.0,41450.0,36988.0,38746.0,0,0,0,0,38300.8515625,-156.0,-2585.0,-1768.0
2.8,0.010366315953433514,-0.02195819839835167,0.5485858917236328,0.0,0.0,0.0,-0.5729515552520752,-1.4290543794631958,-1.0666162967681885,0.0353177972137928,2.8900091648101807,0.5473617911338806,36624.0,41154.0,36860.0,39306.0,0,0,0,0,38486.3203125,-1226.0,-2648.0,-1746.0
2.82,0.009696670807898045,-0.019086606800556183,0.5456327199935913,0.0,0.0,0.0,-0.5052290558815002,-1.3890811204910278,-1.0778435468673706,0.03507224842905998,2.8900885581970215,0.5450938940048218,36616.0,41298.0,37180.0,39582.0,0,0,0,0,38669.296875,-819.0,-2511.0,-1739.0
2.84,0.008944150991737843,-0.016422180458903313,0.544579803943634,0.0,0.0,0.0,-0.4127807915210724,-1.3056764602661133,-1.0876950025558472,0.03507184609770775,2.8900885581970215,0.5440889000892639,36389.0,41609.0,37351.0,39127.0,0,0,0,0,38619.765625,-787.0,-1159.0,-1700.0
2.86,0.009679756127297878,-0.01532445102930069,0.5436252951622009,0.0,0.0,0.0,-0.26435381174087524,-1.2428020238876343,-1.0984176397323608,0.03507118299603462,2.890087842941284,0.543192446231842,36514.0,42632.0,36896.0,38042.0,0,0,0,0,38521.37890625,-11.0,-3218.0,-1841.0
2.88,0.012471328489482403,-0.011729626916348934,0.5402544140815735,0.0,0.0,0.0,-0.12356031686067581,-1.2060556411743164,-1.1004559993743896,0.0347636342048645,2.890185594558716,0.5377165079116821,36230.0,42208.0,38514.0,39920.0,0,0,0,0,39218.36328125,-548.0,-1643.0,-1853.0
2.9,0.011691290885210037,-0.010886294767260551,0.5371631383895874,0.0,0.0,0.0,0.04442627355456352,-1.1175931692123413,-1.1176306009292603,0.03476254642009735,2.8901844024658203,0.5366443991661072,35774.0,42072.0,38752.0,39850.0,0,0,0,0,39112.65625,270.0,-3257.0,-1906.0
2.92,0.011795849539339542,-0.00839129276573658,0.5361652970314026,0.0,0.0,0.0,0.167679101228714,-0.9796783328056335,-1.1367249488830566,0.03475990891456604,2.8901820182800293,0.535720944404602,37393.0,43205.0,36817.0,38509.0,0,0,0,0,38981.69140625,-2063.0,-2569.0,-1887.0
2.94,0.01495602261275053,-0.0059868642129004,0.5342276692390442,0.0,0.0,0.0,0.27918532490730286,-0.8684370517730713,-1.1568949222564697,0.034796830266714096,2.890169858932495,0.5338351130485535,36282.0,42906.0,38608.0,39352.0,0,0,0,0,39287.55859375,-680.0,-3362.0,-1861.0
2.96,0.016123635694384575,-0.007920187897980213,0.5315524339675903,0.0,0.0,0.0,0.5088900327682495,-0.7341085076332092,-1.1756572723388672,0.034454260021448135,2.890281915664673,0.5311824679374695,36409.0,42087.0,37939.0,39861.0,0,0,0,0,39074.98828125,-958.0,-461.0,-1917.0
2.98,0.015368049964308739,-0.002719469601288438,0.5308689475059509,0.0,0.0,0.0,0.6609199047088623,-0.5726751089096069,-1.1907249689102173,0.03445266932249069,2.8902804851531982,0.5306159257888794,36690.0,42010.0,37004.0,39600.0,0,0,0,0,38826.25390625,-452.0,-307.0,-1991.0
3.0,0.016064796596765518,-0.001393689657561481,0.5296045541763306,0.0,0.0,0.0,0.7455410957336426,-0.3958915174007416,-1.209595799446106,0.0340636745095253,2.890407085418701,0.5272273421287537,23870.0,57048.0,50376.0,24922.0,0,0,0,0,39054.484375,-1865.0,-27658.0,-1931.0
3.02,0.017470303922891617,0.0015071879606693983,0.5270189046859741,0.0,0.0,0.0,0.8277799487113953,-0.23733118176460266,-1.233797550201416,0.03406129032373428,2.8904049396514893,0.5268665552139282,32935.0,44457.0,40873.0,36991.0,0,0,0,0,38814.0859375,-800.0,-6950.0,-1889.0
3.04,0.020128272473812103,0.006188401952385902,0.5267771482467651,0.0,0.0,0.0,0.8850088715553284,-0.22276094555854797,-1.2460064888000488,0.03405439853668213,2.8903985023498535,0.5267692804336548,41317.0,35361.0,32101.0,44921.0,0,0,0,0,38425.54296875,-705.0,9429.0,-1739.0
3.06,0.021363865584135056,0.005076754838228226,0.5257012844085693,0.0,0.0,0.0,0.8346167802810669,-1.6542476415634155,-1.2242960929870605,0.03408947214484215,2.890382766723633,0.5258039832115173,40347.0,38711.0,32243.0,41815.0,0,0,0,0,38279.80859375,-2731.0,4968.0,-2026.0
3.08,0.0237575713545084,0.004824429750442505,0.525571346282959,0.0,0.0,0.0,0.7799218893051147,-4.496903896331787,-1.1727834939956665,0.03401455283164978,2.8904080390930176,0.5258040428161621,36950.0,41660.0,34542.0,38480.0,0,0,0,0,37908.5390625,-3562.0,-2495.0,-2194.0
3.1,0.025588152930140495,0.005630864761769772,0.5261275768280029,0.0,0.0,0.0,0.9023022055625916,-7.244436264038086,-1.1737067699432373,0.034015409648418427,2.890408754348755,0.5264742374420166,34170.0,42284.0,37030.0,37048.0,0,0,0,0,37633.15234375,-206.0,-3282.0,-2027.0
3.12,0.026168549433350563,0.0042898887768387794,0.5268925428390503,0.0,0.0,0.0,1.0143440961837769,-9.314424514770508,-1.1804643869400024,0.033978529274463654,2.8904237747192383,0.528536319732666,33519.0,40493.0,37551.0,38589.0,0,0,0,0,37538.28125,1768.0,-3555.0,-2035.0
3.14,0.025163400918245316,0.007150394842028618,0.5273563861846924,0.0,0.0,0.0,0.8909266591072083,-10.820287704467773,-1.180540919303894,0.03368787094950676,2.8905162811279297,0.5277332663536072,33658.0,41112.0,37278.0,37932.0,0,0,0,0,37495.875,731.0,-3400.0,-2039.0
3.16,0.029490962624549866,0.008682036772370338,0.5281755328178406,0.0,0.0,0.0,0.6175017356872559,-12.063210487365723,-1.187004804611206,0.03368980810046196,2.8905179500579834,0.5285500288009644,34188.0,40636.0,35236.0,36568.0,0,0,0,0,36657.0234375,-1242.0,-2352.0,-1963.0
3.18,0.034287817776203156,0.00793539360165596,0.5337952375411987,0.0,0.0,0.0,0.4018193483352661,-13.18521785736084,-1.1870797872543335,0.03351420909166336,2.8905694484710693,0.5343867540359497,36351.0,40181.0,35345.0,39075.0,0,0,0,0,37738.3984375,-347.0,-513.0,-1887.0
3.2,0.038978081196546555,0.008263212628662586,0.5286568403244019,0.0,0.0,0.0,0.31143856048583984,-14.252402305603027,-1.1907343864440918,0.03251001611351967,2.8909029960632324,0.5288957357406616,36574.0,41298.0,35812.0,38040.0,0,0,0,0,37931.14453125,-1343.0,-1998.0,-1723.0
3.22,0.04319768026471138,0.006479139905422926,0.5345116853713989,0.0,0.0,0.0,0.32407069206237793,-15.192057609558105,-1.163536787033081,0.032296545803546906,2.8909785747528076,0.5349603891372681,34622.0,39396.0,36168.0,38246.0,0,0,0,0,37108.71875,-182.0,-2865.0,-1719.0
3.24,0.050570596009492874,0.007667903322726488,0.5353515148162842,0.0,0.0,0.0,0.3264591693878174,-15.998750686645508,-1.1307481527328491,0.0323096439242363,2.890990734100342,0.5357472896575928,34792.0,40160.0,36216.0,38088.0,0,0,0,0,37314.234375,676.0,-1507.0,-1803.0
3.26,0.05642049014568329,0.00876525603234768,0.5360262989997864,0.0,0.0,0.0,0.21594150364398956,-16.673778533935547,-1.1033101081848145,0.032309357076883316,2.953594923019409,0.5362818241119385,35909.0,41111.0,35761.0,37675.0,0,0,0,0,37614.7734375,-1616.0,-2078.0,-1799.0
3.28,0.06445743888616562,0.008707042783498764,0.5364328622817993,0.0,0.0,0.0,0.09292233735322952,-17.197471618652344,-1.0815560817718506,0.03224441036581993,2.9565422534942627,0.5402674078941345,34839.0,41785.0,36271.0,36077.0,0,0,0,0,37243.52734375,-1884.0,-4136.0,-1687.0
3.3,0.07492642849683762,0.009290116839110851,0.5404664278030396,0.0,0.0,0.0,0.007563005201518536,-17.518396377563477,-1.0626665353775024,0.032265305519104004,3.012272357940674,0.5407301187515259,35193.0,40797.0,36697.0,37361.0,0,0,0,0,37512.54296875,-1351.0,-2864.0,-1556.0
3.32,0.08654376119375229,0.008755437098443508,0.5407282114028931,0.0,0.0,0.0,0.030090512707829475,-17.569520950317383,-1.0276824235916138,0.03223838284611702,3.0144922733306885,0.5435421466827393,34532.0,40046.0,36976.0,37846.0,0,0,0,0,37350.5390625,-601.0,-2895.0,-1582.0
3.34,0.10126461088657379,0.008289754390716553,0.5435147285461426,0.0,0.0,0.0,0.052354197949171066,-17.370946884155273,-0.9819058179855347,0.032193608582019806,3.014425039291382,0.5436617136001587,34529.0,41157.0,37461.0,37433.0,0,0,0,0,37645.046875,-985.0,-3209.0,-1675.0
3.36,0.11220049858093262,0.008769342675805092,0.5434838533401489,0.0,0.0,0.0,0.003373708575963974,-16.992576599121094,-0.9504571557044983,0.03224577009677887,3.0185582637786865,0.5435697436332703,34777.0,41703.0,37711.0,37621.0,0,0,0,0,37953.140625,-822.0,-4671.0,-1700.0
3.38,0.12493201345205307,0.010703656822443008,0.543353796005249,0.0,0.0,0.0,-0.08096937090158463,-16.43948745727539,-0.9432682991027832,0.10436675697565079,3.0186049938201904,0.5433729290962219,35289.0,41553.0,37917.0,38073.0,0,0,0,0,38208.13671875,135.0,-3510.0,-1580.0
3.4,0.13811956346035004,0.010782407596707344,0.5430562496185303,0.0,0.0,0.0,-0.11347450315952301,-15.717049598693848,-0.9231330156326294,0.10438337177038193,3.0186190605163574,0.5429686307907104,35184.0,42464.0,38446.0,37558.0,0,0,0,0,38413.74609375,-686.0,-4237.0,-1595.0
3.42,0.14802080392837524,0.01066351868212223,0.5414682626724243,0.0,0.0,0.0,-0.11372049897909164,-14.85571002960205,-0.8845061659812927,0.10381273180246353,3.023890972137451,0.5414261221885681,35390.0,43186.0,38970.0,37666.0,0,0,0,0,38803.14453125,-699.0,-4645.0,-1631.0
3.44,0.15702694654464722,0.010708179324865341,0.5410588979721069,0.0,0.0,0.0,-0.10088817775249481,-13.91207218170166,-0.8524770140647888,0.4153180718421936,3.0246376991271973,0.54173344373703,34877.0,43413.0,39403.0,37311.0,0,0,0,0,38751.046875,-1905.0,-4142.0,-1648.0
3.46,0.15120886266231537,0.009700180031359196,0.5413925051689148,0.0,0.0,0.0,-0.06611441820859909,-12.813583374023438,-0.8116949796676636,0.41804805397987366,3.0213005542755127,0.5444682240486145,34539.0,43287.0,38319.0,36479.0,0,0,0,0,38156.6171875,-1087.0,-5885.0,-1731.0
3.48,0.1534120887517929,0.00535953976213932,0.5459997653961182,0.0,0.0,0.0,0.00899151898920536,-11.738334655761719,-0.7715907096862793,0.4141658544540405,3.0227653980255127,0.5468655228614807,33947.0,41877.0,37903.0,36645.0,0,0,0,0,37593.9140625,-372.0,-5345.0,-1662.0
3.5,0.1397760957479477,0.0023603469599038363,0.5475621223449707,0.0,0.0,0.0,0.07020636647939682,-10.65209674835205,-0.7448982000350952,0.415770024061203,3.0240261554718018,0.54888916015625,32666.0,41372.0,38446.0,36676.0,0,0,0,0,37290.90234375,-498.0,-5058.0,-1702.0
3.52,0.11864575743675232,0.005795829463750124,0.5535331964492798,0.0,0.0,0.0,0.056026212871074677,-9.559995651245117,-0.7529703378677368,0.42020899057388306,3.024892807006836,0.5595827698707581,30504.0,41162.0,36942.0,33752.0,0,0,0,0,35590.25,-798.0,-6106.0,-1850.0
3.54,0.09969604760408401,-8.027232979657128e-05,0.560169517993927,0.0,0.0,0.0,0.051076047122478485,-8.609390258789062,-0.7231802344322205,0.41857007145881653,3.0235629081726074,0.5586609244346619,33896.0,39830.0,33848.0,35498.0,0,0,0,0,35768.5703125,-2354.0,-1804.0,-1882.0
3.56,0.18822023272514343,0.004365165252238512,0.557953953742981,0.0,0.0,0.0,-0.05033761262893677,-8.535624504089355,-0.8126024603843689,0.4156576693058014,3.0211920738220215,0.5557695031166077,35192.0,38528.0,33730.0,37734.0,0,0,0,0,36296.66015625,-1705.0,-653.0,-1874.0
3.58,0.27035942673683167,0.0031140802893787622,0.5647649765014648,0.0,0.0,0.0,-0.08243346214294434,-8.513550758361816,-0.8519459366798401,0.41495048999786377,3.0225183963775635,0.5626760721206665,33859.0,37379.0,32989.0,37001.0,0,0,0,0,35307.2109375,-2134.0,-1336.0,-1922.0
3.6,0.3510468006134033,0.010969211347401142,0.5626281499862671,0.0,0.0,0.0,-0.15072762966156006,-8.421602249145508,-0.9347013235092163,0.41292357444763184,0.86204993724823,0.5609821081161499,32335.0,38703.0,35599.0,36863.0,0,0,0,0,35875.125,254.0,-4280.0,-1920.0
3.62,0.3847114145755768,0.018339848145842552,0.5630055069923401,0.0,0.0,0.0,-0.19812987744808197,-7.584570407867432,-0.9896626472473145,0.415683388710022,0.865563690662384,0.5655762553215027,28029.0,42433.0,39369.0,32849.0,0,0,0,0,35670.6328125,914.0,-10381.0,-1908.0
3.64,0.356410413980484,0.029070153832435608,0.5615969896316528,0.0,0.0,0.0,-0.2071833312511444,-5.932215213775635,-1.0302879810333252,0.41725555062294006,0.8647652864456177,0.5645771026611328,29524.0,47422.0,38716.0,29278.0,0,0,0,0,36235.53515625,-3632.0,-15253.0,-2074.0
3.66,0.3036617338657379,-0.002753793029114604,0.5660714507102966,0.0,0.0,0.0,0.1434071958065033,-3.791149139404297,-0.8448996543884277,0.4187774062156677,0.7806203961372375,0.5667527318000793,32112.0,42568.0,36956.0,34044.0,0,0,0,0,36420.82421875,-2958.0,-6483.0,-1806.0
3.68,0.29270654916763306,-0.0071030547842383385,0.5677780508995056,0.0,0.0,0.0,0.35838234424591064,-2.1159610748291016,-0.8570923209190369,0.42157140374183655,0.7844381928443909,0.5708332061767578,31494.0,41032.0,37182.0,35136.0,0,0,0,0,36211.03125,76.0,-4185.0,-1878.0
3.7,0.24986737966537476,-0.0005064544384367764,0.5671822428703308,0.0,0.0,0.0,0.35796278715133667,-0.9558408260345459,-0.8723613023757935,0.42047640681266785,0.7814562916755676,0.5669248700141907,32885.0,40823.0,36151.0,37821.0,0,0,0,0,36920.82421875,1106.0,-3713.0,-2122.0
3.72,0.2727675437927246,0.0027878405526280403,0.5669127106666565,0.0,0.0,0.0,0.15492066740989685,-0.8899641036987305,-0.9103081226348877,0.42039528489112854,0.7781573534011841,0.5664235949516296,32942.0,41764.0,36956.0,36934.0,0,0,0,0,37149.9921875,-341.0,-5061.0,-1903.0
3.74,0.30289044976234436,0.0019027432426810265,0.5659777522087097,0.0,0.0,0.0,-0.05907164141535759,-1.1825175285339355,-0.9422517418861389,0.42006155848503113,0.7777162790298462,0.5652966499328613,33740.0,43426.0,36706.0,35596.0,0,0,0,0,37367.32421875,-1200.0,-5118.0,-1994.0
3.76,0.3319043219089508,-1.989772863453254e-05,0.5649359226226807,0.0,0.0,0.0,-0.17829890549182892,-1.4482131004333496,-0.9499807357788086,0.07955368608236313,0.7773894667625427,0.5641640424728394,34038.0,42850.0,36652.0,36528.0,0,0,0,0,37517.5390625,-1286.0,-4834.0,-1983.0
3.78,0.36095842719078064,-0.00026936529320664704,0.5620043277740479,0.0,0.0,0.0,-0.21405825018882751,-1.570552945137024,-0.9707112312316895,0.07753662765026093,0.7805327773094177,0.5610623955726624,36198.0,42028.0,36176.0,37522.0,0,0,0,0,37981.99609375,-728.0,-3437.0,-1824.0
3.8,0.40014228224754333,-0.0007598421070724726,0.5601513981819153,0.0,0.0,0.0,-0.24225759506225586,-1.7029035091400146,-0.9775993824005127,0.07723665982484818,0.780258059501648,0.5597304105758667,33564.0,42086.0,38754.0,37760.0,0,0,0,0,38041.62890625,1987.0,-4126.0,-1995.0
3.82,0.4260860085487366,-0.0002089233894366771,0.5588979721069336,0.0,0.0,0.0,-0.3114120364189148,-1.714841365814209,-0.9737186431884766,0.08242611587047577,0.7774044871330261,0.553517758846283,35241.0,43159.0,37493.0,39731.0,0,0,0,0,38906.19140625,-905.0,-2953.0,-2242.0
3.84,0.44761601090431213,-0.001392941689118743,0.5481348037719727,0.0,0.0,0.0,-0.47750139236450195,-1.636724591255188,-0.9897792935371399,0.07876943051815033,0.7797484397888184,0.5474305748939514,35312.0,42956.0,38248.0,41600.0,0,0,0,0,39529.49609375,-56.0,-5373.0,-2391.0
3.86,0.472608745098114,-0.00011889010784216225,0.5462566018104553,0.0,0.0,0.0,-0.6264045834541321,-1.5938836336135864,-1.041985273361206,0.07854554802179337,0.7795445322990417,0.5455498099327087,33052.0,46418.0,39842.0,38604.0,0,0,0,0,39479.43359375,-1842.0,-9091.0,-2295.0
3.88,0.4990352392196655,-0.0010067718103528023,0.5444190502166748,0.0,0.0,0.0,-0.7552935481071472,-1.4851535558700562,-1.1015772819519043,0.07790122926235199,0.7767390012741089,0.5385931134223938,34165.0,46595.0,40769.0,38983.0,0,0,0,0,40128.55859375,971.0,-4143.0,-2232.0
3.9,0.5206254124641418,-0.0008374180179089308,0.5336579084396362,0.0,0.0,0.0,-0.7157387733459473,-1.1293829679489136,-1.1423466205596924,0.07502079755067825,0.7773135304450989,0.5329003930091858,36990.0,43922.0,40040.0,40740.0,0,0,0,0,40423.4921875,653.0,-1438.0,-1909.0
3.92,0.5483231544494629,-0.0013530878350138664,0.5315755009651184,0.0,0.0,0.0,-0.7205249667167664,-0.8024194836616516,-1.153564691543579,0.0749041736125946,0.7772062420845032,0.5312217473983765,37453.0,42705.0,39551.0,40491.0,0,0,0,0,40050.48828125,-389.0,-2868.0,-1877.0
3.94,0.5743944644927979,-0.0015944166807457805,0.529984176158905,0.0,0.0,0.0,-0.7499191761016846,-0.6660138964653015,-1.1235281229019165,0.07470093667507172,0.777020275592804,0.5298559069633484,36310.0,45234.0,40566.0,36898.0,0,0,0,0,39752.1875,-2009.0,-6081.0,-1826.0
3.96,0.5964730381965637,-0.00241309916600585,0.5238529443740845,0.0,0.0,0.0,-0.7302384972572327,-0.5781179070472717,-1.0801401138305664,0.07162284106016159,0.7767089605331421,0.5236173272132874,35754.0,44998.0,40966.0,37222.0,0,0,0,0,39735.84765625,-777.0,-6004.0,-1883.0
3.98,0.6218819618225098,-0.004208331927657127,0.5229297876358032,0.0,0.0,0.0,-0.6210330724716187,-0.35953179001808167,-1.0341140031814575,0.07153124362230301,0.7766242623329163,0.5229726433753967,34661.0,43229.0,40227.0,38859.0,0,0,0,0,39244.12109375,-336.0,-4620.0,-1970.0
4.0,0.6466166973114014,-0.003932459745556116,0.522483766078949,0.0,0.0,0.0,-0.5651223659515381,-0.07775584608316422,-1.0133646726608276,0.07149112969636917,0.7765871286392212,0.5228077173233032,34696.0,43848.0,38996.0,37628.0,0,0,0,0,38792.76171875,-682.0,-4188.0,-2030.0
4.02,0.670900285243988,-0.0027038478292524815,0.5194545388221741,0.0,0.0,0.0,-0.6028106212615967,0.13043251633644104,-1.0082478523254395,0.06930763274431229,0.7756315469741821,0.5178137421607971,34516.0,45090.0,39584.0,36954.0,0,0,0,0,39036.953125,288.0,-5624.0,-1929.0
4.04,0.6927905082702637,-0.0018680543871596456,0.517568826675415,0.0,0.0,0.0,-0.6252378225326538,0.3201958239078522,-1.010472059249878,0.0692644715309143,0.775591254234314,0.518004834651947,35050.0,42752.0,39044.0,37646.0,0,0,0,0,38623.5390625,-816.0,-5045.0,-1898.0
4.06,0.7140990495681763,-0.002765677170827985,0.518060564994812,0.0,0.0,0.0,-0.5789018273353577,0.5512721538543701,-0.9865981340408325,0.06930065155029297,0.7756244540214539,0.5186225771903992,33944.0,42390.0,39354.0,37308.0,0,0,0,0,38249.73046875,-336.0,-3870.0,-1807.0
4.08,0.7374135255813599,-0.0025632851757109165,0.5185958743095398,0.0,0.0,0.0,-0.5365688800811768,0.7039692401885986,-0.9646451473236084,0.06822869926691055,0.7758376002311707,0.5174243450164795,34183.0,41191.0,38935.0,38223.0,0,0,0,0,38133.83984375,-154.0,-6079.0,-1783.0
4.1,0.7592797875404358,0.00022054951114114374,0.5176886916160583,0.0,0.0,0.0,-0.5016812682151794,0.805221438407898,-0.942846417427063,0.06829401105642319,0.775898277759552,0.5184804797172546,33955.0,42109.0,38443.0,36497.0,0,0,0,0,37751.86328125,-1609.0,-5616.0,-1799.0
4.12,0.7763786911964417,-0.0005923656863160431,0.5190257430076599,0.0,0.0,0.0,-0.4694688618183136,0.8496058583259583,-0.9157825112342834,0.06840784847736359,0.7760040760040283,0.5198632478713989,33274.0,41342.0,38130.0,36834.0,0,0,0,0,37395.24609375,-906.0,-4815.0,-1718.0
4.14,0.7977277636528015,0.000600401486735791,0.5196033716201782,0.0,0.0,0.0,-0.40430933237075806,0.8279958963394165,-0.8853961229324341,0.06827116012573242,0.775773286819458,0.5204436182975769,34203.0,42179.0,37425.0,35245.0,0,0,0,0,37263.05859375,622.0,-5262.0,-1749.0
4.16,0.8166617751121521,-0.0010104130487889051,0.521133542060852,0.0,0.0,0.0,-0.285129189491272,0.8213565349578857,-0.8487032651901245,0.06834639608860016,1.8255586624145508,0.5220293998718262,33056.0,41080.0,38068.0,35904.0,0,0,0,0,37027.30078125,-143.0,-5032.0,-1765.0
4.18,0.8373087644577026,0.002751838881522417,0.522708535194397,0.0,0.0,0.0,-0.20798243582248688,0.8016256093978882,-0.8218340277671814,0.06840149313211441,1.825648546218872,0.523695707321167,34093.0,40325.0,36771.0,36195.0,0,0,0,0,36846.0390625,-701.0,-4081.0,-1703.0
4.2,0.8559901118278503,0.00017088692402467132,0.5249595642089844,0.0,0.0,0.0,-0.10557553917169571,0.7642518281936646,-0.7924769520759583,0.06852755695581436,1.8261123895645142,0.5259097814559937,32958.0,40120.0,36950.0,36412.0,0,0,0,0,36610.59765625,478.0,-4885.0,-1598.0
4.22,0.8768325448036194,-6.568984827026725e-05,0.5266503691673279,0.0,0.0,0.0,-1.5191645616141614e-05,0.6273800730705261,-0.75592041015625,0.0684424340724945,2.9497644901275635,0.5274149179458618,32220.0,41814.0,37894.0,34172.0,0,0,0,0,36525.65625,-489.0,-4008.0,-1557.0
4.24,0.8953580260276794,0.0013166008284315467,0.5283949375152588,0.0,0.0,0.0,0.08170691132545471,0.49038460850715637,-0.711797297000885,0.0684984102845192,2.949862003326416,0.5291497707366943,33227.0,39911.0,36793.0,36157.0,0,0,0,0,36522.08203125,16.0,-4195.0,-1498.0
4.26,0.9155007004737854,0.002636037301272154,0.532965898513794,0.0,0.0,0.0,0.16951872408390045,0.40999001264572144,-0.6585427522659302,0.06889388710260391,2.9522359371185303,0.5338785648345947,32358.0,39372.0,37518.0,34676.0,0,0,0,0,35981.4921875,170.0,-3779.0,-1581.0
4.28,0.9314705729484558,0.0007296789553947747,0.5349875688552856,0.0,0.0,0.0,0.22426137328147888,0.32407912611961365,-0.6054258942604065,0.06892359256744385,2.949674367904663,0.5357916355133057,31948.0,40502.0,37062.0,34588.0,0,0,0,0,36025.28125,-107.0,-4540.0,-1461.0
4.3,0.9517690539360046,0.0005763786030001938,0.5367307662963867,0.0,0.0,0.0,0.22147834300994873,0.18381281197071075,-0.5653793811798096,0.06894911080598831,2.949733018875122,0.5375195741653442,33116.0,39294.0,36376.0,35650.0,0,0,0,0,36109.74609375,-1658.0,-4362.0,-1419.0
4.32,0.9722775220870972,0.0016337863635271788,0.5391582250595093,0.0,0.0,0.0,0.2128908336162567,0.03901049122214317,-0.5178115963935852,0.06902183592319489,2.950282573699951,0.5399195551872253,33763.0,39327.0,35715.0,35563.0,0,0,0,0,36092.09375,-1061.0,-4619.0,-1357.0
4.34,0.9909471869468689,0.002359871519729495,0.5406351685523987,0.0,0.0,0.0,0.2208225280046463,-0.06617423892021179,-0.46086686849594116,0.06902626901865005,2.9508140087127686,0.5412924885749817,33145.0,40455.0,36585.0,34823.0,0,0,0,0,36252.8125,-802.0,-3019.0,-1404.0
4.36,1.0074769258499146,0.0029918986838310957,0.5420129895210266,0.0,0.0,0.0,0.2523594796657562,-0.07212122529745102,-0.40580710768699646,0.06903356313705444,2.95084810256958,0.5425611138343811,33258.0,40622.0,36840.0,34940.0,0,0,0,0,36415.87109375,-836.0,-4082.0,-1384.0
