time,x_kalman,y_kalman,z_kalman,x_lh,y_lh,z_lh,roll,pitch,yaw,F,R,Z,motor.m1,motor.m2,motor.m3,motor.m4,rpm.m1,rpm.m2,rpm.m3,rpm.m4,controller.cmd_thrust,controller.cmd_roll,controller.cmd_pitch,controller.cmd_yaw
0.0,-0.060183849185705185,-0.2301853448152542,0.00865066610276699,0.0,0.0,0.0,0.06799432635307312,0.007967681623995304,-0.00261849258095026,-0.002797348890453577,2.88076114654541,0.00852228980511427,58353.0,65535.0,39755.0,32545.0,0,0,0,0,57552.703125,-26116.0,-6528.0,-55.0
0.02,-0.061516836285591125,-0.23524610698223114,0.011276493780314922,0.0,0.0,0.0,0.029927385970950127,0.010864201933145523,-0.004422353580594063,-0.0029171330388635397,2.8808796405792236,0.011311199516057968,60687.0,65535.0,40457.0,35785.0,0,0,0,0,57995.90625,-24309.0,-7815.0,182.0
0.04,-0.06368423998355865,-0.24361702799797058,0.011352172121405602,0.0,0.0,0.0,0.01913539692759514,-0.026538975536823273,-0.008014127612113953,-0.0029171330388635397,2.8808796405792236,0.011399325914680958,60329.0,65535.0,52265.0,46283.0,0,0,0,0,58422.26953125,-5253.0,-7877.0,318.0
0.06,-0.06578201055526733,-0.25171878933906555,0.011712746694684029,0.0,0.0,0.0,-0.12982353568077087,-0.07137706130743027,0.014452479779720306,-0.0029224331956356764,2.880885362625122,0.01194679830223322,41989.0,44161.0,65535.0,60143.0,0,0,0,0,58024.921875,20819.0,-1725.0,442.0
0.08,-0.0677984356880188,-0.25950828194618225,0.013044342398643494,0.0,0.0,0.0,-1.6883528232574463,-0.07636924088001251,0.09990287572145462,-0.002824058523401618,2.8807880878448486,0.013994806446135044,51133.0,51815.0,61121.0,61207.0,0,0,0,0,56319.69921875,5022.0,-3208.0,-2807.0
0.1,0.07845704257488251,0.1689538061618805,0.01660812646150589,0.0,0.0,0.0,-8.939727783203125,-1.7472151517868042,-0.010044315829873085,-0.002480973256751895,2.8807570934295654,0.013640574179589748,32615.0,25435.0,58047.0,65535.0,0,0,0,0,55419.8046875,22691.0,12920.0,-354.0
0.12,0.15201587975025177,0.02673790603876114,0.01971445232629776,0.0,0.0,0.0,-10.850791931152344,-3.2104570865631104,-0.2515518069267273,-0.0015544216148555279,2.8812148571014404,0.022652186453342438,65535.0,53673.0,34875.0,45317.0,0,0,0,0,51408.2421875,-27476.0,-2662.0,40.0
0.14,0.13672469556331635,0.024222485721111298,0.026425398886203766,0.0,0.0,0.0,-11.21011734008789,-3.669830560684204,-0.27856650948524475,-0.001503339153714478,2.8813488483428955,0.030646009370684624,45286.0,58856.0,49980.0,37758.0,0,0,0,0,47970.24609375,-3929.0,-13588.0,-1209.0
0.16,0.03685098886489868,0.07467787712812424,0.03662635013461113,0.0,0.0,0.0,-8.681126594543457,-2.1313297748565674,-0.18495877087116241,0.024776102975010872,2.881448745727539,0.04200659692287445,29653.0,46085.0,59577.0,46293.0,0,0,0,0,45402.01953125,11348.0,-8925.0,-1483.0
0.18,0.02042837254703045,0.11179152876138687,0.0459895096719265,0.0,0.0,0.0,-6.319301128387451,-0.17290513217449188,-0.04128070920705795,0.02321273274719715,2.8812787532806396,0.052223701030015945,34875.0,45797.0,48683.0,42957.0,0,0,0,0,43078.3359375,945.0,-6841.0,-1102.0
0.2,0.002503653522580862,0.11048295348882675,0.06017664447426796,0.0,0.0,0.0,-4.590243339538574,1.29705810546875,-0.12999753654003143,0.029396962374448776,2.9626145362854004,0.06568985432386398,43286.0,44496.0,35624.0,38370.0,0,0,0,0,40444.62109375,-7298.0,-25.0,-964.0
0.22,0.008563186042010784,0.10533556342124939,0.07528601586818695,0.0,0.0,0.0,-2.241752862930298,1.4165363311767578,-0.2760978937149048,0.03109750710427761,2.9645206928253174,0.08319836854934692,42132.0,38912.0,31378.0,38666.0,0,0,0,0,37772.69921875,-4689.0,705.0,-1207.0
0.24,0.010878360830247402,0.10220404714345932,0.09391489624977112,0.0,0.0,0.0,0.7480989694595337,0.6362480521202087,-0.4066846966743469,0.032903194427490234,2.966557741165161,0.10240986943244934,34662.0,37498.0,32044.0,34700.0,0,0,0,0,34726.34375,-3221.0,1047.0,-1336.0
0.26,0.009640323929488659,0.10920695960521698,0.11803055554628372,0.0,0.0,0.0,3.4719576835632324,-0.47266581654548645,-0.5258596539497375,0.031180035322904587,2.958566427230835,0.12715409696102142,31095.0,37205.0,32631.0,31725.0,0,0,0,0,33164.92578125,-625.0,-1059.0,-1207.0
0.28,0.009526492096483707,0.1143709346652031,0.13649103045463562,0.0,0.0,0.0,5.5798797607421875,-1.4077776670455933,-0.6013826727867126,0.031274858862161636,2.9586915969848633,0.1456253081560135,28034.0,38808.0,34138.0,28496.0,0,0,0,0,32369.5390625,-2157.0,-8651.0,-1190.0
0.3,0.009258807636797428,0.12203358113765717,0.16000382602214813,0.0,0.0,0.0,7.255686283111572,-2.0131311416625977,-0.668006420135498,0.031214069575071335,2.9620044231414795,0.16927224397659302,26608.0,36336.0,33024.0,28068.0,0,0,0,0,31009.34375,-743.0,-3425.0,-1129.0
0.32,0.00920282956212759,0.12501609325408936,0.1783055067062378,0.0,0.0,0.0,8.550226211547852,-2.419510841369629,-0.7286059856414795,0.030703220516443253,2.963937759399414,0.18657800555229187,29096.0,33706.0,30806.0,30776.0,0,0,0,0,31096.5546875,-352.0,-306.0,-952.0
0.34,0.009289509616792202,0.126238614320755,0.19506825506687164,0.0,0.0,0.0,9.531916618347168,-2.9071569442749023,-0.7483584880828857,0.03076886013150215,2.964897632598877,0.2056296318769455,31348.0,33518.0,28600.0,30610.0,0,0,0,0,31019.62890625,-1238.0,771.0,-875.0
0.36,0.010479032061994076,0.13125446438789368,0.21381308138370514,0.0,0.0,0.0,10.268771171569824,-3.655583143234253,-0.6938982605934143,0.030567549169063568,2.9646921157836914,0.2219841033220291,32482.0,31404.0,28706.0,33364.0,0,0,0,0,31489.7265625,-1564.0,783.0,-994.0
0.38,0.01239145640283823,0.1337776780128479,0.22963538765907288,0.0,0.0,0.0,10.88217544555664,-4.566466331481934,-0.5958675146102905,0.028914010152220726,2.9678399562835693,0.23409128189086914,31538.0,35408.0,31992.0,31670.0,0,0,0,0,32652.5,-2152.0,-2813.0,-853.0
0.4,0.01211579330265522,0.12980090081691742,0.23654630780220032,0.0,0.0,0.0,11.306096076965332,-5.468545436859131,-0.49285995960235596,0.02765815332531929,2.9649760723114014,0.24331103265285492,33745.0,35115.0,32939.0,34737.0,0,0,0,0,34134.57421875,-1323.0,-1132.0,-628.0
0.42,0.01489523146301508,0.13108155131340027,0.24947865307331085,0.0,0.0,0.0,11.594985008239746,-6.2394633293151855,-0.41607117652893066,0.027422262355685234,2.9647297859191895,0.2556942105293274,34483.0,36525.0,33829.0,35119.0,0,0,0,0,34989.0390625,-1195.0,63.0,-851.0
0.44,0.017973363399505615,0.13224081695079803,0.2613507807254791,0.0,0.0,0.0,11.692691802978516,-6.973449230194092,-0.3493923842906952,0.027231601998209953,2.9645297527313232,0.26704341173171997,35299.0,37925.0,34683.0,35661.0,0,0,0,0,35892.16796875,-130.0,-598.0,-926.0
0.46,0.021615924313664436,0.13203725218772888,0.27165383100509644,0.0,0.0,0.0,11.637288093566895,-7.69558048248291,-0.30553779006004333,0.026109205558896065,2.96932053565979,0.2768380045890808,36857.0,38251.0,35145.0,36403.0,0,0,0,0,36664.91015625,-53.0,542.0,-905.0
0.48,0.02535230852663517,0.13228163123130798,0.2815876305103302,0.0,0.0,0.0,11.387749671936035,-8.295422554016113,-0.2722087800502777,0.02596958354115486,2.9691717624664307,0.2863449156284332,34656.0,41150.0,38060.0,34210.0,0,0,0,0,37019.69140625,-1191.0,-7124.0,-635.0
0.5,0.028544669970870018,0.13368111848831177,0.29297003149986267,0.0,0.0,0.0,11.034415245056152,-8.69157886505127,-0.2601773738861084,0.02640911191701889,2.9700558185577393,0.2974435091018677,36020.0,39420.0,37658.0,37134.0,0,0,0,0,37558.84375,-718.0,-1545.0,92.0
0.52,0.030059441924095154,0.12936820089817047,0.296843558549881,0.0,0.0,0.0,10.669144630432129,-8.849408149719238,-0.2735773026943207,0.024352770298719406,2.973361015319824,0.3011913597583771,39095.0,39239.0,35915.0,39215.0,0,0,0,0,38366.22265625,-275.0,2433.0,-681.0
0.54,0.04144132509827614,0.12979517877101898,0.3077012002468109,0.0,0.0,0.0,10.118943214416504,-9.289199829101562,-0.42256900668144226,0.024814525619149208,2.974564552307129,0.31149962544441223,38946.0,38802.0,36908.0,40240.0,0,0,0,0,38724.43359375,-209.0,-873.0,-495.0
0.56,0.04666499048471451,0.12630221247673035,0.3148725628852844,0.0,0.0,0.0,9.621201515197754,-9.640975952148438,-0.4152284264564514,0.0245549064129591,2.974299907684326,0.31846505403518677,36995.0,42385.0,39121.0,37463.0,0,0,0,0,38991.7578125,186.0,-1326.0,-577.0
0.58,0.05219357833266258,0.12193748354911804,0.3216496407985687,0.0,0.0,0.0,9.032845497131348,-9.840950965881348,-0.4457398056983948,0.02267596684396267,2.978297472000122,0.3196878135204315,36259.0,45549.0,42089.0,36431.0,0,0,0,0,40082.41015625,1635.0,-7082.0,-613.0
0.6,0.057751450687646866,0.1160082221031189,0.32239577174186707,0.0,0.0,0.0,8.409261703491211,-9.731550216674805,-0.5289357900619507,0.022332392632961273,2.9779460430145264,0.3254517614841461,37254.0,44542.0,41302.0,37654.0,0,0,0,0,40188.2109375,1528.0,-1982.0,-511.0
0.62,0.06456691771745682,0.11013645678758621,0.3281436562538147,0.0,0.0,0.0,7.643109321594238,-9.470078468322754,-0.6238548159599304,0.022059965878725052,2.9776675701141357,0.33113616704940796,39902.0,40618.0,38300.0,41848.0,0,0,0,0,40167.890625,960.0,-1173.0,-271.0
0.64,0.07280167192220688,0.10240967571735382,0.3350415527820587,0.0,0.0,0.0,6.811682224273682,-9.338340759277344,-0.6887802481651306,0.02177511155605316,2.977595090866089,0.3350415527820587,39394.0,42262.0,39960.0,40876.0,0,0,0,0,40623.703125,146.0,-1488.0,-916.0
0.66,0.08101504296064377,0.09699657559394836,0.33605167269706726,0.0,0.0,0.0,5.913197040557861,-9.394098281860352,-0.7461956739425659,0.0204816535115242,2.9816503524780273,0.33605167269706726,38782.0,42598.0,40084.0,40340.0,0,0,0,0,40451.9140625,1577.0,-2456.0,-971.0
0.68,0.08997946977615356,0.08908354490995407,0.34134215116500854,0.0,0.0,0.0,5.004193305969238,-9.252220153808594,-0.7885389924049377,0.020417390391230583,2.9822587966918945,0.3450498878955841,37335.0,42765.0,39875.0,38185.0,0,0,0,0,39540.28125,80.0,-1535.0,-1036.0
0.7,0.10055509209632874,0.0815524235367775,0.35097819566726685,0.0,0.0,0.0,3.9953415393829346,-8.87966537475586,-0.866176426410675,0.02029070258140564,2.982131004333496,0.35097819566726685,34573.0,44905.0,42365.0,36245.0,0,0,0,0,39522.77734375,2098.0,-5646.0,-1070.0
0.72,0.10954488813877106,0.07612268626689911,0.3557753562927246,0.0,0.0,0.0,2.9971301555633545,-8.312554359436035,-0.9398149847984314,0.01984955370426178,2.9830942153930664,0.35536879301071167,37492.0,39548.0,39328.0,41536.0,0,0,0,0,39476.28515625,960.0,-2841.0,-1086.0
0.74,0.12087563425302505,0.06658846139907837,0.35998886823654175,0.0,0.0,0.0,1.9939372539520264,-7.802740097045898,-0.9894224405288696,0.019765885546803474,2.982740879058838,0.35998886823654175,37609.0,39879.0,38765.0,40455.0,0,0,0,0,39177.53125,848.0,-1715.0,-1072.0
0.76,0.13231925666332245,0.058318380266427994,0.36590299010276794,0.0,0.0,0.0,0.9549914598464966,-7.479032039642334,-1.0214698314666748,0.019634082913398743,2.982607364654541,0.36590299010276794,36694.0,40824.0,38020.0,38778.0,0,0,0,0,38579.47265625,-107.0,-3376.0,-1050.0
0.78,0.1444750726222992,0.04930194467306137,0.37322506308555603,0.0,0.0,0.0,-0.009231909178197384,-7.1479291915893555,-1.0491634607315063,0.019668446853756905,2.9813406467437744,0.37322506308555603,35370.0,40300.0,39182.0,38584.0,0,0,0,0,38359.98828125,2709.0,-2376.0,-1101.0
0.8,0.15659944713115692,0.04094788059592247,0.3794773519039154,0.0,0.0,0.0,-0.88849276304245,-6.650911331176758,-1.0528266429901123,0.019582010805606842,2.981253147125244,0.3794773519039154,32722.0,42720.0,41112.0,36002.0,0,0,0,0,38139.97265625,1843.0,-5822.0,-1241.0
0.82,0.16993448138237,0.03297198936343193,0.38570505380630493,0.0,0.0,0.0,-1.7997519969940186,-5.984557628631592,-1.076682686805725,0.019511224702000618,2.9811813831329346,0.38570505380630493,34567.0,39305.0,38975.0,39101.0,0,0,0,0,37987.6015625,1995.0,-2221.0,-1258.0
0.84,0.1833215355873108,0.02435932122170925,0.39417847990989685,0.0,0.0,0.0,-2.70222806930542,-5.283010959625244,-1.1055402755737305,0.01984304003417492,2.978134870529175,0.39417847990989685,35067.0,39973.0,37539.0,36937.0,0,0,0,0,37379.82421875,-250.0,-297.0,-1093.0
0.86,0.19701211154460907,0.01750202104449272,0.40068817138671875,0.0,0.0,0.0,-3.5688223838806152,-4.858081340789795,-1.1230219602584839,0.019864952191710472,2.9781572818756104,0.40068817138671875,35046.0,38908.0,37102.0,37992.0,0,0,0,0,37262.08203125,1215.0,-3246.0,-1180.0
0.88,0.21035552024841309,0.01065890770405531,0.4071235954761505,0.0,0.0,0.0,-4.275116920471191,-4.447704792022705,-1.114759922027588,0.01989009790122509,2.9781837463378906,0.4071235954761505,33976.0,39620.0,38206.0,37042.0,0,0,0,0,37211.46484375,612.0,-3137.0,-1108.0
0.9,0.2233685553073883,0.0035614585503935814,0.410264790058136,0.0,0.0,0.0,-4.847070217132568,-3.934584140777588,-1.0706506967544556,0.02027931623160839,2.9747474193573,0.4140717089176178,32315.0,41511.0,39645.0,34889.0,0,0,0,0,37090.0390625,876.0,-6148.0,-1128.0
0.92,0.23809650540351868,-0.0037717970553785563,0.42021602392196655,0.0,0.0,0.0,-5.373514652252197,-3.285083055496216,-1.0692989826202393,0.020282316952943802,2.9747507572174072,0.42021602392196655,33788.0,39334.0,38244.0,37158.0,0,0,0,0,37131.21484375,1748.0,-2364.0,-1138.0
0.94,0.25226813554763794,-0.010707241483032703,0.4261070787906647,0.0,0.0,0.0,-5.836183071136475,-2.6469128131866455,-1.028546929359436,0.0202584620565176,2.9746851921081543,0.4257962703704834,35305.0,40831.0,36773.0,36023.0,0,0,0,0,37233.765625,1004.0,-2463.0,-1207.0
0.96,0.2662073075771332,-0.01700318418443203,0.4314631521701813,0.0,0.0,0.0,-6.319901466369629,-2.235713005065918,-1.0221590995788574,0.020247932523489,2.9746739864349365,0.4314631521701813,34286.0,37804.0,36404.0,37378.0,0,0,0,0,36468.84375,502.0,-2003.0,-1120.0
0.98,0.28050151467323303,-0.02290717139840126,0.44151511788368225,0.0,0.0,0.0,-6.706055641174316,-1.9051095247268677,-1.0570327043533325,0.020529216155409813,2.9719817638397217,0.44151511788368225,34528.0,40052.0,36822.0,36322.0,0,0,0,0,36931.1640625,1932.0,-3990.0,-1211.0
1.0,0.29473206400871277,-0.028399091213941574,0.4449867308139801,0.0,0.0,0.0,-6.95418119430542,-1.5940754413604736,-1.04011869430542,0.020585564896464348,2.9717354774475098,0.4449867308139801,32169.0,41141.0,39465.0,35421.0,0,0,0,0,37049.8828125,1244.0,-6110.0,-1230.0
1.02,0.3084765672683716,-0.03303014114499092,0.450214147567749,0.0,0.0,0.0,-7.141763210296631,-1.1191469430923462,-1.0268142223358154,0.020603621378540993,2.9717533588409424,0.450214147567749,32518.0,38818.0,37974.0,36866.0,0,0,0,0,36544.02734375,643.0,-2444.0,-1276.0
1.04,0.32406139373779297,-0.03751114755868912,0.45870816707611084,0.0,0.0,0.0,-7.3093743324279785,-0.6974425315856934,-1.0488320589065552,0.020845983177423477,2.9696757793426514,0.45626550912857056,34384.0,40500.0,37170.0,36398.0,0,0,0,0,37113.9765625,488.0,-1549.0,-1325.0
1.06,0.33794257044792175,-0.041194651275873184,0.4610619843006134,0.0,0.0,0.0,-7.420722484588623,-0.48063936829566956,-1.060297966003418,0.020855721086263657,2.9696857929229736,0.4610619843006134,35772.0,38362.0,36098.0,38816.0,0,0,0,0,37262.79296875,-444.0,-2182.0,-1292.0
1.08,0.35353097319602966,-0.044273555278778076,0.4655555784702301,0.0,0.0,0.0,-7.419614315032959,-0.365956574678421,-1.1007064580917358,0.020853910595178604,2.969683885574341,0.4655555784702301,34888.0,41372.0,38150.0,37058.0,0,0,0,0,37867.58203125,518.0,-2087.0,-1363.0
1.1,0.36755117774009705,-0.047194235026836395,0.46977755427360535,0.0,0.0,0.0,-7.310532093048096,-0.22549772262573242,-1.1346807479858398,0.021072324365377426,2.968087911605835,0.46977755427360535,32547.0,42647.0,40005.0,35229.0,0,0,0,0,37607.30078125,57.0,-5435.0,-1353.0
1.12,0.38186192512512207,-0.048793572932481766,0.4737967252731323,0.0,0.0,0.0,-7.167792320251465,0.03133339434862137,-1.1543729305267334,0.021091336384415627,2.968107223510742,0.4737967252731323,35143.0,41141.0,39277.0,37735.0,0,0,0,0,38324.71875,-348.0,-1714.0,-1429.0
1.14,0.3979406952857971,-0.05160905048251152,0.4743519425392151,0.0,0.0,0.0,-6.989574909210205,0.2626436650753021,-1.157958984375,0.02112872712314129,2.9678213596343994,0.4743519425392151,35790.0,39886.0,38264.0,39844.0,0,0,0,0,38446.1875,162.0,-1685.0,-1332.0
1.16,0.41266554594039917,-0.05398743972182274,0.4819985628128052,0.0,0.0,0.0,-6.740335941314697,0.3420065641403198,-1.2245240211486816,0.02138158679008484,2.965592861175537,0.4819985628128052,35439.0,40037.0,36979.0,38097.0,0,0,0,0,37638.7734375,-2222.0,-3357.0,-1463.0
1.18,0.42751452326774597,-0.055719755589962006,0.4856167733669281,0.0,0.0,0.0,-6.473386764526367,0.2933489978313446,-1.2756236791610718,0.3736167550086975,2.965585947036743,0.4856167733669281,35396.0,41370.0,37068.0,36718.0,0,0,0,0,37638.03515625,-557.0,-2367.0,-1379.0
1.2,0.44224730134010315,-0.056716613471508026,0.48912203311920166,0.0,0.0,0.0,-6.129025936126709,0.3399074375629425,-1.3158276081085205,0.37362486124038696,2.9655842781066895,0.48912203311920166,32977.0,43431.0,39363.0,35001.0,0,0,0,0,37693.328125,-1044.0,-6831.0,-1463.0
1.22,0.4544382691383362,-0.05637771263718605,0.49258098006248474,0.0,0.0,0.0,-5.731645107269287,0.5807827115058899,-1.3422367572784424,0.3766888380050659,2.9646639823913574,0.4963911473751068,34150.0,39502.0,36938.0,37562.0,0,0,0,0,37038.46875,990.0,-1364.0,-1510.0
1.24,0.4834131598472595,-0.05512368306517601,0.4998592436313629,0.0,0.0,0.0,-5.363534450531006,0.6363500356674194,-1.35294508934021,0.38374704122543335,2.9644651412963867,0.4974287748336792,36803.0,37075.0,35557.0,41453.0,0,0,0,0,37722.0390625,-2333.0,873.0,-1517.0
1.26,0.5079006552696228,-0.05725870281457901,0.5002534985542297,0.0,0.0,0.0,-5.013030529022217,0.47288498282432556,-1.3837898969650269,0.383516401052475,2.9644129276275635,0.5002534985542297,36430.0,41276.0,36104.0,37406.0,0,0,0,0,37804.3828125,-2297.0,-2893.0,-1537.0
1.28,0.5223449468612671,-0.05726267397403717,0.5032574534416199,0.0,0.0,0.0,-4.568018913269043,0.39162588119506836,-1.4436540603637695,0.3835606276988983,2.9644181728363037,0.5032574534416199,34444.0,40688.0,36286.0,35938.0,0,0,0,0,36839.13671875,-456.0,-2741.0,-1447.0
1.3,0.5416760444641113,-0.05573147535324097,0.5098125338554382,0.0,0.0,0.0,-4.070657253265381,0.5419885516166687,-1.4647043943405151,0.38907724618911743,2.9635000228881836,0.5098125338554382,31893.0,43593.0,40025.0,34365.0,0,0,0,0,37469.3671875,1637.0,-7234.0,-1695.0
1.32,0.5503931641578674,-0.05750323459506035,0.5129602551460266,0.0,0.0,0.0,-3.5992929935455322,1.0779112577438354,-1.4729686975479126,0.38925543427467346,2.963529586791992,0.5129602551460266,32688.0,40798.0,39252.0,37370.0,0,0,0,0,37527.96875,534.0,-4458.0,-1562.0
1.34,0.5647237300872803,-0.05388736352324486,0.5157400965690613,0.0,0.0,0.0,-3.302889585494995,1.5699286460876465,-1.4835383892059326,0.38927823305130005,2.9635348320007324,0.5157400965690613,34969.0,39777.0,37169.0,38389.0,0,0,0,0,38140.58203125,-271.0,-1434.0,-1564.0
1.36,0.5785658359527588,-0.05235195904970169,0.5154621601104736,0.0,0.0,0.0,-3.014624834060669,1.7987641096115112,-1.5078495740890503,0.38936251401901245,2.909327745437622,0.5154621601104736,36242.0,41234.0,37064.0,38208.0,0,0,0,0,38230.140625,47.0,-1360.0,-1519.0
1.38,0.596666157245636,-0.04593217000365257,0.5174890160560608,0.0,0.0,0.0,-2.7307677268981934,1.7351425886154175,-1.5329266786575317,0.38928037881851196,2.909203052520752,0.5174890160560608,36648.0,41008.0,36956.0,38676.0,0,0,0,0,38962.05078125,-338.0,-1684.0,-1471.0
1.4,0.6068921685218811,-0.0452234260737896,0.5161217451095581,0.0,0.0,0.0,-2.324453592300415,1.7467231750488281,-1.5654782056808472,0.3890182673931122,2.9067940711975098,0.5163056254386902,34311.0,44403.0,40545.0,36717.0,0,0,0,0,38988.24609375,-2380.0,-9496.0,-812.0
1.42,0.6180809140205383,-0.034559447318315506,0.5177733898162842,0.0,0.0,0.0,-1.9792890548706055,1.848575472831726,-1.5811089277267456,0.38895535469055176,0.7927733659744263,0.5177733898162842,35869.0,41723.0,39301.0,39587.0,0,0,0,0,39130.94140625,1470.0,-1407.0,-1961.0
1.44,0.6251078248023987,-0.033483169972896576,0.5176940560340881,0.0,0.0,0.0,-1.542565107345581,1.9798221588134766,-1.6085864305496216,0.3886994421482086,0.7913467288017273,0.5176940560340881,37461.0,42321.0,38129.0,39777.0,0,0,0,0,39390.20703125,-1179.0,-2415.0,-1942.0
1.46,0.6262239813804626,-0.03904255852103233,0.5194575190544128,0.0,0.0,0.0,-1.0799977779388428,1.8828461170196533,-1.6622611284255981,0.38894039392471313,0.7917182445526123,0.5194575190544128,37240.0,43216.0,38294.0,38586.0,0,0,0,0,39277.25390625,-3042.0,-3666.0,-1841.0
1.48,0.6316524147987366,-0.04204728826880455,0.5211244225502014,0.0,0.0,0.0,-0.5632837414741516,1.6021860837936401,-1.6953887939453125,0.3890726566314697,0.7391244173049927,0.5211244225502014,36592.0,42138.0,38742.0,39420.0,0,0,0,0,39159.953125,-295.0,-2249.0,-1672.0
1.5,0.6384825706481934,-0.048315197229385376,0.518882691860199,0.0,0.0,0.0,-0.04070821404457092,1.3294321298599243,-1.7195364236831665,0.3882976472377777,0.7357377409934998,0.518882691860199,35610.0,43722.0,40510.0,39066.0,0,0,0,0,39661.78515625,-1400.0,-7934.0,-1517.0
1.52,0.6444680690765381,-0.042775269597768784,0.5201903581619263,0.0,0.0,0.0,0.199461430311203,1.052030086517334,-1.7285163402557373,0.3883327543735504,0.7358234524726868,0.5201903581619263,36730.0,42228.0,39094.0,40440.0,0,0,0,0,39563.05078125,-873.0,-1768.0,-1933.0
1.54,0.6471369862556458,-0.05511435121297836,0.5217440724372864,0.0,0.0,0.0,0.42541369795799255,0.6879791617393494,-1.757772445678711,0.3883061110973358,0.7424471974372864,0.5211997628211975,38826.0,42396.0,37066.0,40096.0,0,0,0,0,39515.6015625,-1326.0,-1763.0,-1551.0
1.56,0.6580237150192261,-0.051555320620536804,0.5225475430488586,0.0,0.0,0.0,0.40036603808403015,-0.0715910941362381,-1.7593713998794556,0.38791847229003906,0.7409365177154541,0.5206451416015625,38146.0,43480.0,38066.0,39180.0,0,0,0,0,39650.33984375,-2927.0,889.0,-1039.0
1.58,0.6839419603347778,-0.07476397603750229,0.5218614339828491,0.0,0.0,0.0,0.6435080170631409,-1.0898886919021606,-1.727791428565979,0.38795989751815796,0.7409031987190247,0.5218614339828491,39155.0,41537.0,36553.0,41167.0,0,0,0,0,39536.19140625,-728.0,-1383.0,-957.0
1.6,0.7176957726478577,-0.06922827661037445,0.5228606462478638,0.0,0.0,0.0,0.5160642266273499,-2.066795587539673,-1.6807780265808105,0.38783517479896545,0.7406245470046997,0.5228606462478638,35120.0,43288.0,40668.0,39472.0,0,0,0,0,39572.4296875,1460.0,-5951.0,-1007.0
1.62,0.7515106201171875,-0.06303440034389496,0.5231359004974365,0.0,0.0,0.0,0.17681457102298737,-2.72632098197937,-1.657819390296936,0.3875282108783722,0.7429141402244568,0.5231359004974365,36660.0,41548.0,38884.0,41224.0,0,0,0,0,39272.80078125,1063.0,-2405.0,-1304.0
1.64,0.7801457047462463,-0.05745371803641319,0.525920033454895,0.0,0.0,0.0,-0.332730233669281,-2.9722740650177,-1.660858392715454,0.3876590430736542,0.74373459815979,0.525920033454895,36985.0,41915.0,38085.0,39855.0,0,0,0,0,39116.81640625,-1287.0,-245.0,-1235.0
1.66,0.8086459636688232,-0.05468052998185158,0.5272711515426636,0.0,0.0,0.0,-0.7046480178833008,-3.0008232593536377,-1.6572855710983276,0.387533038854599,0.7435299754142761,0.5272711515426636,36855.0,42865.0,37831.0,38741.0,0,0,0,0,39096.3046875,-1093.0,-2092.0,-1610.0
1.68,0.82906174659729,-0.050703611224889755,0.5282901525497437,0.0,0.0,0.0,-0.8435087203979492,-2.6708242893218994,-1.6591922044754028,0.38739559054374695,0.7447994947433472,0.5282901525497437,35729.0,42491.0,38791.0,39205.0,0,0,0,0,39183.859375,-1379.0,-2883.0,-1733.0
1.7,0.8641105890274048,-0.04362751543521881,0.5286652445793152,0.0,0.0,0.0,-0.8986479640007019,-2.211059808731079,-1.6528726816177368,0.38708609342575073,0.7439979314804077,0.5286652445793152,33874.0,45260.0,40778.0,36660.0,0,0,0,0,39071.77734375,544.0,-6410.0,-1699.0
1.72,0.8801780343055725,-0.04170791432261467,0.530382513999939,0.0,0.0,0.0,-0.816885232925415,-1.2606377601623535,-1.6711399555206299,0.38709956407546997,0.7440162301063538,0.530382513999939,35402.0,43282.0,38624.0,38832.0,0,0,0,0,38990.0078125,-385.0,-3937.0,-1851.0
1.74,0.8949390649795532,-0.03916452080011368,0.5319843292236328,0.0,0.0,0.0,-0.6974464058876038,-0.14340569078922272,-1.7056039571762085,0.38710615038871765,0.744425356388092,0.5319843292236328,36167.0,42125.0,37753.0,39695.0,0,0,0,0,38859.8828125,-1207.0,-2331.0,-1811.0
1.76,0.9147559404373169,-0.03530510142445564,0.5337027907371521,0.0,0.0,0.0,-0.6134251952171326,0.7278363108634949,-1.738521695137024,0.35090968012809753,0.7443781495094299,0.5337027907371521,36832.0,42500.0,36886.0,39030.0,0,0,0,0,38721.6640625,-1097.0,-2294.0,-1801.0
1.78,0.9303813576698303,-0.03302423283457756,0.5356081128120422,0.0,0.0,0.0,-0.46301576495170593,1.494461178779602,-1.7734339237213135,0.35095009207725525,0.7444031834602356,0.5356081128120422,35248.0,43496.0,37898.0,38022.0,0,0,0,0,38579.328125,-195.0,-4029.0,-1934.0
1.8,0.9467969536781311,-0.029457898810505867,0.537355363368988,0.0,0.0,0.0,-0.23464873433113098,2.2116241455078125,-1.8115276098251343,0.3508273661136627,0.744527280330658,0.537355363368988,32444.0,44112.0,40654.0,37070.0,0,0,0,0,38504.55859375,1513.0,-6053.0,-1969.0
1.82,0.9585143327713013,-0.025012224912643433,0.5394188761711121,0.0,0.0,0.0,-0.031892504543066025,3.0901012420654297,-1.8501896858215332,0.02544618956744671,0.7445822954177856,0.5394188761711121,33680.0,42778.0,39118.0,38364.0,0,0,0,0,38436.55859375,-665.0,-3206.0,-1987.0
1.84,0.9720606803894043,-0.024225939065217972,0.5414578914642334,0.0,0.0,0.0,0.10305418074131012,3.813565492630005,-1.895168662071228,0.025535888969898224,0.7446292042732239,0.5414578914642334,35243.0,41579.0,37567.0,39239.0,0,0,0,0,38337.36328125,-2138.0,-3330.0,-2005.0
1.86,0.9819968938827515,-0.02159838005900383,0.5435947775840759,0.0,0.0,0.0,0.24010144174098969,4.2642693519592285,-1.9298064708709717,0.02587730623781681,0.7446223497390747,0.543851375579834,35313.0,41845.0,37175.0,38627.0,0,0,0,0,38314.7421875,-2217.0,-4081.0,-2083.0
1.88,0.9922844171524048,-0.019987795501947403,0.5452216863632202,0.0,0.0,0.0,0.4850010871887207,4.572391033172607,-1.9505774974822998,0.02736770361661911,0.7444583177566528,0.5452216863632202,35171.0,41881.0,37351.0,38653.0,0,0,0,0,38226.625,-784.0,-4286.0,-2128.0
1.9,1.0019203424453735,-0.019068177789449692,0.5473093390464783,0.0,0.0,0.0,0.8146945834159851,4.845127105712891,-1.9768562316894531,0.027479317039251328,0.7445057034492493,0.5473093390464783,34011.0,45283.0,38527.0,34991.0,0,0,0,0,38172.82421875,-2733.0,-5612.0,-1932.0
1.92,1.0107848644256592,-0.016426652669906616,0.5493709444999695,0.0,0.0,0.0,1.0892783403396606,5.005981922149658,-1.9842923879623413,0.027571532875299454,0.7445326447486877,0.5493709444999695,35192.0,41140.0,37494.0,38762.0,0,0,0,0,37821.484375,-2245.0,-3473.0,-1811.0
1.94,1.022905945777893,-0.014197636395692825,0.5534021854400635,0.0,0.0,0.0,1.3587608337402344,4.9389472007751465,-1.9627913236618042,0.028274230659008026,0.7446339130401611,0.5534021854400635,36044.0,40554.0,35994.0,38632.0,0,0,0,0,37787.20703125,-2626.0,-1125.0,-1852.0
1.96,1.0299699306488037,-0.011517985723912716,0.5555249452590942,0.0,0.0,0.0,1.516561508178711,4.6241302490234375,-1.9290066957473755,0.028338652104139328,0.7446442246437073,0.5555249452590942,36824.0,41628.0,35074.0,37582.0,0,0,0,0,37788.80859375,-812.0,1159.0,-1735.0
1.98,1.0394364595413208,-0.00879906676709652,0.557531476020813,0.0,0.0,0.0,1.6648659706115723,4.0936689376831055,-1.8990830183029175,0.02836751937866211,0.7446429133415222,0.557531476020813,36309.0,41201.0,35773.0,38017.0,0,0,0,0,38194.734375,-1526.0,-1814.0,-1661.0
2.0,1.0471645593643188,-0.005988881923258305,0.5568981766700745,0.0,0.0,0.0,1.8005096912384033,3.530150890350342,-1.8592712879180908,0.026419728994369507,0.7449576258659363,0.5568981766700745,33934.0,42742.0,39098.0,37182.0,0,0,0,0,38304.640625,-1139.0,-5219.0,-1711.0
2.02,1.0559979677200317,-0.006190982647240162,0.5584752559661865,0.0,0.0,0.0,1.9411611557006836,3.0958988666534424,-1.8236452341079712,0.026443427428603172,0.7449602484703064,0.5584752559661865,36165.0,42027.0,37305.0,37947.0,0,0,0,0,38163.5390625,-454.0,-1474.0,-1532.0
2.04,1.0682158470153809,-0.004552144557237625,0.5614566206932068,0.0,0.0,0.0,1.9708406925201416,2.61368465423584,-1.7709698677062988,0.02667071856558323,0.7452936172485352,0.5614566206932068,36969.0,40135.0,36489.0,39311.0,0,0,0,0,38277.66015625,-19.0,2425.0,-654.0
2.06,1.0758004188537598,-0.004442911129444838,0.5619507431983948,0.0,0.0,0.0,1.9433846473693848,1.9253531694412231,-1.694748044013977,0.026114774867892265,0.7453256845474243,0.5619507431983948,37568.0,40682.0,36180.0,39390.0,0,0,0,0,38504.00390625,-1777.0,52.0,-935.0
2.08,1.0844238996505737,-0.003557461081072688,0.5627219080924988,0.0,0.0,0.0,1.862512469291687,1.0957716703414917,-1.626734733581543,0.026059972122311592,0.7452137470245361,0.5627219080924988,36476.0,40956.0,37712.0,39444.0,0,0,0,0,38693.5625,-2793.0,-3247.0,-1051.0
2.1,1.09574294090271,-0.002382056787610054,0.5637955665588379,0.0,0.0,0.0,1.8440064191818237,0.4489486813545227,-1.5757701396942139,0.026059972122311592,0.7452137470245361,0.5637955665588379,34112.0,42164.0,40340.0,38308.0,0,0,0,0,38767.21484375,325.0,-4094.0,-1042.0
2.12,1.1070176362991333,-0.0013294698437675834,0.5647888779640198,0.0,0.0,0.0,1.8003630638122559,0.04524100944399834,-1.5267802476882935,0.02597687393426895,0.7452020645141602,0.5646550059318542,36776.0,39886.0,37526.0,41056.0,0,0,0,0,38839.23828125,31.0,695.0,-1401.0
2.14,1.1133804321289062,-0.0001140884414780885,0.5655897855758667,0.0,0.0,0.0,1.6309258937835693,-0.3152809143066406,-1.4936143159866333,0.026050934568047523,0.7453926801681519,0.5666276812553406,37549.0,41509.0,36615.0,38987.0,0,0,0,0,38663.23828125,-1001.0,-58.0,-1135.0
2.16,1.1246901750564575,0.0007461058557964861,0.5676280856132507,0.0,0.0,0.0,1.4780608415603638,-0.9838483333587646,-1.4636547565460205,0.026050934568047523,0.7453926801681519,0.5676280856132507,37798.0,41790.0,36434.0,38610.0,0,0,0,0,38640.97265625,-3128.0,-3012.0,-1103.0
2.18,1.1330198049545288,-0.0017991370987147093,0.5686351656913757,0.0,0.0,0.0,1.4580172300338745,-1.6338832378387451,-1.4298713207244873,0.02666008099913597,0.7453140020370483,0.5699031352996826,36547.0,40627.0,37491.0,39183.0,0,0,0,0,38450.1640625,-1305.0,-1042.0,-897.0
2.2,1.1404346227645874,-0.0031751347705721855,0.570979118347168,0.0,0.0,0.0,1.4745396375656128,-2.0840697288513184,-1.3871186971664429,0.026659943163394928,0.745407223701477,0.5716713070869446,34760.0,41264.0,38978.0,38358.0,0,0,0,0,38358.5625,-412.0,-4588.0,-1068.0
2.22,1.1411097049713135,-0.004914416931569576,0.5727660655975342,0.0,0.0,0.0,1.4169052839279175,-2.3038148880004883,-1.3514615297317505,0.026627300307154655,0.7453489899635315,0.5727660655975342,35674.0,42510.0,38150.0,37198.0,0,0,0,0,38410.140625,1133.0,-1910.0,-1196.0
2.24,1.1542277336120605,-0.0033355040941387415,0.5737776160240173,0.0,0.0,0.0,1.2654592990875244,-2.5010788440704346,-1.3212040662765503,0.026633234694600105,0.7453595995903015,0.5737776160240173,37208.0,40652.0,36836.0,39032.0,0,0,0,0,38463.87109375,480.0,-2266.0,-974.0
2.26,1.1613737344741821,-0.002535421634092927,0.5769460201263428,0.0,0.0,0.0,1.0611101388931274,-2.7153515815734863,-1.2806345224380493,0.02669663168489933,0.689774215221405,0.5769460201263428,35739.0,41409.0,37571.0,37641.0,0,0,0,0,38103.44921875,-1899.0,-3017.0,-1017.0
2.28,1.1643918752670288,-0.005453756079077721,0.5780680775642395,0.0,0.0,0.0,0.9296884536743164,-2.879596471786499,-1.2458568811416626,0.026671485975384712,0.6897770166397095,0.5780680775642395,35613.0,42927.0,37931.0,36009.0,0,0,0,0,38159.3125,1021.0,-984.0,-996.0
2.3,1.1727083921432495,-0.006197208538651466,0.5791075229644775,0.0,0.0,0.0,0.8539029359817505,-2.936338424682617,-1.2166608572006226,0.026662511751055717,0.6897788047790527,0.5791075229644775,38220.0,43402.0,35334.0,35888.0,0,0,0,0,38476.84765625,-4864.0,-4137.0,-1098.0
2.32,1.1749297380447388,-0.007292360067367554,0.5790436267852783,0.0,0.0,0.0,0.7119824290275574,-2.917724609375,-1.186018943786621,0.026560083031654358,0.7014728784561157,0.5790436267852783,35597.0,42475.0,38863.0,37249.0,0,0,0,0,38610.40625,-260.0,-1381.0,-945.0
2.34,1.1806511878967285,-0.007865400053560734,0.5797151327133179,0.0,0.0,0.0,0.46694687008857727,-2.836531639099121,-1.1565682888031006,0.026540270075201988,0.7014690041542053,0.5797151327133179,34916.0,40798.0,39812.0,39126.0,0,0,0,0,38720.71875,-632.0,-4357.0,-878.0
2.36,1.1880488395690918,-0.010426534339785576,0.5802947878837585,0.0,0.0,0.0,-0.08459946513175964,-2.786562919616699,-1.1186867952346802,0.026570294052362442,0.7020593285560608,0.5812636017799377,34983.0,40611.0,39571.0,39203.0,0,0,0,0,38946.3828125,416.0,-4151.0,-895.0
2.38,1.1948750019073486,-0.006282432470470667,0.5805680751800537,0.0,0.0,0.0,-0.8118466734886169,-2.6771645545959473,-1.0814670324325562,0.02645816281437874,0.711908221244812,0.5805680751800537,35593.0,41747.0,39665.0,38979.0,0,0,0,0,39031.3671875,1101.0,-1350.0,-1169.0
2.4,1.202502965927124,-0.009511486627161503,0.5809001326560974,0.0,0.0,0.0,-1.4089967012405396,-2.528712511062622,-1.0635420083999634,0.0264495387673378,0.7119092345237732,0.5809001326560974,38939.0,43967.0,36639.0,36627.0,0,0,0,0,38942.69140625,-5312.0,-2521.0,-865.0
2.42,1.2083812952041626,-0.011251713149249554,0.5818304419517517,0.0,0.0,0.0,-1.899135708808899,-2.335360050201416,-1.0373903512954712,0.02645334042608738,0.7122201919555664,0.5818304419517517,36957.0,41283.0,38537.0,38979.0,0,0,0,0,38934.06640625,-861.0,-900.0,-737.0
2.44,1.2177389860153198,-0.0138153787702322,0.580057680606842,0.0,0.0,0.0,-2.3459880352020264,-2.135019302368164,-0.9849339127540588,0.026341309770941734,0.7198443412780762,0.580057680606842,35177.0,41675.0,41055.0,39881.0,0,0,0,0,39460.953125,2442.0,-2368.0,-1092.0
2.46,1.2257311344146729,-0.016200454905629158,0.5801248550415039,0.0,0.0,0.0,-3.04006028175354,-1.926356315612793,-0.9550238847732544,0.02637583389878273,0.7205048203468323,0.5814486145973206,35561.0,42335.0,40149.0,38807.0,0,0,0,0,39187.17578125,279.0,-1891.0,-1049.0
2.48,1.2379895448684692,-0.0210679043084383,0.5816929936408997,0.0,0.0,0.0,-3.8366284370422363,-1.6838215589523315,-0.9285151958465576,0.02638748474419117,0.7205169796943665,0.5816929936408997,36549.0,42853.0,39157.0,38025.0,0,0,0,0,39113.578125,-601.0,-1425.0,-983.0
2.5,1.2465345859527588,-0.019478511065244675,0.5819839239120483,0.0,0.0,0.0,-4.52575159072876,-1.3817155361175537,-0.8966765999794006,0.026292983442544937,0.7258079648017883,0.5795652270317078,39111.0,46359.0,37501.0,35489.0,0,0,0,0,39568.875,-2369.0,-3731.0,-939.0
2.52,1.2527116537094116,-0.018057120963931084,0.5796018242835999,0.0,0.0,0.0,-5.062338352203369,-1.0544919967651367,-0.849399209022522,0.026359738782048225,0.7273606657981873,0.5833061337471008,37240.0,41132.0,37860.0,39208.0,0,0,0,0,38802.62890625,1201.0,-2004.0,-903.0
2.54,1.260353684425354,-0.017395388334989548,0.5838060975074768,0.0,0.0,0.0,-5.585358619689941,-0.668580949306488,-0.8204956650733948,0.02634376846253872,0.7273491024971008,0.5838060975074768,35194.0,41004.0,39518.0,39284.0,0,0,0,0,38698.9453125,1688.0,-2362.0,-1069.0
2.56,1.271283745765686,-0.02048911340534687,0.5844114422798157,0.0,0.0,0.0,-6.261518478393555,-0.3408351540565491,-0.7892165184020996,0.026362793520092964,1.276411533355713,0.5844114422798157,36348.0,40624.0,38272.0,39384.0,0,0,0,0,38621.1015625,354.0,-3749.0,-932.0
2.58,1.2793177366256714,-0.018762163817882538,0.5850295424461365,0.0,0.0,0.0,-6.959748268127441,0.032353222370147705,-0.757192075252533,0.026350734755396843,1.276412844657898,0.5850295424461365,35677.0,41041.0,37729.0,37581.0,0,0,0,0,37981.484375,-963.0,-3490.0,-865.0
2.6,1.2880444526672363,-0.01790078915655613,0.5893012881278992,0.0,0.0,0.0,-7.4847540855407715,0.419099897146225,-0.7321808338165283,0.0263961348682642,1.2793654203414917,0.5893012881278992,37848.0,43178.0,35380.0,35390.0,0,0,0,0,37932.65625,-5426.0,-3031.0,-1032.0
2.62,1.2936872243881226,-0.017951933667063713,0.5902926325798035,0.0,0.0,0.0,-7.802191257476807,0.7938476204872131,-0.6959060430526733,0.026388710364699364,1.2793775796890259,0.5902926325798035,36650.0,42662.0,36720.0,35680.0,0,0,0,0,37954.21875,-1331.0,-2642.0,-666.0
2.64,1.304389476776123,-0.015148579142987728,0.591259241104126,0.0,0.0,0.0,-8.065816879272461,1.141587734222412,-0.6565021872520447,0.026390841230750084,2.9172587394714355,0.591259241104126,34869.0,38759.0,37493.0,38755.0,0,0,0,0,37510.66015625,-226.0,-3364.0,-889.0
2.66,1.3099499940872192,-0.010372967459261417,0.5951775312423706,0.0,0.0,0.0,-8.469396591186523,1.4661386013031006,-0.6329969763755798,0.02637467533349991,2.9197518825531006,0.5951775312423706,34344.0,38978.0,38018.0,38936.0,0,0,0,0,37626.72265625,-217.0,-4254.0,-1154.0
2.68,1.3203237056732178,-0.008246027864515781,0.59617680311203,0.0,0.0,0.0,-8.941120147705078,1.7682033777236938,-0.608745813369751,0.0263911634683609,2.9197754859924316,0.59617680311203,35162.0,39928.0,37428.0,38298.0,0,0,0,0,37847.265625,-1368.0,-3881.0,-1233.0
2.7,1.3279056549072266,-0.0047651720233261585,0.5967344045639038,0.0,0.0,0.0,-9.265685081481934,2.1039581298828125,-0.5947844982147217,0.026403065770864487,2.9255595207214355,0.6001639366149902,38466.0,42690.0,33686.0,34354.0,0,0,0,0,37384.54296875,-4442.0,-3161.0,-948.0
2.72,1.3354719877243042,-0.002803262323141098,0.6011593341827393,0.0,0.0,0.0,-9.286689758300781,2.415187120437622,-0.589428722858429,0.02641662023961544,2.9255869388580322,0.6011593341827393,36764.0,40952.0,35734.0,36438.0,0,0,0,0,37567.3984375,-1962.0,-2944.0,-1011.0
2.74,1.3417577743530273,0.0035635274834930897,0.6019011735916138,0.0,0.0,0.0,-9.283041954040527,2.6462278366088867,-0.5662825703620911,0.026382146403193474,2.9255566596984863,0.6019011735916138,35059.0,40433.0,37787.0,37405.0,0,0,0,0,37940.64453125,928.0,-2199.0,-1307.0
2.76,1.3473455905914307,0.010709241032600403,0.604589581489563,0.0,0.0,0.0,-9.443082809448242,2.861217737197876,-0.5670167803764343,0.026343854144215584,2.9306514263153076,0.604589581489563,34889.0,40473.0,37643.0,37231.0,0,0,0,0,37678.8359375,382.0,-3322.0,-959.0
2.78,1.3578945398330688,0.01903846673667431,0.605111300945282,0.0,0.0,0.0,-9.66378402709961,3.0691263675689697,-0.5459132194519043,0.026333732530474663,2.9306375980377197,0.605111300945282,35841.0,38595.0,37263.0,39513.0,0,0,0,0,37906.44140625,-641.0,-3138.0,-1155.0
2.8,1.3635482788085938,0.02233824133872986,0.6055095195770264,0.0,0.0,0.0,-9.708502769470215,3.2900638580322266,-0.5407347083091736,0.026362434029579163,2.9305200576782227,0.6051737070083618,35862.0,42180.0,37754.0,36556.0,0,0,0,0,38350.4375,-6514.0,-3052.0,-1225.0
2.82,1.367752194404602,0.031065884977579117,0.6046980023384094,0.0,0.0,0.0,-9.563237190246582,3.468660593032837,-0.5417308211326599,0.026310348883271217,2.9328269958496094,0.6046980023384094,38097.0,43831.0,36297.0,35739.0,0,0,0,0,38624.921875,-3673.0,-1651.0,-1445.0
2.84,1.3758717775344849,0.04158051311969757,0.6044522523880005,0.0,0.0,0.0,-9.253859519958496,3.5874528884887695,-0.5367127060890198,0.026276767253875732,2.932790517807007,0.6044522523880005,36460.0,41040.0,38442.0,39054.0,0,0,0,0,38885.22265625,1222.0,-984.0,-1370.0
2.86,1.3843231201171875,0.05058203265070915,0.603891134262085,0.0,0.0,0.0,-8.992496490478516,3.6699376106262207,-0.5469663739204407,0.02628263644874096,2.9327189922332764,0.603891134262085,36749.0,42623.0,38557.0,38099.0,0,0,0,0,39103.2578125,-33.0,-3401.0,-1348.0
2.88,1.3923078775405884,0.059198103845119476,0.6033862829208374,0.0,0.0,0.0,-8.87331485748291,3.7570836544036865,-0.5572181940078735,0.02630659006536007,2.934566020965576,0.6026650071144104,37168.0,42766.0,39062.0,38484.0,0,0,0,0,39466.60546875,-720.0,-2467.0,-1347.0
2.9,1.3983949422836304,0.07188199460506439,0.6018483638763428,0.0,0.0,0.0,-8.705809593200684,3.913560390472412,-0.5465807914733887,0.026252897456288338,2.9340529441833496,0.6006801128387451,38786.0,43364.0,38174.0,38656.0,0,0,0,0,39817.79296875,-5393.0,-1452.0,-1447.0
2.92,1.4049644470214844,0.07756517082452774,0.5998678207397461,0.0,0.0,0.0,-8.30661392211914,4.031472682952881,-0.5519963502883911,0.02634400688111782,2.9341490268707275,0.5998678207397461,40070.0,45856.0,37284.0,36186.0,0,0,0,0,39876.875,-1134.0,-616.0,-1159.0
2.94,1.413106918334961,0.09009718149900436,0.5989252924919128,0.0,0.0,0.0,-7.741881370544434,4.1137213706970215,-0.5359890460968018,0.026338694617152214,2.9335832595825195,0.5992501378059387,37722.0,42520.0,39548.0,39434.0,0,0,0,0,39841.0234375,516.0,-3558.0,-1269.0
2.96,1.4189320802688599,0.10388782620429993,0.5983414053916931,0.0,0.0,0.0,-7.325404644012451,4.170407772064209,-0.5272884964942932,0.026301918551325798,2.932976007461548,0.5966551303863525,38152.0,43218.0,39646.0,39536.0,0,0,0,0,40138.7265625,-208.0,-1792.0,-1247.0
2.98,1.4227168560028076,0.11565090715885162,0.5956575274467468,0.0,0.0,0.0,-7.0845513343811035,4.274697303771973,-0.5244551301002502,0.026283977553248405,2.9329593181610107,0.5956575274467468,38523.0,44119.0,39267.0,38579.0,0,0,0,0,40107.5546875,-1918.0,-3426.0,-1403.0
3.0,1.4270461797714233,0.12524645030498505,0.5948355197906494,0.0,0.0,0.0,-6.695885181427002,4.3397626876831055,-0.5329223871231079,0.026331128552556038,2.933009624481201,0.5948355197906494,38710.0,43760.0,39162.0,38556.0,0,0,0,0,40006.50390625,-6036.0,-1130.0,-1303.0
3.02,1.4272551536560059,0.1363281011581421,0.5940893292427063,0.0,0.0,0.0,-6.09243106842041,4.423892021179199,-0.5385556221008301,0.02631562575697899,2.9321353435516357,0.5912830829620361,40607.0,45609.0,38011.0,37509.0,0,0,0,0,40405.109375,-2807.0,-2156.0,-1404.0
3.04,1.4316667318344116,0.14842069149017334,0.5903889536857605,0.0,0.0,0.0,-5.451165676116943,4.3658366203308105,-0.5353929996490479,0.026336150243878365,2.932157039642334,0.5903889536857605,38090.0,43296.0,40302.0,39720.0,0,0,0,0,40304.47265625,575.0,-1920.0,-1265.0
3.06,1.4353009462356567,0.16268455982208252,0.5895897150039673,0.0,0.0,0.0,-5.004007339477539,4.265819072723389,-0.5398722290992737,0.02631964720785618,2.932140827178955,0.5895897150039673,39110.0,41798.0,39076.0,40876.0,0,0,0,0,39863.4453125,-2170.0,-4485.0,-1320.0
3.08,1.4398388862609863,0.17266260087490082,0.5905114412307739,0.0,0.0,0.0,-4.718460559844971,4.114135265350342,-0.5485294461250305,0.02641506865620613,2.9299490451812744,0.5867764353752136,39238.0,44128.0,39420.0,38938.0,0,0,0,0,40339.23046875,-5022.0,-3393.0,-1346.0
3.1,1.4438468217849731,0.18283407390117645,0.5862337350845337,0.0,0.0,0.0,-4.357318878173828,3.9739809036254883,-0.5499337315559387,0.026491576805710793,2.930027723312378,0.5862337350845337,39719.0,42207.0,38529.0,40497.0,0,0,0,0,40164.46875,-6800.0,-2059.0,-1302.0
3.12,1.4451172351837158,0.19446323812007904,0.5858217477798462,0.0,0.0,0.0,-3.8009274005889893,3.8533389568328857,-0.5600433349609375,0.02651538886129856,2.930053234100342,0.5858217477798462,40780.0,45448.0,37380.0,36608.0,0,0,0,0,39442.89453125,-2027.0,-1621.0,-1014.0
3.14,1.4484540224075317,0.20984652638435364,0.5882632732391357,0.0,0.0,0.0,-3.229973077774048,3.6596946716308594,-0.539417028427124,0.026499785482883453,2.9278976917266846,0.5882632732391357,38419.0,42847.0,38251.0,37751.0,0,0,0,0,39790.69921875,2163.0,-1513.0,-821.0
3.16,1.452302098274231,0.2261652797460556,0.5849828124046326,0.0,0.0,0.0,-2.9246740341186523,3.415924072265625,-0.5112517476081848,0.02649543434381485,2.9271111488342285,0.5849828124046326,37580.0,42044.0,39912.0,39264.0,0,0,0,0,39639.88671875,-2117.0,-2709.0,-717.0
3.18,1.4558826684951782,0.2402992695569992,0.585061252117157,0.0,0.0,0.0,-2.798590898513794,3.1975173950195312,-0.4832497835159302,0.02652844972908497,2.927144765853882,0.585061252117157,38423.0,41381.0,38725.0,39711.0,0,0,0,0,38783.9140625,-4335.0,-2836.0,-881.0
3.2,1.4592036008834839,0.2518637180328369,0.58894944190979,0.0,0.0,0.0,-2.524794101715088,3.020192861557007,-0.45383748412132263,0.026596473529934883,2.924722909927368,0.58894944190979,38234.0,42038.0,37056.0,37400.0,0,0,0,0,39266.359375,-7806.0,-734.0,-1111.0
3.22,1.461287260055542,0.2639162242412567,0.5857825875282288,0.0,0.0,0.0,-2.10465145111084,2.8395938873291016,-0.4525931775569916,0.026652393862605095,2.924004316329956,0.5857825875282288,41460.0,42576.0,34852.0,37844.0,0,0,0,0,39133.42578125,-3461.0,-750.0,-883.0
3.24,1.4636657238006592,0.2796288728713989,0.5862023830413818,0.0,0.0,0.0,-1.6089138984680176,2.622812509536743,-0.43648451566696167,0.026653677225112915,2.9240057468414307,0.5862023830413818,38188.0,41990.0,38040.0,38134.0,0,0,0,0,39071.66015625,619.0,-1485.0,-553.0
3.26,1.4684441089630127,0.29660525918006897,0.5898098349571228,0.0,0.0,0.0,-1.3317875862121582,2.388948678970337,-0.39262351393699646,0.026670336723327637,2.9221208095550537,0.5898098349571228,36783.0,42317.0,37565.0,36999.0,0,0,0,0,38959.01171875,200.0,-2540.0,-1142.0
3.28,1.469723105430603,0.3080219328403473,0.5874054431915283,0.0,0.0,0.0,-1.2831614017486572,2.2640936374664307,-0.3899637460708618,0.026726223528385162,2.9215614795684814,0.5874054431915283,37891.0,42099.0,37949.0,37737.0,0,0,0,0,38906.8828125,-2145.0,-2891.0,-897.0
3.3,1.4705678224563599,0.32084837555885315,0.5880013108253479,0.0,0.0,0.0,-1.1868181228637695,2.190995454788208,-0.3769238591194153,0.026754815131425858,2.921590805053711,0.5880013108253479,38748.0,43710.0,37238.0,35800.0,0,0,0,0,38860.83984375,-7652.0,-2584.0,-749.0
3.32,1.4715874195098877,0.3342781662940979,0.5886061191558838,0.0,0.0,0.0,-0.9246162176132202,2.096587657928467,-0.3512120544910431,0.026768364012241364,2.9203109741210938,0.5909181237220764,40033.0,41611.0,34817.0,36927.0,0,0,0,0,38976.71875,-3858.0,-2517.0,-519.0
3.34,1.4760950803756714,0.350747674703598,0.5880837440490723,0.0,0.0,0.0,-0.5438690185546875,1.9526666402816772,-0.313649982213974,0.026817964389920235,2.9197170734405518,0.5880837440490723,38978.0,41966.0,37102.0,37866.0,0,0,0,0,38992.4140625,-1106.0,-1939.0,-696.0
3.36,1.4782217741012573,0.3696906268596649,0.5885000824928284,0.0,0.0,0.0,-0.4115964472293854,1.7701196670532227,-0.28237855434417725,0.026790382340550423,2.9196889400482178,0.5885000824928284,37032.0,41480.0,38922.0,38574.0,0,0,0,0,39161.28515625,-1698.0,-984.0,-970.0
3.38,1.4801123142242432,0.3803268373012543,0.5882113575935364,0.0,0.0,0.0,-0.43762117624282837,1.5947540998458862,-0.2786213755607605,0.026857713237404823,2.9196698665618896,0.5882113575935364,37589.0,42027.0,38807.0,38249.0,0,0,0,0,38710.21875,-3242.0,-2561.0,-732.0
3.4,1.4806532859802246,0.3959253132343292,0.5907908082008362,0.0,0.0,0.0,-0.4246751070022583,1.4957506656646729,-0.2621179521083832,0.026850612834095955,2.9178972244262695,0.5907908082008362,37967.0,40165.0,37425.0,39247.0,0,0,0,0,38701.5390625,-6631.0,-2642.0,-958.0
3.42,1.484082818031311,0.4097529649734497,0.5914508700370789,0.0,0.0,0.0,-0.25738370418548584,1.4407958984375,-0.24661436676979065,0.026899902150034904,2.917966604232788,0.5916271805763245,39242.0,42356.0,35952.0,37006.0,0,0,0,0,38639.98828125,-3668.0,-1425.0,-1042.0
3.44,1.4851493835449219,0.4247529208660126,0.5922371745109558,0.0,0.0,0.0,-0.05201190337538719,1.3601113557815552,-0.2408670336008072,0.02690727449953556,2.917973756790161,0.5922371745109558,36811.0,42515.0,38511.0,36775.0,0,0,0,0,38653.70703125,-2142.0,-1404.0,-1056.0
3.46,1.4873853921890259,0.4290889799594879,0.5940413475036621,0.0,0.0,0.0,0.019675349816679955,1.2880645990371704,-0.24419629573822021,0.026936503127217293,2.9170854091644287,0.5943793654441833,36888.0,41202.0,38600.0,38466.0,0,0,0,0,38789.93359375,-981.0,-2500.0,-996.0
3.48,1.4884772300720215,0.439572811126709,0.5923860669136047,0.0,0.0,0.0,-0.013187254779040813,1.1892883777618408,-0.2540583908557892,0.02701670490205288,2.9168548583984375,0.5926219820976257,38235.0,42183.0,37283.0,37507.0,0,0,0,0,38802.48046875,-1323.0,-564.0,-1138.0
3.5,1.4921609163284302,0.4527806043624878,0.592891275882721,0.0,0.0,0.0,-0.12180968374013901,1.094925880432129,-0.24910303950309753,0.027069097384810448,2.916905641555786,0.593142569065094,38688.0,41824.0,36712.0,38032.0,0,0,0,0,38814.78515625,-7299.0,-1463.0,-1162.0
3.52,1.4928895235061646,0.4665590524673462,0.5952356457710266,0.0,0.0,0.0,-0.15905536711215973,1.0219999551773071,-0.26072028279304504,0.02707621641457081,2.9159603118896484,0.5955712795257568,38415.0,43187.0,36149.0,35965.0,0,0,0,0,38429.65625,-3752.0,-1572.0,-1111.0
3.54,1.4961369037628174,0.4855724275112152,0.5947110652923584,0.0,0.0,0.0,-0.03598293289542198,0.9796175956726074,-0.28545790910720825,0.02710110880434513,2.915809392929077,0.5947110652923584,37351.0,40669.0,37929.0,38831.0,0,0,0,0,38695.359375,469.0,-1572.0,-1057.0
3.56,1.4991803169250488,0.49963539838790894,0.5951662063598633,0.0,0.0,0.0,-0.15912240743637085,0.9487848281860352,-0.28120455145835876,0.027129262685775757,2.915837526321411,0.5951662063598633,36398.0,41414.0,38852.0,38268.0,0,0,0,0,38733.67578125,-1543.0,-2912.0,-1103.0
3.58,1.4987428188323975,0.5123428106307983,0.5955483317375183,0.0,0.0,0.0,-0.4681636691093445,0.9621469378471375,-0.2899443209171295,0.02712855488061905,2.915820837020874,0.5955893993377686,37564.0,42236.0,37930.0,38066.0,0,0,0,0,38949.3203125,-3209.0,-1449.0,-1232.0
3.6,1.5014537572860718,0.5223933458328247,0.5948933959007263,0.0,0.0,0.0,-0.7058165073394775,0.9666739702224731,-0.3071938157081604,0.027165567502379417,2.9157280921936035,0.5948933959007263,37942.0,41440.0,37764.0,38858.0,0,0,0,0,39001.5,-5594.0,-1010.0,-1113.0
3.62,1.502776026725769,0.5359714031219482,0.5950911045074463,0.0,0.0,0.0,-0.7460534572601318,0.9767850637435913,-0.3176300525665283,0.02717585302889347,2.915738344192505,0.5950911045074463,39026.0,44104.0,36750.0,36196.0,0,0,0,0,39019.96484375,-3397.0,-686.0,-1096.0
3.64,1.5056551694869995,0.5455117225646973,0.5948758721351624,0.0,0.0,0.0,-0.646855890750885,0.9596104621887207,-0.323645681142807,0.027210792526602745,2.9157400131225586,0.5948758721351624,36975.0,40777.0,38527.0,39465.0,0,0,0,0,38936.45703125,904.0,-1334.0,-1244.0
3.66,1.5070494413375854,0.5613706111907959,0.5960628390312195,0.0,0.0,0.0,-0.779316246509552,0.9436860084533691,-0.3251275420188904,0.027216149494051933,2.915120840072632,0.5960628390312195,37019.0,40175.0,38499.0,40047.0,0,0,0,0,38935.77734375,-1235.0,-1656.0,-1179.0
3.68,1.5080549716949463,0.5765513181686401,0.5966688990592957,0.0,0.0,0.0,-1.1440112590789795,0.9739886522293091,-0.33290234208106995,0.027218876406550407,2.9151611328125,0.5966688990592957,37156.0,42282.0,38196.0,37774.0,0,0,0,0,38852.89453125,-4807.0,-3056.0,-1134.0
3.7,1.5113773345947266,0.5912360548973083,0.5969406962394714,0.0,0.0,0.0,-1.405744194984436,1.006813645362854,-0.33755892515182495,0.027241919189691544,2.9151840209960938,0.5969406962394714,38542.0,41858.0,36270.0,37330.0,0,0,0,0,38500.84375,-2942.0,-724.0,-1222.0
3.72,1.5106476545333862,0.6022825241088867,0.5990343689918518,0.0,0.0,0.0,-1.429993748664856,1.0763319730758667,-0.33303403854370117,0.02724350616335869,2.9143285751342773,0.5990343689918518,37668.0,42232.0,36776.0,37232.0,0,0,0,0,38477.61328125,-3884.0,-1423.0,-1226.0
3.74,1.514390230178833,0.6145446300506592,0.5991915464401245,0.0,0.0,0.0,-1.3337888717651367,1.092507243156433,-0.34989529848098755,0.02726977877318859,2.9143240451812744,0.5991915464401245,38566.0,40792.0,36086.0,38656.0,0,0,0,0,38525.96484375,-2017.0,-2165.0,-1240.0
3.76,1.5174005031585693,0.6280799508094788,0.5995872616767883,0.0,0.0,0.0,-1.2000020742416382,1.0728343725204468,-0.3557988703250885,0.027287842705845833,2.914341688156128,0.5995872616767883,37427.0,41215.0,37203.0,38403.0,0,0,0,0,38562.05078125,-2090.0,-2784.0,-1197.0
3.78,1.5202983617782593,0.6394920945167542,0.6018524169921875,0.0,0.0,0.0,-1.0959392786026,1.0324801206588745,-0.3676995635032654,0.027309475466609,2.913666009902954,0.6018524169921875,37281.0,40741.0,36701.0,38321.0,0,0,0,0,38261.5234375,-1316.0,-326.0,-1256.0
3.8,1.520941972732544,0.6535061597824097,0.6006782650947571,0.0,0.0,0.0,-0.9351603388786316,1.0994082689285278,-0.374041348695755,0.02730697952210903,2.9135122299194336,0.6006782650947571,36712.0,43008.0,38056.0,36684.0,0,0,0,0,38615.26171875,-1084.0,2536.0,-1183.0
3.82,1.522396206855774,0.6668086051940918,0.6009048819541931,0.0,0.0,0.0,-0.6796255111694336,1.1936848163604736,-0.38244959712028503,0.027312183752655983,2.9135172367095947,0.6009048819541931,38962.0,40688.0,36142.0,38956.0,0,0,0,0,38687.05859375,-3141.0,-1906.0,-1143.0
3.84,1.5232888460159302,0.6770309209823608,0.6051913499832153,0.0,0.0,0.0,-0.3354157507419586,1.3216047286987305,-0.37438517808914185,0.02732023410499096,2.9121198654174805,0.6051913499832153,36919.0,43043.0,37369.0,36193.0,0,0,0,0,38381.93359375,-2024.0,-2273.0,-1236.0
3.86,1.5243229866027832,0.6879028081893921,0.6032593250274658,0.0,0.0,0.0,0.10057512670755386,1.6638988256454468,-0.3794817328453064,0.027316274121403694,2.9118728637695312,0.6032593250274658,36662.0,43258.0,37978.0,35906.0,0,0,0,0,38451.8203125,-1638.0,-3529.0,-1199.0
3.88,1.525913119316101,0.7009960412979126,0.6034834384918213,0.0,0.0,0.0,0.5157433748245239,2.2009780406951904,-0.3809821903705597,0.02732006087899208,2.9118764400482178,0.6034834384918213,37419.0,42491.0,37379.0,36875.0,0,0,0,0,38541.33203125,-2420.0,-1338.0,-1136.0
3.9,1.5291619300842285,0.715398907661438,0.6036346554756165,0.0,0.0,0.0,0.9130285978317261,2.7489237785339355,-0.3849639296531677,0.02733311988413334,2.9119157791137695,0.6029812097549438,37639.0,43209.0,37543.0,36597.0,0,0,0,0,38747.09375,-2163.0,5908.0,-1163.0
3.92,1.5328829288482666,0.7285519242286682,0.6029855012893677,0.0,0.0,0.0,1.3009898662567139,3.1488523483276367,-0.3822994828224182,0.02734658308327198,2.91192889213562,0.6029855012893677,39920.0,40838.0,35414.0,39200.0,0,0,0,0,38843.48828125,-2974.0,1228.0,-1193.0
3.94,1.5348657369613647,0.7395766377449036,0.6029084324836731,0.0,0.0,0.0,1.7681105136871338,3.4439148902893066,-0.3889613151550293,0.027345309033989906,2.9119269847869873,0.6029084324836731,37475.0,42487.0,38201.0,38373.0,0,0,0,0,39134.2734375,-3102.0,-3145.0,-1289.0
3.96,1.5343624353408813,0.751042366027832,0.6016841530799866,0.0,0.0,0.0,2.2966675758361816,3.9597256183624268,-0.4245016872882843,0.02733004465699196,2.9116592407226562,0.6020829677581787,37659.0,42503.0,38285.0,38037.0,0,0,0,0,39121.67578125,-3016.0,-4735.0,-1130.0
3.98,1.535485029220581,0.7645910382270813,0.6018186807632446,0.0,0.0,0.0,2.7915198802948,4.678067684173584,-0.4518100917339325,0.027333775535225868,2.911663055419922,0.6018186807632446,36878.0,41534.0,39266.0,39102.0,0,0,0,0,39195.95703125,-2526.0,-2397.0,-1280.0
4.0,1.5393145084381104,0.7693644165992737,0.6023116707801819,0.0,0.0,0.0,3.035170555114746,5.010836124420166,-0.46474599838256836,0.027345338836312294,2.9117226600646973,0.6021920442581177,38233.0,42149.0,37621.0,38461.0,0,0,0,0,39116.30078125,-1004.0,3261.0,-1206.0
4.02,1.5405513048171997,0.7875291705131531,0.6019460558891296,0.0,0.0,0.0,3.5971453189849854,5.825566291809082,-0.4812167286872864,0.02734275721013546,2.91171932220459,0.6019460558891296,38626.0,40474.0,35994.0,39010.0,0,0,0,0,38526.6171875,-3005.0,442.0,-1230.0
4.04,1.5404789447784424,0.7989621162414551,0.6040842533111572,0.0,0.0,0.0,3.918287754058838,6.163033962249756,-0.5053350925445557,0.027342522516846657,2.9104607105255127,0.6040842533111572,37204.0,44834.0,37664.0,35254.0,0,0,0,0,38739.27734375,-866.0,-2447.0,-1236.0
4.06,1.5403839349746704,0.809252142906189,0.6040397882461548,0.0,0.0,0.0,4.341001510620117,6.704882621765137,-0.5431049466133118,0.027330687269568443,2.9104485511779785,0.6040397882461548,37723.0,42353.0,37597.0,37443.0,0,0,0,0,38779.3203125,-849.0,-3278.0,-1236.0
4.08,1.538072943687439,0.8219138979911804,0.603935718536377,0.0,0.0,0.0,4.706715106964111,7.4072346687316895,-0.5673403739929199,0.02732529677450657,2.910443067550659,0.603935718536377,38694.0,41588.0,36774.0,38428.0,0,0,0,0,38871.12890625,-3223.0,-2919.0,-1236.0
4.1,1.5384798049926758,0.8318778872489929,0.6069015264511108,0.0,0.0,0.0,5.0397047996521,7.982399940490723,-0.6002928018569946,0.027332017198204994,2.9095168113708496,0.6061421632766724,37228.0,42080.0,37418.0,37266.0,0,0,0,0,38498.84375,-2294.0,3871.0,-1208.0
4.12,1.5382356643676758,0.8445292115211487,0.6062048673629761,0.0,0.0,0.0,5.287996768951416,8.29311752319336,-0.5918028950691223,0.027354367077350616,2.9095394611358643,0.6062048673629761,39183.0,40285.0,35635.0,39177.0,0,0,0,0,38570.375,-2738.0,80.0,-1262.0
4.14,1.5364463329315186,0.8512170314788818,0.6061382293701172,0.0,0.0,0.0,5.579669952392578,8.455342292785645,-0.5791339874267578,0.02731902524828911,2.9095029830932617,0.6061382293701172,37053.0,42001.0,37957.0,37705.0,0,0,0,0,38679.30859375,-2592.0,-4870.0,-1369.0
4.16,1.5323493480682373,0.8622148633003235,0.6064709424972534,0.0,0.0,0.0,5.877114295959473,8.785795211791992,-0.5848150849342346,0.027312852442264557,2.909813404083252,0.6064709424972534,36705.0,42625.0,38585.0,37061.0,0,0,0,0,38744.77734375,-995.0,-2516.0,-1316.0
4.18,1.5286732912063599,0.8700490593910217,0.606232225894928,0.0,0.0,0.0,6.108501434326172,9.256973266601562,-0.5978178977966309,0.027285665273666382,2.909785747528076,0.606232225894928,36954.0,41270.0,38512.0,38812.0,0,0,0,0,38887.14453125,-3293.0,-3541.0,-1350.0
4.2,1.5291990041732788,0.8729322552680969,0.6061024069786072,0.0,0.0,0.0,6.170722484588623,9.435602188110352,-0.6059842705726624,0.027287334203720093,2.9098286628723145,0.6067398190498352,37778.0,40940.0,37980.0,38810.0,0,0,0,0,38877.06640625,-2602.0,3657.0,-1192.0
4.22,1.5277938842773438,0.8846093416213989,0.6061624884605408,0.0,0.0,0.0,6.20795202255249,9.644895553588867,-0.5880297422409058,0.027344418689608574,2.910083532333374,0.6059502959251404,40458.0,40874.0,35320.0,39816.0,0,0,0,0,39117.734375,-3706.0,-663.0,-1284.0
4.24,1.5251518487930298,0.8915688991546631,0.6057286262512207,0.0,0.0,0.0,6.237588405609131,9.62675666809082,-0.541218101978302,0.027343861758708954,2.9100828170776367,0.6054642200469971,37943.0,43157.0,37889.0,37667.0,0,0,0,0,39164.93359375,-1143.0,-2631.0,-1116.0
4.26,1.518570899963379,0.9007944464683533,0.6057507395744324,0.0,0.0,0.0,6.325026512145996,9.606066703796387,-0.5186512470245361,0.027340982109308243,2.9101152420043945,0.6054685115814209,37970.0,41888.0,38356.0,38990.0,0,0,0,0,39301.30859375,-383.0,-1690.0,-1273.0
4.28,1.5131292343139648,0.9111289381980896,0.6044920086860657,0.0,0.0,0.0,6.420257568359375,9.895865440368652,-0.5264925360679626,0.027364810928702354,2.9102635383605957,0.6044920086860657,38765.0,43001.0,37863.0,38323.0,0,0,0,0,39488.9609375,-1123.0,-3333.0,-1057.0
4.3,1.5095828771591187,0.9153947830200195,0.6043534874916077,0.0,0.0,0.0,6.396271705627441,9.967612266540527,-0.5179424285888672,0.027372462674975395,2.9102864265441895,0.6039963364601135,38534.0,41148.0,38366.0,40200.0,0,0,0,0,39562.2578125,-1838.0,1775.0,-1023.0
4.32,1.5035455226898193,0.9217011332511902,0.6036397218704224,0.0,0.0,0.0,6.316863536834717,9.983673095703125,-0.49250954389572144,0.02737637422978878,2.910290241241455,0.6032580137252808,40041.0,42179.0,36881.0,39519.0,0,0,0,0,39655.609375,-2799.0,-172.0,-1326.0
4.34,1.5000969171524048,0.9264012575149536,0.6029316782951355,0.0,0.0,0.0,6.196013450622559,9.802841186523438,-0.45836013555526733,0.027406834065914154,2.91032075881958,0.602535605430603,38455.0,42211.0,38533.0,39661.0,0,0,0,0,39715.90625,-2539.0,-2446.0,-1131.0
4.36,1.4912039041519165,0.9337294697761536,0.6033029556274414,0.0,0.0,0.0,6.093471527099609,9.609601974487305,-0.4222526550292969,0.0274201650172472,2.910407543182373,0.6029706001281738,37255.0,44265.0,39479.0,37141.0,0,0,0,0,39535.01953125,-2210.0,-3099.0,-1242.0
4.38,1.4848946332931519,0.9370744824409485,0.6026603579521179,0.0,0.0,0.0,6.022339820861816,9.537445068359375,-0.40897342562675476,0.027419626712799072,2.910407066345215,0.6023353338241577,39411.0,40717.0,37403.0,40693.0,0,0,0,0,39556.73046875,-878.0,-2140.0,-1210.0
4.4,1.4773186445236206,0.9430519938468933,0.6020771265029907,0.0,0.0,0.0,5.885601997375488,9.577238082885742,-0.3939169645309448,0.027463046833872795,2.9104511737823486,0.6017569899559021,39786.0,41904.0,37082.0,39504.0,0,0,0,0,39569.78515625,-1498.0,4056.0,-1184.0
4.42,1.4684308767318726,0.9461799263954163,0.5984023809432983,0.0,0.0,0.0,5.669871807098389,9.393702507019043,-0.3584294319152832,0.02744397707283497,2.911068916320801,0.5981786847114563,42161.0,41937.0,35841.0,40517.0,0,0,0,0,40114.05859375,-686.0,428.0,-988.0
