time,x_kalman,y_kalman,z_kalman,x_lh,y_lh,z_lh,roll,pitch,yaw,F,R,Z,motor.m1,motor.m2,motor.m3,motor.m4,rpm.m1,rpm.m2,rpm.m3,rpm.m4,controller.cmd_thrust,controller.cmd_roll,controller.cmd_pitch,controller.cmd_yaw
0.0,-0.00035391689743846655,-0.0007501209620386362,0.006179019343107939,0.0,0.0,0.0,-1.8086216449737549,-0.4509451389312744,-0.007481370586901903,-0.002583498368039727,2.816377639770508,0.006084714084863663,55004.0,54808.0,55568.0,56024.0,0,0,0,0,55351.22265625,3756.0,1794.0,64.0
0.02,-0.00042773515451699495,-0.0008843907853588462,0.005722624249756336,0.0,0.0,0.0,-1.805840015411377,-0.45371273159980774,-0.006470481865108013,-0.0025833675172179937,2.8161628246307373,0.005615442991256714,54672.0,53238.0,57150.0,58284.0,0,0,0,0,55836.62109375,2180.0,1829.0,26.0
0.04,0.0008760508499108255,-0.002279039938002825,0.005883965641260147,0.0,0.0,0.0,-1.7356586456298828,-0.5048817992210388,-0.0038960468955338,-0.002578669460490346,2.807624340057373,0.00582636846229434,56692.0,58582.0,54962.0,54356.0,0,0,0,0,56148.3203125,-5351.0,-3538.0,-402.0
0.06,-0.0017808841075748205,0.0001846762461354956,0.005625545978546143,0.0,0.0,0.0,-1.8017857074737549,-0.3997561037540436,-0.01181832142174244,-0.002575838239863515,2.807529926300049,0.0056976741179823875,52923.0,62541.0,57865.0,50959.0,0,0,0,0,56072.7265625,-1895.0,-8038.0,-732.0
0.08,1.850583794293925e-05,0.002110757865011692,0.005969187710434198,0.0,0.0,0.0,-1.384158730506897,-0.23477354645729065,-0.0686178207397461,-0.002626115456223488,2.8074018955230713,0.006576101295650005,49726.0,53748.0,57206.0,56448.0,0,0,0,0,54282.47265625,5063.0,-1152.0,-780.0
0.1,-0.0010188273154199123,0.006715152412652969,0.007894705981016159,0.0,0.0,0.0,-0.9279364347457886,0.45233118534088135,-0.1666826605796814,-0.0025611133314669132,2.8810644149780273,0.01011851616203785,43237.0,56921.0,55913.0,47373.0,0,0,0,0,50861.16796875,-701.0,-16765.0,-1143.0
0.12,-0.015765616670250893,0.005504834000021219,0.011830341070890427,0.0,0.0,0.0,-0.6616881489753723,1.364290714263916,-0.28959956765174866,-0.00269600423052907,2.879833221435547,0.015173554420471191,43687.0,51077.0,48241.0,45083.0,0,0,0,0,47022.01171875,-1868.0,-1298.0,-1038.0
0.14,-0.020740514621138573,-0.0032449199352413416,0.019848689436912537,0.0,0.0,0.0,-0.16083845496177673,1.9867757558822632,-0.4549309015274048,-0.0027012715581804514,2.87975811958313,0.024649187922477722,43384.0,45448.0,40584.0,42364.0,0,0,0,0,42945.4765625,-4674.0,1519.0,-1122.0
0.16,-0.027891922742128372,-0.010050025768578053,0.02977856621146202,0.0,0.0,0.0,0.3096033036708832,2.1591145992279053,-0.5837534070014954,-0.0027288051787763834,2.8895680904388428,0.036286190152168274,34310.0,44092.0,41976.0,37542.0,0,0,0,0,39480.65234375,2882.0,-5540.0,-1351.0
0.18,-0.02970333956182003,-0.0041031865403056145,0.043458931148052216,0.0,0.0,0.0,0.2422373741865158,1.4732427597045898,-0.6750415563583374,0.032383911311626434,2.8912553787231445,0.05310744792222977,31346.0,36908.0,38162.0,38860.0,0,0,0,0,36319.703125,2867.0,-3386.0,-1685.0
0.2,-0.02436542697250843,-0.0009869843488559127,0.061177853494882584,0.0,0.0,0.0,0.04632987082004547,0.6680234670639038,-0.8144632577896118,0.03252005949616432,2.8913655281066895,0.06946761161088943,30465.0,37335.0,34257.0,34459.0,0,0,0,0,34129.8203125,443.0,-2908.0,-1810.0
0.22,-0.03239467367529869,0.0004306571208871901,0.07471898943185806,0.0,0.0,0.0,-0.2621651887893677,0.42124465107917786,-0.9656448364257812,0.030329320579767227,2.897710084915161,0.08340054005384445,30146.0,37234.0,32374.0,32254.0,0,0,0,0,33002.09375,-914.0,-3426.0,-1767.0
0.24,-0.03388126939535141,0.003034356515854597,0.09324386715888977,0.0,0.0,0.0,-0.42647597193717957,-0.02840604819357395,-1.1343376636505127,0.030078157782554626,2.8998007774353027,0.1040600836277008,31217.0,32991.0,28779.0,33681.0,0,0,0,0,31667.705078125,-2000.0,-1232.0,-1616.0
0.26,-0.02949710749089718,0.004473899491131306,0.11307479441165924,0.0,0.0,0.0,-0.2963312864303589,-0.6673895120620728,-1.2952066659927368,0.02985250949859619,2.899627685546875,0.12119807302951813,29553.0,33737.0,29617.0,31713.0,0,0,0,0,31155.81640625,-1365.0,-788.0,-1566.0
0.28,-0.032135844230651855,0.006855363957583904,0.1271178275346756,0.0,0.0,0.0,-0.08038566261529922,-1.1471216678619385,-1.3907129764556885,0.0020921826362609863,2.9028828144073486,0.13545626401901245,29923.0,33207.0,29957.0,32585.0,0,0,0,0,31418.74609375,-2244.0,-1239.0,-1441.0
0.3,-0.03604445233941078,0.0046353754587471485,0.1438295692205429,0.0,0.0,0.0,0.3183394968509674,-1.598941683769226,-1.4656893014907837,0.002248883480206132,2.9029979705810547,0.1519474983215332,29960.0,33964.0,30018.0,31702.0,0,0,0,0,31411.572265625,-66.0,-1184.0,-1372.0
0.32,-0.037700142711400986,0.004933162126690149,0.15991385281085968,0.0,0.0,0.0,0.5869479179382324,-2.0581793785095215,-1.513711929321289,0.0022795735858380795,2.903017282485962,0.16765078902244568,29636.0,34074.0,30826.0,31856.0,0,0,0,0,31598.462890625,120.0,-1665.0,-1321.0
0.34,-0.03886190056800842,0.004681533668190241,0.17249742150306702,0.0,0.0,0.0,0.8027753233909607,-2.446660041809082,-1.5480726957321167,0.004958117846399546,2.901977062225342,0.17973282933235168,31198.0,34272.0,31044.0,33494.0,0,0,0,0,32502.18359375,642.0,-870.0,-1359.0
0.36,-0.04104103520512581,0.0054507809691131115,0.18626053631305695,0.0,0.0,0.0,0.8747590780258179,-2.7354700565338135,-1.566767692565918,0.0045882705599069595,2.9021008014678955,0.19304031133651733,31085.0,35559.0,32183.0,32973.0,0,0,0,0,32950.99609375,-281.0,-2170.0,-1308.0
0.38,-0.041955552995204926,0.005934372544288635,0.200252503156662,0.0,0.0,0.0,0.8757186532020569,-3.0253305435180664,-1.5866100788116455,0.004489214159548283,2.9029781818389893,0.2088368833065033,30847.0,34709.0,32729.0,33919.0,0,0,0,0,33051.57421875,-39.0,-1288.0,-1228.0
0.401,-0.042908698320388794,0.006735580507665873,0.21506556868553162,0.0,0.0,0.0,0.8241960406303406,-3.23709774017334,-1.5946428775787354,0.00452313432469964,2.9030051231384277,0.2211763709783554,31905.0,35847.0,33065.0,34395.0,0,0,0,0,33803.09765625,-600.0,-227.0,-1345.0
0.421,-0.04343297705054283,0.006843332201242447,0.22475004196166992,0.0,0.0,0.0,0.7903962135314941,-3.3773605823516846,-1.5957446098327637,0.002967708744108677,2.9031217098236084,0.23040397465229034,31586.0,36422.0,33474.0,33890.0,0,0,0,0,33843.02734375,92.0,-2757.0,-1298.0
0.44,-0.04491426795721054,0.008108231239020824,0.23828063905239105,0.0,0.0,0.0,0.7651560306549072,-3.4497199058532715,-1.6085231304168701,0.003467496484518051,2.9040818214416504,0.24364054203033447,32738.0,35334.0,33056.0,35892.0,0,0,0,0,34255.42578125,-527.0,-1596.0,-1367.0
0.46,-0.04500060901045799,0.008261214941740036,0.248750701546669,0.0,0.0,0.0,0.8031215667724609,-3.4732322692871094,-1.6176543235778809,0.0033216653391718864,2.9039652347564697,0.248661071062088,33357.0,37245.0,34655.0,36019.0,0,0,0,0,35319.62890625,-1053.0,-2273.0,-1336.0
0.48,-0.044101838022470474,0.007906459271907806,0.2535971999168396,0.0,0.0,0.0,0.8508136868476868,-3.507741928100586,-1.6296484470367432,0.0004603880806826055,2.90408992767334,0.2537887394428253,33249.0,39231.0,35945.0,35471.0,0,0,0,0,35974.33984375,-1041.0,-2148.0,-1272.0
0.5,-0.04582912102341652,0.007938121445477009,0.26106661558151245,0.0,0.0,0.0,0.8766554594039917,-3.418907642364502,-1.6242986917495728,-9.16520511964336e-05,2.9033524990081787,0.260877788066864,33635.0,38999.0,36307.0,36327.0,0,0,0,0,36317.21484375,-925.0,-2599.0,-1350.0
0.52,-0.0456145815551281,0.0074070957489311695,0.26932135224342346,0.0,0.0,0.0,0.9262171387672424,-3.3304102420806885,-1.6234210729599,4.079350401298143e-05,2.90346097946167,0.26932135224342346,33770.0,38660.0,36564.0,37182.0,0,0,0,0,36544.26171875,-23.0,-4352.0,-1436.0
0.54,-0.04486028850078583,0.007333199493587017,0.2770940661430359,0.0,0.0,0.0,0.9402469992637634,-3.19462513923645,-1.6320881843566895,-9.126288932748139e-05,2.8511390686035156,0.27702033519744873,34124.0,38222.0,35866.0,37444.0,0,0,0,0,36414.82421875,-306.0,-2629.0,-1422.0
0.56,-0.043411437422037125,0.005973699502646923,0.2864585816860199,0.0,0.0,0.0,0.9429826140403748,-3.050675630569458,-1.6498987674713135,0.00025100327911786735,2.8527255058288574,0.28634560108184814,34049.0,39985.0,36301.0,35793.0,0,0,0,0,36532.30078125,-346.0,-4554.0,-1389.0
0.58,-0.041549671441316605,0.005622850265353918,0.293661892414093,0.0,0.0,0.0,0.8720382452011108,-2.9288461208343506,-1.6637024879455566,0.00010721814032876864,2.8525617122650146,0.293529748916626,33891.0,39739.0,36665.0,36165.0,0,0,0,0,36615.9140625,941.0,-1765.0,-1355.0
0.6,-0.0395049974322319,0.004415902309119701,0.3005715310573578,0.0,0.0,0.0,0.8102733492851257,-2.716887950897217,-1.6691012382507324,0.0003771157353185117,2.8708808422088623,0.3026280701160431,32769.0,40841.0,37295.0,34687.0,0,0,0,0,36398.2265625,-1040.0,-4246.0,-1382.0
0.62,-0.0367998369038105,0.003186896676197648,0.3095170557498932,0.0,0.0,0.0,0.7204709649085999,-2.4926044940948486,-1.6705808639526367,0.00023382784274872392,2.870720148086548,0.30944111943244934,34276.0,39084.0,35960.0,36312.0,0,0,0,0,36408.61328125,-322.0,-2661.0,-1368.0
0.64,-0.033446624875068665,0.0021159877069294453,0.3160450756549835,0.0,0.0,0.0,0.6296650767326355,-2.2112278938293457,-1.6737966537475586,0.0001328866637777537,2.8706068992614746,0.31609874963760376,33631.0,39535.0,36363.0,35951.0,0,0,0,0,36370.44921875,638.0,-557.0,-1371.0
0.66,-0.03143869712948799,0.0011183400638401508,0.32260286808013916,0.0,0.0,0.0,0.5103805065155029,-1.8801206350326538,-1.6646384000778198,0.0009533351985737681,2.8732540607452393,0.3268986642360687,33936.0,37764.0,35068.0,36868.0,0,0,0,0,35909.99609375,592.0,-2267.0,-1409.0
0.68,-0.028157154098153114,-0.00018387395539321005,0.3324936330318451,0.0,0.0,0.0,0.3676750957965851,-1.5452584028244019,-1.6665585041046143,0.0006035033147782087,2.878556966781616,0.332510769367218,32965.0,38575.0,36083.0,36033.0,0,0,0,0,35914.796875,-657.0,-2745.0,-1360.0
0.7,-0.024942297488451004,-0.0015384008875116706,0.33880510926246643,0.0,0.0,0.0,0.2038448601961136,-1.246066927909851,-1.6724668741226196,0.0016832472756505013,2.8823938369750977,0.3451302647590637,31431.0,38499.0,35851.0,34019.0,0,0,0,0,34950.02734375,-628.0,-4332.0,-1362.0
0.72,-0.021669534966349602,-0.0033217750024050474,0.35178235173225403,0.0,0.0,0.0,0.06806444376707077,-0.9147071838378906,-1.6629868745803833,0.0015929816290736198,2.8822977542877197,0.35179266333580017,32186.0,39330.0,35344.0,33796.0,0,0,0,0,35164.18359375,864.0,-3346.0,-1350.0
0.74,-0.017759673297405243,-0.004860566463321447,0.357187420129776,0.0,0.0,0.0,-0.06368497014045715,-0.5451868772506714,-1.6514601707458496,0.001317179063335061,2.8849263191223145,0.3572372496128082,31993.0,37765.0,35081.0,34761.0,0,0,0,0,34900.28125,1344.0,-1937.0,-1355.0
0.76,-0.014199056662619114,-0.007150592282414436,0.365639328956604,0.0,0.0,0.0,-0.18560464680194855,-0.12580545246601105,-1.6417614221572876,0.001568830688484013,2.886143684387207,0.3656928837299347,32585.0,37165.0,34981.0,35441.0,0,0,0,0,35043.61328125,151.0,-1806.0,-1246.0
0.78,-0.009958387352526188,-0.008684728294610977,0.37153008580207825,0.0,0.0,0.0,-0.3539087176322937,0.21953530609607697,-1.6313235759735107,0.0014285841025412083,2.885995864868164,0.3715668320655823,32313.0,37293.0,34947.0,34875.0,0,0,0,0,34857.44140625,-1194.0,-4104.0,-1224.0
0.8,-0.007001297548413277,-0.009858351200819016,0.37904754281044006,0.0,0.0,0.0,-0.5127376317977905,0.552640974521637,-1.6013274192810059,0.0015360545367002487,2.882469415664673,0.3790113627910614,33707.0,36653.0,35021.0,36831.0,0,0,0,0,35553.9296875,280.0,-4053.0,-1205.0
0.82,-0.002573351375758648,-0.012302020564675331,0.38142549991607666,0.0,0.0,0.0,-0.6315139532089233,0.8758293390274048,-1.5707590579986572,0.001156244776211679,2.8809990882873535,0.38145068287849426,33493.0,37917.0,35637.0,36021.0,0,0,0,0,35767.85546875,-259.0,-2488.0,-1167.0
0.84,0.0012090812670066953,-0.013875498436391354,0.38632920384407043,0.0,0.0,0.0,-0.7951429486274719,1.2066020965576172,-1.5350611209869385,0.0010701384162530303,2.8809092044830322,0.38633477687835693,32547.0,38519.0,37097.0,35853.0,0,0,0,0,36004.3203125,-577.0,-3422.0,-1218.0
0.86,0.005160929635167122,-0.015537390485405922,0.39131301641464233,0.0,0.0,0.0,-0.940453290939331,1.4980063438415527,-1.499701976776123,0.0010098498314619064,2.880235195159912,0.3913126587867737,34033.0,39353.0,35969.0,35737.0,0,0,0,0,36273.3125,426.0,-3035.0,-1227.0
0.88,0.008670908398926258,-0.017130520194768906,0.3949328064918518,0.0,0.0,0.0,-1.1022379398345947,1.7931145429611206,-1.4710942506790161,0.0009173821890726686,2.879910707473755,0.39493006467819214,34531.0,37871.0,36099.0,37475.0,0,0,0,0,36494.51953125,-651.0,-3869.0,-1199.0
0.9,0.013083966448903084,-0.018837453797459602,0.39887872338294983,0.0,0.0,0.0,-1.2514584064483643,2.077209711074829,-1.451634168624878,0.0008359964704141021,2.879826545715332,0.3988822400569916,34458.0,39766.0,36488.0,35900.0,0,0,0,0,36653.03125,97.0,-2774.0,-1164.0
0.92,0.01671721413731575,-0.021011419594287872,0.4061850309371948,0.0,0.0,0.0,-1.3732779026031494,2.3490922451019287,-1.4206548929214478,0.0007875755545683205,2.875739336013794,0.4061819911003113,33433.0,39339.0,37447.0,36421.0,0,0,0,0,36660.72265625,-362.0,-2308.0,-1223.0
0.94,0.020364316180348396,-0.021959565579891205,0.40638434886932373,0.0,0.0,0.0,-1.4802337884902954,2.605104684829712,-1.3986612558364868,0.0006434447132050991,2.874476909637451,0.40639424324035645,34300.0,41082.0,36680.0,34974.0,0,0,0,0,36759.5078125,-538.0,-4585.0,-1241.0
0.96,0.02361360192298889,-0.024290217086672783,0.4098718762397766,0.0,0.0,0.0,-1.5671875476837158,2.843600273132324,-1.3801043033599854,0.000616774836089462,2.8744497299194336,0.4098966121673584,34307.0,38817.0,37095.0,37205.0,0,0,0,0,36856.8203125,-1040.0,-4803.0,-1201.0
0.98,0.026977628469467163,-0.024821052327752113,0.41321200132369995,0.0,0.0,0.0,-1.644405484199524,3.0629918575286865,-1.3609120845794678,0.0004938275087624788,2.87249493598938,0.41504743695259094,34174.0,38174.0,36364.0,37360.0,0,0,0,0,36518.65625,-710.0,-3956.0,-1259.0
1.0,0.03049665503203869,-0.02621762454509735,0.4161844253540039,0.0,0.0,0.0,-1.7253632545471191,3.2225723266601562,-1.3379607200622559,0.0004406838270369917,2.8718206882476807,0.41616684198379517,34651.0,39397.0,36711.0,37105.0,0,0,0,0,36966.76171875,-197.0,-1744.0,-1292.0
1.02,0.03415953740477562,-0.02776947245001793,0.41927018761634827,0.0,0.0,0.0,-1.773105263710022,3.36629056930542,-1.3294694423675537,0.0003958065644837916,2.8717753887176514,0.4192532002925873,34302.0,39768.0,37074.0,37012.0,0,0,0,0,37039.8515625,586.0,-2476.0,-1299.0
1.04,0.0380689799785614,-0.02882806397974491,0.4222327470779419,0.0,0.0,0.0,-1.8077601194381714,3.4572410583496094,-1.3291308879852295,0.0003735215577762574,2.8717527389526367,0.42223984003067017,34003.0,40859.0,38679.0,36675.0,0,0,0,0,37554.78125,601.0,-3216.0,-1260.0
1.06,0.04034420847892761,-0.03047214262187481,0.42261362075805664,0.0,0.0,0.0,-1.8485500812530518,3.5482964515686035,-1.3260531425476074,0.00043945954530499876,2.8734612464904785,0.4226280152797699,34463.0,39775.0,38135.0,38107.0,0,0,0,0,37620.56640625,443.0,-1580.0,-1327.0
1.08,0.04301801696419716,-0.03151834383606911,0.4251197576522827,0.0,0.0,0.0,-1.8875726461410522,3.641662359237671,-1.3219269514083862,0.0004069825226906687,2.8734288215637207,0.4251197576522827,35430.0,40254.0,37040.0,37800.0,0,0,0,0,37631.0703125,-1134.0,-3282.0,-1356.0
1.1,0.04606354981660843,-0.032281454652547836,0.42757153511047363,0.0,0.0,0.0,-1.9013468027114868,3.7186131477355957,-1.3291627168655396,0.00036709869164042175,2.873389720916748,0.4275580644607544,34573.0,39587.0,37395.0,37465.0,0,0,0,0,37255.10546875,-1046.0,-3667.0,-1241.0
1.12,0.04835425317287445,-0.03420215845108032,0.4315635859966278,0.0,0.0,0.0,-1.8777117729187012,3.7499940395355225,-1.3344757556915283,0.00029574192012660205,2.872119903564453,0.431549996137619,34525.0,39163.0,37157.0,37959.0,0,0,0,0,37201.34765625,1204.0,-1274.0,-1362.0
1.14,0.05088818073272705,-0.035527296364307404,0.4341995120048523,0.0,0.0,0.0,-1.848361611366272,3.7591567039489746,-1.32706880569458,0.0002867332077585161,2.8721113204956055,0.4341929256916046,33905.0,39825.0,37555.0,37199.0,0,0,0,0,37121.703125,-18.0,-3068.0,-1422.0
1.16,0.05257696658372879,-0.03547586873173714,0.4369755983352661,0.0,0.0,0.0,-1.858758568763733,3.7752068042755127,-1.3299223184585571,0.00027588402736000717,2.872100830078125,0.43696722388267517,34267.0,40629.0,37205.0,36159.0,0,0,0,0,37065.34375,-1035.0,-4024.0,-1334.0
1.18,0.05504710599780083,-0.03609929233789444,0.43931832909584045,0.0,0.0,0.0,-1.845967173576355,3.7943828105926514,-1.343559980392456,0.0002662891347426921,2.8718714714050293,0.4393143057823181,34694.0,39610.0,36784.0,37136.0,0,0,0,0,37056.22265625,-810.0,-3962.0,-1350.0
1.2,0.05697421357035637,-0.036138877272605896,0.4419078826904297,0.0,0.0,0.0,-1.8240966796875,3.781355619430542,-1.3428243398666382,0.0002654574636835605,2.87187123298645,0.44191211462020874,35377.0,38569.0,35991.0,38131.0,0,0,0,0,37017.50390625,302.0,-334.0,-1346.0
1.22,0.058385349810123444,-0.037840936332941055,0.44399261474609375,0.0,0.0,0.0,-1.73886239528656,3.746462821960449,-1.3475228548049927,0.0002673545677680522,2.871809720993042,0.44399261474609375,34118.0,39946.0,37366.0,37042.0,0,0,0,0,37118.79296875,482.0,-3181.0,-1378.0
1.24,0.058339402079582214,-0.037423405796289444,0.44710773229599,0.0,0.0,0.0,-1.6682591438293457,3.6744844913482666,-1.3526798486709595,0.00024102861061692238,2.8711960315704346,0.4471099376678467,34924.0,39252.0,36248.0,37324.0,0,0,0,0,36937.5390625,-632.0,-2549.0,-1460.0
1.261,0.05990414693951607,-0.037249933928251266,0.4496115744113922,0.0,0.0,0.0,-1.6153651475906372,3.5753870010375977,-1.3574315309524536,0.00024341100652236491,2.8712332248687744,0.4498451352119446,35128.0,38284.0,35788.0,38320.0,0,0,0,0,36880.9921875,1107.0,-43.0,-1414.0
1.28,0.05980709567666054,-0.03788677603006363,0.45232126116752625,0.0,0.0,0.0,-1.533437967300415,3.4860429763793945,-1.3679901361465454,0.00024341100652236491,2.8712332248687744,0.45232126116752625,34212.0,39970.0,36508.0,36922.0,0,0,0,0,36903.41015625,-258.0,-3445.0,-1452.0
1.3,0.059167563915252686,-0.037211108952760696,0.45472225546836853,0.0,0.0,0.0,-1.4989455938339233,3.3539183139801025,-1.37638258934021,0.0003298179944977164,2.8734328746795654,0.4516136348247528,34795.0,40755.0,37737.0,37173.0,0,0,0,0,37615.21875,477.0,-3108.0,-1313.0
1.32,0.058473166078329086,-0.03652603551745415,0.4535277187824249,0.0,0.0,0.0,-1.4469575881958008,3.2011280059814453,-1.3821805715560913,0.0003321987169329077,2.873424530029297,0.45345285534858704,35608.0,41122.0,37342.0,36496.0,0,0,0,0,37642.75,-75.0,-904.0,-1351.0
1.34,0.05742354318499565,-0.0362689271569252,0.4553133547306061,0.0,0.0,0.0,-1.3651858568191528,3.0633440017700195,-1.3692132234573364,0.0003321987169329077,2.873424530029297,0.4553133547306061,35147.0,40807.0,37429.0,37229.0,0,0,0,0,37653.35546875,-459.0,-2223.0,-1361.0
1.361,0.05614921450614929,-0.035316403955221176,0.457138329744339,0.0,0.0,0.0,-1.2672393321990967,2.860758066177368,-1.3662960529327393,0.00033430184703320265,2.873426675796509,0.45714089274406433,35100.0,39626.0,36690.0,37536.0,0,0,0,0,37238.4140625,-1060.0,-4514.0,-1400.0
1.38,0.05500921979546547,-0.0350513830780983,0.46072837710380554,0.0,0.0,0.0,-1.1643229722976685,2.6218502521514893,-1.3664087057113647,0.0002999780117534101,2.8723642826080322,0.46072837710380554,34917.0,39541.0,36971.0,37383.0,0,0,0,0,37203.75,-502.0,-2576.0,-1380.0
1.4,0.05414458364248276,-0.03498246520757675,0.46277761459350586,0.0,0.0,0.0,-1.0591645240783691,2.3701729774475098,-1.3624603748321533,0.0003156634920742363,2.8723812103271484,0.46278858184814453,34781.0,38983.0,36943.0,37817.0,0,0,0,0,37131.4140625,-853.0,-2774.0,-1329.0
1.42,0.05508501082658768,-0.03490019217133522,0.46485063433647156,0.0,0.0,0.0,-0.949094831943512,2.1104507446289062,-1.3597002029418945,0.00033245442318730056,2.8723995685577393,0.464861661195755,34748.0,38864.0,36790.0,37462.0,0,0,0,0,36966.25,-418.0,-1367.0,-1324.0
1.44,0.05593021586537361,-0.03480129688978195,0.46583619713783264,0.0,0.0,0.0,-0.845414400100708,1.8671537637710571,-1.3477368354797363,0.0003379924746695906,2.871906280517578,0.46584829688072205,35498.0,38940.0,36800.0,37750.0,0,0,0,0,37247.46484375,505.0,-1275.0,-1305.0
1.46,0.05478654056787491,-0.034483615309000015,0.46775346994400024,0.0,0.0,0.0,-0.7536218762397766,1.6432396173477173,-1.332141399383545,0.0003375296073500067,2.871905565261841,0.46775612235069275,34881.0,40127.0,37361.0,36611.0,0,0,0,0,37245.109375,-1384.0,-3045.0,-1394.0
1.48,0.0526680052280426,-0.03413362428545952,0.4696282148361206,0.0,0.0,0.0,-0.6779286861419678,1.4637256860733032,-1.3152586221694946,0.00033732326119206846,2.871905565261841,0.4696282744407654,34134.0,40824.0,37796.0,36142.0,0,0,0,0,37224.2421875,-421.0,-2812.0,-1373.0
1.5,0.05193423479795456,-0.03403162956237793,0.4725739359855652,0.0,0.0,0.0,-0.5711109042167664,1.3091059923171997,-1.3085020780563354,0.0003430347132962197,2.8717429637908936,0.4725739359855652,35507.0,39703.0,36155.0,36739.0,0,0,0,0,37026.99609375,-556.0,-2309.0,-1317.0
1.52,0.05084194615483284,-0.0348077118396759,0.47450652718544006,0.0,0.0,0.0,-0.48565730452537537,1.1278777122497559,-1.3019729852676392,0.0003634117601905018,2.871764659881592,0.4745176434516907,34852.0,40300.0,36782.0,36058.0,0,0,0,0,36998.84765625,-1581.0,-2057.0,-1384.0
1.54,0.0519627220928669,-0.03665529564023018,0.4764104187488556,0.0,0.0,0.0,-0.3980746269226074,0.8889150023460388,-1.2928675413131714,0.00038212211802601814,2.8717830181121826,0.47641339898109436,35389.0,39297.0,35961.0,37265.0,0,0,0,0,36978.328125,345.0,-370.0,-1349.0
1.56,0.05123147740960121,-0.03394600376486778,0.47934818267822266,0.0,0.0,0.0,-0.35892972350120544,0.7276898622512817,-1.2836382389068604,0.0003785074513871223,2.8711304664611816,0.4793657958507538,34355.0,40649.0,36581.0,35479.0,0,0,0,0,36766.54296875,-1259.0,-4256.0,-1369.0
1.58,0.04825396463274956,-0.03996291011571884,0.4813048243522644,0.0,0.0,0.0,-0.2709423005580902,0.5766075253486633,-1.2876886129379272,0.0003762303094845265,2.870974063873291,0.47992098331451416,34227.0,37961.0,37587.0,38341.0,0,0,0,0,37029.4140625,197.0,-3486.0,-1318.0
1.6,0.04925599321722984,-0.03254350647330284,0.48165661096572876,0.0,0.0,0.0,-0.29964154958724976,0.4835169017314911,-1.2640972137451172,0.0003936153370887041,2.8709921836853027,0.4816799759864807,35027.0,39673.0,36603.0,36885.0,0,0,0,0,37047.3359375,-363.0,-2229.0,-1385.0
1.62,0.049233581870794296,-0.04029959440231323,0.48337554931640625,0.0,0.0,0.0,-0.25338006019592285,0.3658362329006195,-1.2644575834274292,0.0003918440779671073,2.870802640914917,0.48375120759010315,34718.0,39422.0,36812.0,37004.0,0,0,0,0,36989.57421875,-846.0,-3866.0,-1317.0
1.64,0.04549466073513031,-0.038407377898693085,0.48542487621307373,0.0,0.0,0.0,-0.3005284368991852,0.2698683440685272,-1.2541470527648926,0.0003889360523317009,2.8707170486450195,0.4846494197845459,34933.0,39603.0,37067.0,37009.0,0,0,0,0,37153.66796875,-222.0,-2476.0,-1346.0
1.66,0.04269127920269966,-0.037884581834077835,0.48617950081825256,0.0,0.0,0.0,-0.3214321434497833,0.18908937275409698,-1.2384055852890015,0.00038674817187711596,2.8707146644592285,0.48617950081825256,35138.0,39984.0,36674.0,36992.0,0,0,0,0,37197.57421875,-302.0,-1488.0,-1402.0
1.68,0.040551017969846725,-0.036917466670274734,0.48764336109161377,0.0,0.0,0.0,-0.3730481266975403,0.07917437702417374,-1.2256603240966797,0.00039252048009075224,2.870720863342285,0.4876505732536316,36286.0,39768.0,36346.0,37848.0,0,0,0,0,37562.08203125,-1710.0,-2325.0,-1328.0
1.7,0.038819026201963425,-0.03769060596823692,0.48734763264656067,0.0,0.0,0.0,-0.42409074306488037,-0.0653417706489563,-1.2217057943344116,0.0004069609858561307,2.8713300228118896,0.48734763264656067,35530.0,40400.0,37114.0,36592.0,0,0,0,0,37409.55078125,-1.0,-1729.0,-1294.0
1.72,0.03490515425801277,-0.03705327957868576,0.4895970821380615,0.0,0.0,0.0,-0.454425573348999,-0.1943858414888382,-1.2071247100830078,0.0004045341338496655,2.871429920196533,0.4895970821380615,34876.0,39848.0,37556.0,37288.0,0,0,0,0,37392.12109375,63.0,-2432.0,-1343.0
1.74,0.03272600099444389,-0.03607547655701637,0.49086084961891174,0.0,0.0,0.0,-0.48072725534439087,-0.28522810339927673,-1.1899865865707397,0.0004026386304758489,2.8714280128479004,0.4908584952354431,34687.0,38435.0,36397.0,37737.0,0,0,0,0,36814.8984375,-1182.0,-3067.0,-1323.0
1.76,0.03047867678105831,-0.035676825791597366,0.49512168765068054,0.0,0.0,0.0,-0.5256155729293823,-0.39451244473457336,-1.1834286451339722,0.00037463553599081933,2.870269775390625,0.49406197667121887,34943.0,39501.0,36553.0,36835.0,0,0,0,0,36958.08203125,-872.0,-2119.0,-1344.0
1.78,0.0283608790487051,-0.03469327464699745,0.49553313851356506,0.0,0.0,0.0,-0.5563995838165283,-0.5608883500099182,-1.1731905937194824,0.00037463553599081933,2.870269775390625,0.49553313851356506,34720.0,39756.0,36854.0,36522.0,0,0,0,0,36963.98046875,-612.0,-1151.0,-1284.0
1.8,0.027151918038725853,-0.03460180014371872,0.4969744086265564,0.0,0.0,0.0,-0.5116873383522034,-0.7206621170043945,-1.1630436182022095,0.0003790849877987057,2.870274305343628,0.4969744086265564,34972.0,38886.0,36698.0,37248.0,0,0,0,0,36951.66015625,-1384.0,-4234.0,-1359.0
1.82,0.02444995567202568,-0.034300535917282104,0.500045657157898,0.0,0.0,0.0,-0.48159170150756836,-0.8461472392082214,-1.1459286212921143,0.000361572892870754,2.869656562805176,0.49900373816490173,34159.0,39339.0,36803.0,37023.0,0,0,0,0,36831.4375,-1017.0,-2680.0,-1346.0
1.84,0.02247311919927597,-0.03326719254255295,0.5004452466964722,0.0,0.0,0.0,-0.48164308071136475,-0.92549729347229,-1.141424298286438,0.000361572892870754,2.869656562805176,0.5004452466964722,35397.0,37993.0,35933.0,37993.0,0,0,0,0,36829.13671875,-288.0,-2441.0,-1284.0
1.86,0.020927108824253082,-0.03147086873650551,0.5018479824066162,0.0,0.0,0.0,-0.46878430247306824,-0.9884358644485474,-1.1307861804962158,0.000364312349120155,2.869659423828125,0.501851499080658,34162.0,39356.0,37244.0,36674.0,0,0,0,0,36859.90234375,-1219.0,-3031.0,-1295.0
1.88,0.019619997590780258,-0.03129445016384125,0.5024173855781555,0.0,0.0,0.0,-0.4457419514656067,-1.0829201936721802,-1.116794466972351,0.00034268165472894907,2.8688740730285645,0.5038076043128967,34234.0,40320.0,37136.0,35382.0,0,0,0,0,36768.63671875,-844.0,-3363.0,-1283.0
1.9,0.017828674986958504,-0.030096519738435745,0.5051653385162354,0.0,0.0,0.0,-0.4247675836086273,-1.1370518207550049,-1.1009823083877563,0.00034268165472894907,2.8688740730285645,0.5051653385162354,34490.0,39402.0,36544.0,36832.0,0,0,0,0,36817.09375,-1341.0,-1740.0,-1300.0
1.92,0.016061682254076004,-0.028857780620455742,0.5065124034881592,0.0,0.0,0.0,-0.38201937079429626,-1.1725349426269531,-1.0885602235794067,0.0003408387419767678,2.8688135147094727,0.505692720413208,35450.0,39508.0,36316.0,36822.0,0,0,0,0,37024.890625,-1392.0,-3208.0,-1270.0
1.94,0.014469876885414124,-0.027670864015817642,0.5068086981773376,0.0,0.0,0.0,-0.33996081352233887,-1.2398241758346558,-1.0752283334732056,0.0003386493190191686,2.8686444759368896,0.5071924328804016,35308.0,38092.0,36258.0,38326.0,0,0,0,0,36996.609375,-72.0,-2392.0,-1228.0
1.96,0.015764420852065086,-0.026355504989624023,0.508291482925415,0.0,0.0,0.0,-0.25286751985549927,-1.2799451351165771,-1.0628935098648071,0.0003425396280363202,2.8686487674713135,0.5082931518554688,35193.0,39505.0,37175.0,37651.0,0,0,0,0,37381.22265625,-1132.0,-2399.0,-1336.0
1.981,0.015866558998823166,-0.02491137571632862,0.5075437426567078,0.0,0.0,0.0,-0.19319455325603485,-1.2993574142456055,-1.0482653379440308,0.0003396424581296742,2.8685190677642822,0.5075445175170898,35346.0,39214.0,37258.0,37910.0,0,0,0,0,37432.26953125,-1255.0,-1854.0,-1338.0
2.0,0.01560201309621334,-0.023407433182001114,0.5083231925964355,0.0,0.0,0.0,-0.1393681764602661,-1.2930554151535034,-1.0367529392242432,0.00034016254357993603,2.8685197830200195,0.5083233714103699,35307.0,40179.0,36427.0,37319.0,0,0,0,0,37308.08984375,-1202.0,-2901.0,-1392.0
2.02,0.015493379905819893,-0.021698206663131714,0.5099287629127502,0.0,0.0,0.0,-0.08203490823507309,-1.27749764919281,-1.0359282493591309,0.00033872321364469826,2.868255138397217,0.5099350810050964,35793.0,39233.0,36961.0,38137.0,0,0,0,0,37531.078125,-480.0,-1829.0,-1266.0
2.04,0.020558148622512817,-0.024029016494750977,0.5094939470291138,0.0,0.0,0.0,0.028377100825309753,-1.2441513538360596,-1.031986951828003,0.00033895231899805367,2.8681650161743164,0.5094934701919556,36295.0,39999.0,36131.0,37783.0,0,0,0,0,37552.921875,-615.0,-1150.0,-1380.0
2.06,0.023251112550497055,-0.023899566382169724,0.5101671814918518,0.0,0.0,0.0,0.09111718088388443,-1.1668846607208252,-1.0241118669509888,0.00034055046853609383,2.86816668510437,0.5101636648178101,35080.0,39584.0,36068.0,37244.0,0,0,0,0,36994.02734375,-84.0,-2320.0,-1348.0
2.08,0.026608414947986603,-0.021948792040348053,0.5138311982154846,0.0,0.0,0.0,0.13120459020137787,-1.0372138023376465,-1.0279277563095093,0.0003194358432665467,2.8673269748687744,0.5138320922851562,34950.0,39952.0,36750.0,38092.0,0,0,0,0,37436.515625,-886.0,-2728.0,-1390.0
2.101,0.027298208326101303,-0.021896084770560265,0.5120651125907898,0.0,0.0,0.0,0.15594004094600677,-0.8335105180740356,-1.033363699913025,0.00031407084316015244,2.8671152591705322,0.5120632648468018,34712.0,39774.0,37278.0,37924.0,0,0,0,0,37422.87890625,-586.0,-2772.0,-1413.0
2.12,0.03274758160114288,-0.021946722641587257,0.5127904415130615,0.0,0.0,0.0,0.18273834884166718,-0.6330509185791016,-1.036808729171753,0.00031420247978530824,2.8671154975891113,0.5127898454666138,34680.0,40450.0,37066.0,37432.0,0,0,0,0,37407.23828125,-611.0,-2716.0,-1441.0
2.14,0.036190398037433624,-0.02304280735552311,0.5115635991096497,0.0,0.0,0.0,0.2112923413515091,-0.4024967849254608,-1.0467629432678223,0.0003238976642023772,2.8674962520599365,0.5106878876686096,35491.0,40565.0,37495.0,38197.0,0,0,0,0,37937.35546875,-298.0,-2351.0,-1415.0
2.16,0.03937485069036484,-0.02352287992835045,0.511106550693512,0.0,0.0,0.0,0.19993406534194946,-0.15757817029953003,-1.052234411239624,0.0003227229171898216,2.867495059967041,0.5111032724380493,35667.0,40897.0,37363.0,37825.0,0,0,0,0,37938.1796875,-609.0,-2504.0,-1439.0
2.18,0.0427539236843586,-0.02322138100862503,0.511530339717865,0.0,0.0,0.0,0.18270543217658997,0.09976959973573685,-1.0538883209228516,0.00032203225418925285,2.8674943447113037,0.5115289688110352,35458.0,41382.0,37402.0,37278.0,0,0,0,0,37880.60546875,113.0,-3152.0,-1398.0
2.2,0.04683304205536842,-0.023653071373701096,0.5129924416542053,0.0,0.0,0.0,0.17614054679870605,0.3796910345554352,-1.0561102628707886,0.0003212825977243483,2.8675382137298584,0.5129921436309814,34994.0,40230.0,37686.0,38138.0,0,0,0,0,37762.8203125,-440.0,-2577.0,-1487.0
2.22,0.0477917455136776,-0.023510552942752838,0.5127125978469849,0.0,0.0,0.0,0.1585918664932251,0.7174304723739624,-1.0537757873535156,0.00032937939977273345,2.867889165878296,0.5127096176147461,34690.0,39842.0,37326.0,39014.0,0,0,0,0,37718.7734375,713.0,-2308.0,-1465.0
2.24,0.05165206268429756,-0.023554792627692223,0.513305127620697,0.0,0.0,0.0,0.1211986169219017,1.0096668004989624,-1.0656640529632568,0.0003290423774160445,2.867910861968994,0.5136881470680237,34620.0,41900.0,36978.0,36738.0,0,0,0,0,37559.5859375,-520.0,-3312.0,-1529.0
2.26,0.05231163278222084,-0.02471296489238739,0.514387309551239,0.0,0.0,0.0,0.060425519943237305,1.2949923276901245,-1.0787700414657593,0.00031262371339835227,2.8673622608184814,0.5158753991127014,34612.0,40362.0,36430.0,37224.0,0,0,0,0,37157.95703125,86.0,-2181.0,-1577.0
2.28,0.056062422692775726,-0.024843813851475716,0.5168144702911377,0.0,0.0,0.0,0.03578898310661316,1.574286937713623,-1.0914567708969116,0.00031223788391798735,2.8673617839813232,0.5168148279190063,34620.0,41128.0,36892.0,36776.0,0,0,0,0,37354.53125,-152.0,-2101.0,-1536.0
2.3,0.05622849985957146,-0.024421995505690575,0.5162384510040283,0.0,0.0,0.0,-0.019788281992077827,1.7988576889038086,-1.1021426916122437,0.0003092690894845873,2.8672657012939453,0.5162377953529358,34666.0,40678.0,36652.0,37224.0,0,0,0,0,37305.87890625,-810.0,-3814.0,-1546.0
2.32,0.05804043263196945,-0.023959685117006302,0.517075777053833,0.0,0.0,0.0,-0.0705905556678772,1.9845606088638306,-1.1096996068954468,0.0003090309619437903,2.867265462875366,0.517075777053833,33749.0,40059.0,36437.0,36567.0,0,0,0,0,36703.41796875,125.0,-1646.0,-1603.0
2.34,0.06212861090898514,-0.025588665157556534,0.5209853053092957,0.0,0.0,0.0,-0.08396740257740021,2.117262840270996,-1.1186450719833374,0.0002852447214536369,2.8664495944976807,0.5209853053092957,34066.0,40924.0,36330.0,36308.0,0,0,0,0,36907.78515625,-1518.0,-2381.0,-1631.0
2.36,0.06443817168474197,-0.027150047942996025,0.5208067893981934,0.0,0.0,0.0,-0.0948474109172821,2.2671098709106445,-1.1287519931793213,0.00028300436679273844,2.866365432739258,0.5208068490028381,34717.0,41089.0,35895.0,35983.0,0,0,0,0,36921.55078125,-250.0,-4124.0,-1636.0
2.38,0.06514438986778259,-0.02726174145936966,0.5217937231063843,0.0,0.0,0.0,-0.12023920565843582,2.4423763751983643,-1.1366809606552124,0.000283583503914997,2.866365909576416,0.5217949748039246,33361.0,40285.0,36729.0,36597.0,0,0,0,0,36743.6328125,-93.0,-4315.0,-1639.0
2.4,0.06448223441839218,-0.026705702766776085,0.5238925814628601,0.0,0.0,0.0,-0.1907738894224167,2.6067233085632324,-1.143921136856079,0.00027529275394044816,2.8660833835601807,0.5238932371139526,34730.0,40040.0,35868.0,36898.0,0,0,0,0,36884.4765625,-245.0,-1253.0,-1572.0
2.42,0.0660526230931282,-0.027411408722400665,0.5244041085243225,0.0,0.0,0.0,-0.27565720677375793,2.726408004760742,-1.1491791009902954,0.00027607116498984396,2.8660550117492676,0.5244057178497314,34191.0,39583.0,36743.0,37255.0,0,0,0,0,36943.85546875,-249.0,-2289.0,-1559.0
2.44,0.06693783402442932,-0.028348829597234726,0.5252598524093628,0.0,0.0,0.0,-0.33877214789390564,2.777937173843384,-1.1468180418014526,0.0002758848713710904,2.8660547733306885,0.5252598524093628,33591.0,40533.0,37297.0,36571.0,0,0,0,0,36998.03125,-919.0,-2998.0,-1590.0
2.46,0.06617241352796555,-0.027722280472517014,0.5277944207191467,0.0,0.0,0.0,-0.3963557183742523,2.810065269470215,-1.1445047855377197,0.00026501453248783946,2.865659475326538,0.5277950167655945,34043.0,40203.0,36311.0,36987.0,0,0,0,0,36886.91796875,-367.0,-1756.0,-1618.0
2.48,0.06482210010290146,-0.02893933653831482,0.5278506278991699,0.0,0.0,0.0,-0.43210557103157043,2.8012356758117676,-1.1490379571914673,0.00026236940175294876,2.8656044006347656,0.5278506278991699,33913.0,40061.0,36811.0,37019.0,0,0,0,0,36951.98046875,-1440.0,-3119.0,-1620.0
2.5,0.06515932828187943,-0.030163004994392395,0.5285855531692505,0.0,0.0,0.0,-0.46867233514785767,2.7311458587646484,-1.151973843574524,0.00026369444094598293,2.865605592727661,0.5285845994949341,34127.0,38791.0,36843.0,38355.0,0,0,0,0,37029.94921875,714.0,-2052.0,-1537.0
2.52,0.06363199651241302,-0.029675863683223724,0.5292354822158813,0.0,0.0,0.0,-0.5039345026016235,2.650132656097412,-1.1537789106369019,0.0002596042468212545,2.8654556274414062,0.5299705266952515,34446.0,40472.0,36994.0,37304.0,0,0,0,0,37304.5078125,212.0,-2014.0,-1593.0
2.54,0.062279753386974335,-0.031058060005307198,0.52867591381073,0.0,0.0,0.0,-0.5404687523841858,2.540377616882324,-1.1521165370941162,0.0002554316015448421,2.8653223514556885,0.52867591381073,35045.0,39625.0,37021.0,37945.0,0,0,0,0,37409.16015625,119.0,-1219.0,-1476.0
2.56,0.05738759785890579,-0.030673319473862648,0.5290380716323853,0.0,0.0,0.0,-0.5681071877479553,2.4528002738952637,-1.1444631814956665,0.00025004110648296773,2.8653171062469482,0.5290411710739136,34923.0,39435.0,37251.0,38263.0,0,0,0,0,37468.484375,-618.0,-1595.0,-1502.0
2.58,0.05561791732907295,-0.030325375497341156,0.5293575525283813,0.0,0.0,0.0,-0.6162012815475464,2.27374529838562,-1.131727933883667,0.0002492311759851873,2.8652660846710205,0.5280717611312866,34587.0,39391.0,37765.0,38325.0,0,0,0,0,37517.03515625,-280.0,-2155.0,-1491.0
2.6,0.052660588175058365,-0.029666323214769363,0.529457688331604,0.0,0.0,0.0,-0.6744914650917053,2.0709829330444336,-1.1131091117858887,0.00024293579917866737,2.8649022579193115,0.5294710993766785,35043.0,39555.0,37289.0,38265.0,0,0,0,0,37538.296875,-1222.0,-1949.0,-1425.0
2.62,0.053736671805381775,-0.03094811737537384,0.5297421813011169,0.0,0.0,0.0,-0.7117528319358826,1.8144577741622925,-1.1049773693084717,0.000247314281295985,2.8649067878723145,0.5297496914863586,35503.0,40519.0,37139.0,37343.0,0,0,0,0,37626.58203125,-321.0,-158.0,-1499.0
2.64,0.05150756984949112,-0.030993672087788582,0.5294134616851807,0.0,0.0,0.0,-0.7178537249565125,1.580102801322937,-1.0844076871871948,0.00024069591017905623,2.864872455596924,0.5294130444526672,34797.0,40443.0,37789.0,37131.0,0,0,0,0,37540.40625,-883.0,-3544.0,-1481.0
2.66,0.048944372683763504,-0.03167697787284851,0.5301269292831421,0.0,0.0,0.0,-0.6984713077545166,1.3602499961853027,-1.0658233165740967,0.00023698857694398612,2.8647475242614746,0.5301269292831421,35797.0,40001.0,36735.0,38075.0,0,0,0,0,37652.54296875,-553.0,-1895.0,-1529.0
2.68,0.04688446223735809,-0.03108653426170349,0.5296448469161987,0.0,0.0,0.0,-0.7231881022453308,1.131959319114685,-1.0518447160720825,0.00023725246137473732,2.8647067546844482,0.5296458601951599,35267.0,41841.0,37029.0,36383.0,0,0,0,0,37630.09765625,121.0,-1314.0,-1550.0
2.7,0.04300731047987938,-0.03126475587487221,0.5298761129379272,0.0,0.0,0.0,-0.7285624146461487,0.9175704717636108,-1.0449615716934204,0.00023782794596627355,2.8647069931030273,0.5298837423324585,35321.0,40463.0,37195.0,37401.0,0,0,0,0,37595.03515625,-1247.0,-807.0,-1567.0
2.72,0.043850790709257126,-0.03174878656864166,0.530245304107666,0.0,0.0,0.0,-0.7276894450187683,0.6669581532478333,-1.0371025800704956,0.00023791070270817727,2.8646886348724365,0.530238926410675,34862.0,40706.0,36992.0,37092.0,0,0,0,0,37413.9921875,-1179.0,-3683.0,-1569.0
2.74,0.03845682740211487,-0.03161507472395897,0.5312936305999756,0.0,0.0,0.0,-0.7440440654754639,0.44242873787879944,-1.0331472158432007,0.00023604893067386,2.8647263050079346,0.5312944054603577,34781.0,40061.0,37479.0,37163.0,0,0,0,0,37371.3203125,-749.0,-2996.0,-1401.0
2.76,0.03616281971335411,-0.03198537230491638,0.5317004919052124,0.0,0.0,0.0,-0.7401426434516907,0.2220313996076584,-1.0238375663757324,0.00023677368881180882,2.864727020263672,0.5317004919052124,34942.0,40160.0,37396.0,36742.0,0,0,0,0,37310.453125,-798.0,-3360.0,-1451.0
2.78,0.03055020608007908,-0.031644854694604874,0.5337095260620117,0.0,0.0,0.0,-0.72684645652771,0.0018529025837779045,-0.9987359046936035,0.00022637024812866002,2.8644230365753174,0.533718466758728,35180.0,40742.0,37124.0,36406.0,0,0,0,0,37363.828125,-767.0,-3138.0,-1447.0
2.8,0.02694219909608364,-0.03054729290306568,0.5322732329368591,0.0,0.0,0.0,-0.7145243287086487,-0.22623132169246674,-0.9791522026062012,0.0002144856844097376,2.864305257797241,0.5322732329368591,34688.0,40390.0,37326.0,37048.0,0,0,0,0,37363.765625,169.0,-2198.0,-1482.0
2.82,0.02312258630990982,-0.030288171023130417,0.5326604247093201,0.0,0.0,0.0,-0.6934909224510193,-0.4617560803890228,-0.9672878384590149,0.00021162530174478889,2.864302396774292,0.5326604247093201,34916.0,40210.0,37030.0,37332.0,0,0,0,0,37372.05078125,-308.0,-1966.0,-1413.0
2.84,0.017385199666023254,-0.030250489711761475,0.5330262780189514,0.0,0.0,0.0,-0.6698762774467468,-0.6865177750587463,-0.9542513489723206,0.00020870633306913078,2.864598035812378,0.5311945676803589,35544.0,39534.0,37706.0,38188.0,0,0,0,0,37743.296875,-387.0,-1323.0,-1353.0
2.861,0.014086320996284485,-0.027897976338863373,0.5313556790351868,0.0,0.0,0.0,-0.636607825756073,-0.9472818970680237,-0.9340096712112427,0.00021171722619328648,2.8646013736724854,0.5313568115234375,35935.0,39403.0,36869.0,38777.0,0,0,0,0,37746.46484375,-947.0,-2586.0,-1300.0
2.881,0.012732647359371185,-0.02562044747173786,0.5315099954605103,0.0,0.0,0.0,-0.5961571931838989,-1.2208994626998901,-0.9071314334869385,0.00021094466501381248,2.864600419998169,0.5315072536468506,35609.0,39739.0,37281.0,38411.0,0,0,0,0,37760.1796875,-280.0,-1376.0,-1351.0
2.9,0.010761470533907413,-0.02710910700261593,0.5316601395606995,0.0,0.0,0.0,-0.5126336812973022,-1.4629380702972412,-0.8785951733589172,0.00021013664081692696,2.86452579498291,0.529342770576477,35508.0,40546.0,37698.0,37972.0,0,0,0,0,37931.51953125,-230.0,-1747.0,-1319.0
2.92,0.008802124299108982,-0.025076238438487053,0.5307552218437195,0.0,0.0,0.0,-0.4633921980857849,-1.696196436882019,-0.855455219745636,0.0002049594622803852,2.8641555309295654,0.5307560563087463,35516.0,41408.0,37708.0,36900.0,0,0,0,0,37883.2890625,-893.0,-2311.0,-1257.0
2.94,0.0058075012639164925,-0.026442065834999084,0.5308595299720764,0.0,0.0,0.0,-0.3846447169780731,-1.8634968996047974,-0.8267362713813782,0.00020467580179683864,2.8641552925109863,0.5308595299720764,36412.0,41198.0,37530.0,38048.0,0,0,0,0,38297.92578125,103.0,-2885.0,-1337.0
2.96,0.002413214184343815,-0.026693740859627724,0.5282716751098633,0.0,0.0,0.0,-0.295515239238739,-1.9480094909667969,-0.7928100228309631,0.0001994597550947219,2.864044427871704,0.5282707810401917,36320.0,39900.0,37904.0,39180.0,0,0,0,0,38326.875,-691.0,-1148.0,-1260.0
2.98,0.0017023762920871377,-0.026234034448862076,0.5278477668762207,0.0,0.0,0.0,-0.23781490325927734,-2.0625503063201904,-0.769488513469696,0.00020337681053206325,2.8641257286071777,0.5278450846672058,35893.0,39827.0,37851.0,38981.0,0,0,0,0,38138.6953125,-1121.0,-2470.0,-1241.0
3.001,-0.0008717914461158216,-0.022716499865055084,0.5283651351928711,0.0,0.0,0.0,-0.2413756102323532,-2.196401596069336,-0.7442556619644165,0.000205202421057038,2.864151954650879,0.5283665657043457,25240.0,53046.0,48358.0,25416.0,0,0,0,0,38015.12890625,-1791.0,-24982.0,-1242.0
3.02,-0.0019270540215075016,-0.023558359593153,0.5285164713859558,0.0,0.0,0.0,-0.19619542360305786,-2.277306079864502,-0.7152040600776672,0.0002056534867733717,2.864152193069458,0.5285162925720215,31385.0,43445.0,40947.0,33723.0,0,0,0,0,37375.53125,-499.0,-6911.0,-1250.0
3.04,-0.0037167842965573072,-0.02227112464606762,0.5315958261489868,0.0,0.0,0.0,-0.10838857293128967,-2.478637933731079,-0.686959981918335,0.00018871288921218365,2.8636183738708496,0.531593382358551,38525.0,36191.0,33701.0,41075.0,0,0,0,0,37373.35546875,-140.0,6307.0,-1205.0
3.06,-0.0009846650063991547,-0.019532324746251106,0.5308180451393127,0.0,0.0,0.0,-0.13074597716331482,-3.9517056941986084,-0.6640150547027588,0.00018930796068161726,2.863548517227173,0.5308210849761963,39101.0,37473.0,32531.0,39411.0,0,0,0,0,37129.953125,-2220.0,4320.0,-1376.0
3.08,-0.0002568359486758709,-0.01695963181555271,0.5315778255462646,0.0,0.0,0.0,-0.11571241915225983,-6.492987155914307,-0.6508455276489258,0.00019394737319089472,2.863553285598755,0.531598687171936,35862.0,39286.0,35236.0,37380.0,0,0,0,0,36941.625,-1882.0,-2820.0,-1389.0
3.1,-0.0037182688247412443,-0.01622115634381771,0.5333223938941956,0.0,0.0,0.0,0.038224972784519196,-8.976676940917969,-0.652230441570282,0.0001911274594021961,2.8634071350097656,0.5333375930786133,32894.0,40362.0,37082.0,34958.0,0,0,0,0,36324.0390625,1636.0,-2381.0,-1289.0
3.12,-0.0029741229955106974,-0.015514395199716091,0.5363564491271973,0.0,0.0,0.0,0.18146049976348877,-10.797985076904297,-0.6424556374549866,0.00019270442135166377,2.8635034561157227,0.5363662838935852,32690.0,39966.0,37428.0,35240.0,0,0,0,0,36331.140625,-2394.0,-5462.0,-1314.0
3.14,-0.0021062768064439297,-0.01791813038289547,0.5375194549560547,0.0,0.0,0.0,0.20949780941009521,-12.108599662780762,-0.6211938858032227,0.00018811043992172927,2.863499164581299,0.5375167727470398,33469.0,38609.0,37017.0,36593.0,0,0,0,0,36422.21875,473.0,-1275.0,-1189.0
3.16,0.0024316890630871058,-0.017828810960054398,0.5385337471961975,0.0,0.0,0.0,0.16425900161266327,-13.166146278381348,-0.5952367186546326,0.00021052634110674262,2.8640992641448975,0.5347304940223694,34644.0,38242.0,35562.0,36420.0,0,0,0,0,36217.5234375,-329.0,-1650.0,-1132.0
3.18,0.00471857562661171,-0.016989625990390778,0.5416409969329834,0.0,0.0,0.0,0.09469179809093475,-14.16365909576416,-0.5610336065292358,0.00022516534954775125,2.86444354057312,0.5416859984397888,34588.0,38540.0,35946.0,36598.0,0,0,0,0,36418.359375,-1942.0,-1576.0,-1130.0
3.2,0.006299895234405994,-0.01697571389377117,0.5425282716751099,0.0,0.0,0.0,0.08944793790578842,-15.105154037475586,-0.5296339988708496,0.00021756553906016052,2.8644356727600098,0.5425425171852112,35471.0,38665.0,35547.0,37033.0,0,0,0,0,36679.5234375,-1386.0,-1267.0,-1206.0
3.22,0.010620353743433952,-0.017564091831445694,0.5431544780731201,0.0,0.0,0.0,0.13359685242176056,-15.945818901062012,-0.4976342022418976,0.00020625680917873979,2.8645238876342773,0.5464884042739868,35386.0,38370.0,35096.0,36632.0,0,0,0,0,36371.62890625,-943.0,-1353.0,-1117.0
3.24,0.018036792054772377,-0.018353832885622978,0.5471752285957336,0.0,0.0,0.0,0.19247059524059296,-16.653968811035156,-0.4595373868942261,0.00020669620425906032,2.9244863986968994,0.547194242477417,34641.0,39259.0,36647.0,36289.0,0,0,0,0,36709.8828125,-1379.0,-2746.0,-1087.0
3.26,0.02108796313405037,-0.015779981389641762,0.5476399064064026,0.0,0.0,0.0,0.1948252022266388,-17.127681732177734,-0.43014416098594666,0.00023389887064695358,2.9245364665985107,0.5476531982421875,33504.0,39656.0,36192.0,34424.0,0,0,0,0,35944.9921875,916.0,-1961.0,-1092.0
3.28,0.027469873428344727,-0.015621107071638107,0.5544883608818054,0.0,0.0,0.0,0.18768084049224854,-17.29490089416504,-0.39331215620040894,0.0002286368835484609,2.9296491146087646,0.5544623732566833,33732.0,39776.0,36938.0,35358.0,0,0,0,0,36451.71484375,-547.0,-3473.0,-1112.0
3.3,0.034654706716537476,-0.015393617562949657,0.5543726086616516,0.0,0.0,0.0,0.15550120174884796,-17.20685386657715,-0.3665497601032257,0.00020510301692411304,2.9415090084075928,0.5542676448822021,35317.0,37955.0,35961.0,37819.0,0,0,0,0,36763.80078125,-611.0,-3991.0,-1080.0
3.32,0.052389394491910934,-0.01536666788160801,0.5546382665634155,0.0,0.0,0.0,0.13016840815544128,-16.90300750732422,-0.34632498025894165,0.0002185120974900201,2.9418351650238037,0.5547356009483337,34551.0,38661.0,37715.0,37657.0,0,0,0,0,37146.015625,-320.0,-2227.0,-1034.0
3.34,0.06159570440649986,-0.015413329936563969,0.5544161200523376,0.0,0.0,0.0,0.12297410517930984,-16.307512283325195,-0.3216997981071472,0.0002120820718118921,2.941826820373535,0.5544726848602295,35660.0,40928.0,37962.0,36962.0,0,0,0,0,37878.66015625,1101.0,-3028.0,-1037.0
3.36,0.07473549246788025,-0.015015736222267151,0.5523636937141418,0.0,0.0,0.0,0.08059321343898773,-15.53692626953125,-0.300944447517395,0.00023543683346360922,2.95133113861084,0.5524933934211731,36545.0,41499.0,37875.0,37369.0,0,0,0,0,38322.6796875,643.0,-2337.0,-1093.0
3.38,0.08620528131723404,-0.014753258787095547,0.5506993532180786,0.0,0.0,0.0,0.04907777160406113,-14.520463943481445,-0.28259745240211487,0.00026622400037012994,2.950925827026367,0.5508257150650024,36335.0,41123.0,38809.0,37949.0,0,0,0,0,38554.40234375,648.0,-3825.0,-987.0
3.4,0.10160253942012787,-0.01480336394160986,0.5494762659072876,0.0,0.0,0.0,0.034884221851825714,-13.40264892578125,-0.2630927264690399,0.00021524186013266444,2.950863838195801,0.5495710968971252,35586.0,42100.0,39640.0,37526.0,0,0,0,0,38713.28515625,-411.0,-3421.0,-1091.0
3.42,0.11966470628976822,-0.016147978603839874,0.548137366771698,0.0,0.0,0.0,0.023469459265470505,-12.17342758178711,-0.2398928552865982,0.0002057011442957446,3.020963191986084,0.5462202429771423,36323.0,43045.0,39739.0,37509.0,0,0,0,0,39154.74609375,423.0,-3706.0,-1191.0
3.44,0.13468991219997406,-0.015980979427695274,0.5446500778198242,0.0,0.0,0.0,-0.009475115686655045,-10.789441108703613,-0.23241600394248962,0.0002690795809030533,3.02105450630188,0.5448848605155945,36684.0,42240.0,39258.0,38286.0,0,0,0,0,39117.94140625,109.0,-5661.0,-1112.0
3.46,0.14844390749931335,-0.016955934464931488,0.5433910489082336,0.0,0.0,0.0,-0.0720352903008461,-9.28129768371582,-0.23095467686653137,0.00030914865783415735,3.0211129188537598,0.5436182022094727,36380.0,42988.0,39362.0,37194.0,0,0,0,0,38981.34765625,-1052.0,-4950.0,-1117.0
3.48,0.1625365912914276,-0.016427593305706978,0.5364686250686646,0.0,0.0,0.0,-0.13266155123710632,-7.758673667907715,-0.228025421500206,0.00044404028449207544,3.0171990394592285,0.5367487668991089,37040.0,42998.0,40460.0,38866.0,0,0,0,0,39841.109375,774.0,-2746.0,-1144.0
3.5,0.17737272381782532,-0.016489870846271515,0.5349408984184265,0.0,0.0,0.0,-0.14107201993465424,-6.021888256072998,-0.21670882403850555,0.0005211844108998775,2.956843852996826,0.5352392196655273,37043.0,42139.0,39597.0,39637.0,0,0,0,0,39604.27734375,187.0,-4845.0,-1285.0
3.52,0.19199037551879883,-0.01611575111746788,0.5337658524513245,0.0,0.0,0.0,-0.1940586268901825,-4.459273815155029,-0.22239340841770172,0.0006462628371082246,2.952031373977661,0.5277864336967468,37057.0,44621.0,41091.0,39027.0,0,0,0,0,40449.46484375,434.0,-3888.0,-1289.0
3.541,0.20507413148880005,-0.01596079394221306,0.5259865522384644,0.0,0.0,0.0,-0.22804567217826843,-3.0118913650512695,-0.24164126813411713,0.000676227209623903,2.9520695209503174,0.5262183547019958,36384.0,43584.0,40416.0,38628.0,0,0,0,0,39753.8359375,-708.0,-5770.0,-1311.0
3.56,0.2219506800174713,-0.01595727726817131,0.5260224342346191,0.0,0.0,0.0,-0.25037893652915955,-1.5497604608535767,-0.26168039441108704,0.0006987963570281863,2.9284045696258545,0.5262643694877625,36601.0,44145.0,40637.0,38473.0,0,0,0,0,39964.9453125,-1813.0,-5075.0,-1440.0
3.58,0.23798410594463348,-0.017620746046304703,0.5215169787406921,0.0,0.0,0.0,-0.24909034371376038,-0.16957616806030273,-0.2734507620334625,0.0007247054600156844,2.9258148670196533,0.5216869115829468,36170.0,43342.0,39970.0,38466.0,0,0,0,0,39487.234375,468.0,-5105.0,-1403.0
3.6,0.2552606463432312,-0.017854835838079453,0.5209985971450806,0.0,0.0,0.0,-0.2504875361919403,1.1944117546081543,-0.30307090282440186,0.0007331256638281047,2.925825357437134,0.5211531519889832,35551.0,43413.0,39531.0,37425.0,0,0,0,0,38980.71484375,-1228.0,-6748.0,-1791.0
3.62,0.2719678580760956,-0.016307255253195763,0.5209261775016785,0.0,0.0,0.0,-0.2959044873714447,2.5050015449523926,-0.3396064341068268,0.000805092800874263,2.8751509189605713,0.5211491584777832,34823.0,41765.0,39521.0,38243.0,0,0,0,0,38588.125,-376.0,-6050.0,-1405.0
3.641,0.2858092188835144,-0.015222568064928055,0.5206717848777771,0.0,0.0,0.0,-0.2956693768501282,3.826936960220337,-0.36517441272735596,0.0008353492594324052,2.8746142387390137,0.5208060145378113,34446.0,41416.0,39000.0,37718.0,0,0,0,0,38145.7890625,-75.0,-5542.0,-1671.0
3.66,0.30121910572052,-0.015411094762384892,0.5212968587875366,0.0,0.0,0.0,-0.3001954257488251,5.018207550048828,-0.384850412607193,0.0008905932772904634,2.8746893405914307,0.5214619636535645,33431.0,43263.0,38527.0,34807.0,0,0,0,0,37507.28515625,-1503.0,-6967.0,-1953.0
3.68,0.31419047713279724,-0.015446222387254238,0.5232083797454834,0.0,0.0,0.0,-0.29743942618370056,6.114913463592529,-0.4156813621520996,0.0009118568850681186,2.858978033065796,0.5233224630355835,32981.0,39499.0,37623.0,37369.0,0,0,0,0,36868.19921875,286.0,-3792.0,-2077.0
3.7,0.32834693789482117,-0.016282198950648308,0.5262294411659241,0.0,0.0,0.0,-0.23836326599121094,7.132673740386963,-0.4605306088924408,0.0009308052831329405,2.8602380752563477,0.5263152718544006,32180.0,40756.0,37776.0,35696.0,0,0,0,0,36602.39453125,-1105.0,-4400.0,-1668.0
3.72,0.34221351146698,-0.01642085425555706,0.5282785892486572,0.0,0.0,0.0,-0.23941266536712646,7.934392929077148,-0.4992113411426544,0.0009506796486675739,2.8564817905426025,0.5283568501472473,32197.0,40083.0,36119.0,34829.0,0,0,0,0,35807.40234375,-87.0,-5374.0,-1597.0
3.741,0.35512661933898926,-0.014024349860846996,0.5329650640487671,0.0,0.0,0.0,-0.22366344928741455,8.67860221862793,-0.5516586899757385,0.0009778538951650262,2.858415126800537,0.5330402851104736,32086.0,39124.0,36050.0,35604.0,0,0,0,0,35716.87890625,-229.0,-4731.0,-1676.0
3.76,0.3648223280906677,-0.014479970559477806,0.5349777936935425,0.0,0.0,0.0,-0.1985514611005783,9.307629585266113,-0.5842159986495972,0.0009881980950012803,2.8584301471710205,0.5350149869918823,31507.0,40607.0,36483.0,34259.0,0,0,0,0,35714.609375,1245.0,-3536.0,-1700.0
3.78,0.37514373660087585,-0.016051609069108963,0.536492645740509,0.0,0.0,0.0,-0.1543780416250229,9.803092956542969,-0.6252405047416687,0.0009955487912520766,2.859781503677368,0.5365145802497864,32417.0,39331.0,35691.0,35297.0,0,0,0,0,35684.20703125,-667.0,-4957.0,-1596.0
3.8,0.38467368483543396,-0.015432031825184822,0.539565920829773,0.0,0.0,0.0,-0.10571721196174622,10.157611846923828,-0.6563985347747803,0.0009962419280782342,2.860522508621216,0.5395652651786804,31697.0,40139.0,36799.0,34789.0,0,0,0,0,35856.06640625,276.0,-4605.0,-1565.0
3.82,0.3930213153362274,-0.016293920576572418,0.5411169528961182,0.0,0.0,0.0,-0.034800730645656586,10.407629013061523,-0.6819251179695129,0.0010009080870077014,2.8605284690856934,0.5411139726638794,32401.0,39865.0,36513.0,35601.0,0,0,0,0,36095.83984375,-798.0,-5029.0,-1686.0
3.84,0.4043116569519043,-0.015501650981605053,0.5424020290374756,0.0,0.0,0.0,-0.012469633482396603,10.494953155517578,-0.6944302320480347,0.0009841526625677943,2.8640553951263428,0.5405951738357544,32526.0,39916.0,36450.0,35876.0,0,0,0,0,36192.171875,-253.0,-3896.0,-1668.0
3.86,0.41332417726516724,-0.015589146874845028,0.544647753238678,0.0,0.0,0.0,-0.003631066996604204,10.51309871673584,-0.7191720604896545,0.0009845979511737823,2.8655025959014893,0.5446457862854004,32743.0,41587.0,36953.0,34493.0,0,0,0,0,36444.73046875,5.0,-3460.0,-1618.0
3.88,0.4217142164707184,-0.015705054625868797,0.5454897284507751,0.0,0.0,0.0,-0.0010175498900935054,10.451790809631348,-0.7330041527748108,0.0009785167640075088,2.865497589111328,0.5454891324043274,33300.0,41502.0,36844.0,35122.0,0,0,0,0,36692.96484375,-446.0,-4535.0,-1690.0
3.9,0.427778959274292,-0.015955260023474693,0.5460835099220276,0.0,0.0,0.0,0.014772076159715652,10.37272834777832,-0.7409789562225342,0.0009649436105974019,2.865485906600952,0.546088695526123,34536.0,40106.0,37006.0,37928.0,0,0,0,0,37394.671875,152.0,-3175.0,-1662.0
3.92,0.4365811347961426,-0.014792495407164097,0.5482096076011658,0.0,0.0,0.0,0.009056676179170609,10.193363189697266,-0.7497203946113586,0.0009497463470324874,2.870084524154663,0.5482036471366882,33085.0,40403.0,37527.0,36725.0,0,0,0,0,36935.08984375,-1194.0,-3613.0,-1636.0
3.94,0.4425719976425171,-0.013583416119217873,0.5484954714775085,0.0,0.0,0.0,-0.002766989404335618,9.902337074279785,-0.7612026929855347,0.0009274184703826904,2.870063543319702,0.5484832525253296,33610.0,41292.0,37936.0,36674.0,0,0,0,0,37378.80859375,-1187.0,-2370.0,-1598.0
3.96,0.44712889194488525,-0.011220653541386127,0.5472897291183472,0.0,0.0,0.0,0.0020414157770574093,9.564117431640625,-0.7590023875236511,0.0009100888855755329,2.872164487838745,0.5485919713973999,34462.0,41036.0,36838.0,36924.0,0,0,0,0,37315.328125,-752.0,-3000.0,-1709.0
3.98,0.453014999628067,-0.011701324954628944,0.5485533475875854,0.0,0.0,0.0,0.05193692818284035,9.166308403015137,-0.7635812759399414,0.0008943397551774979,2.8721492290496826,0.5485533475875854,34838.0,40326.0,36894.0,37790.0,0,0,0,0,37462.1328125,-77.0,-1512.0,-1561.0
4.0,0.4581618309020996,-0.010197422467172146,0.5484075546264648,0.0,0.0,0.0,0.0638425275683403,8.738077163696289,-0.7642470002174377,0.0008626868366263807,2.8721182346343994,0.5483831167221069,35530.0,42452.0,37936.0,37278.0,0,0,0,0,38299.984375,-1462.0,-3515.0,-1440.0
4.02,0.4637148380279541,-0.009016808122396469,0.5445563197135925,0.0,0.0,0.0,0.06605792790651321,8.247925758361816,-0.7518725395202637,0.000834778998978436,2.875609874725342,0.5445563197135925,35145.0,41289.0,38121.0,38053.0,0,0,0,0,38152.37109375,-137.0,-2438.0,-1479.0
4.04,0.4685622751712799,-0.008322442881762981,0.5452966690063477,0.0,0.0,0.0,0.14256665110588074,7.788419723510742,-0.7413143515586853,0.000806236348580569,2.875978708267212,0.5452526211738586,35150.0,42246.0,38398.0,37114.0,0,0,0,0,38227.484375,50.0,-2016.0,-1438.0
4.06,0.4697931408882141,-0.005616691429167986,0.5454189777374268,0.0,0.0,0.0,0.1731773465871811,7.346301078796387,-0.7118309736251831,0.0008015197818167508,2.87518572807312,0.5454030632972717,35283.0,42155.0,38173.0,37577.0,0,0,0,0,38297.9296875,-1506.0,-2852.0,-1537.0
4.08,0.47224190831184387,-0.004707128740847111,0.5434882640838623,0.0,0.0,0.0,0.20042143762111664,6.823534965515137,-0.696858286857605,0.0007432322599925101,2.874742269515991,0.5434384942054749,35249.0,42347.0,38239.0,37161.0,0,0,0,0,38249.6875,-1422.0,-2473.0,-1482.0
4.1,0.47237345576286316,-0.001969931647181511,0.5429088473320007,0.0,0.0,0.0,0.24970243871212006,6.273115158081055,-0.6767429113388062,0.000723531935364008,2.874722719192505,0.5428860783576965,35574.0,41116.0,37794.0,38136.0,0,0,0,0,38155.5546875,527.0,-948.0,-1243.0
4.12,0.4724315404891968,-0.0006235394976101816,0.5424322485923767,0.0,0.0,0.0,0.35604530572891235,5.755858421325684,-0.6564242839813232,0.0007167581934481859,2.8743462562561035,0.54294353723526,36121.0,41493.0,37453.0,38417.0,0,0,0,0,38371.328125,-1199.0,-2717.0,-1613.0
4.14,0.4745461046695709,0.0023133535869419575,0.5400292873382568,0.0,0.0,0.0,0.4259142279624939,5.188337802886963,-0.6357793211936951,0.0007046869723126292,2.873734951019287,0.5400443077087402,35544.0,40144.0,37958.0,39470.0,0,0,0,0,38279.72265625,561.0,-1797.0,-1441.0
4.16,0.47393569350242615,0.002606623340398073,0.5395796298980713,0.0,0.0,0.0,0.5082178115844727,4.618494033813477,-0.6319845914840698,0.0006514543783850968,2.8736815452575684,0.5395774245262146,35234.0,41766.0,38132.0,37584.0,0,0,0,0,38179.85546875,-98.0,-2232.0,-1380.0
4.18,0.4744333326816559,0.002415024908259511,0.5394393801689148,0.0,0.0,0.0,0.555342435836792,4.316455841064453,-0.6311740875244141,0.0006590124103240669,2.8732686042785645,0.5374709963798523,36610.0,41282.0,37164.0,38540.0,0,0,0,0,38399.54296875,-19.0,-966.0,-1466.0
4.2,0.478754460811615,0.0027508505154401064,0.5371056795120239,0.0,0.0,0.0,0.7173035740852356,3.4366910457611084,-0.6088309288024902,0.0005906492006033659,2.873199701309204,0.5370075702667236,34639.0,42357.0,38747.0,37369.0,0,0,0,0,38278.78125,48.0,-1642.0,-1562.0
4.22,0.4756017029285431,0.005852281581610441,0.536764919757843,0.0,0.0,0.0,0.7633742094039917,2.8810153007507324,-0.5914100408554077,0.0005924131255596876,2.873201608657837,0.5367376804351807,35847.0,41329.0,37427.0,37997.0,0,0,0,0,38150.5390625,-1588.0,-1473.0,-1472.0
4.24,0.47456368803977966,0.005111475475132465,0.5366486310958862,0.0,0.0,0.0,0.7780187726020813,2.6250669956207275,-0.5908284783363342,0.0006020074943080544,2.8716092109680176,0.5367380976676941,35131.0,40975.0,37819.0,37767.0,0,0,0,0,37923.74609375,-201.0,-1346.0,-1329.0
4.26,0.4733273983001709,0.007253271993249655,0.5367371439933777,0.0,0.0,0.0,0.8536564707756042,1.8859641551971436,-0.5739489197731018,0.0005719054024666548,2.8715789318084717,0.5367331504821777,35900.0,39576.0,36538.0,39082.0,0,0,0,0,37774.78515625,539.0,-37.0,-1539.0
4.28,0.47313347458839417,0.007900546304881573,0.5368820428848267,0.0,0.0,0.0,0.9015549421310425,1.3896607160568237,-0.5638778209686279,0.0005722405039705336,2.871579170227051,0.5368842482566833,35067.0,41019.0,37219.0,37319.0,0,0,0,0,37656.1015625,393.0,-2941.0,-1507.0
4.3,0.4718816876411438,0.008493822067975998,0.53696608543396,0.0,0.0,0.0,0.9133034944534302,1.1536084413528442,-0.5606569051742554,0.0005397482309490442,2.8713908195495605,0.5355399250984192,35629.0,41729.0,36839.0,36915.0,0,0,0,0,37778.43359375,-526.0,-2197.0,-1569.0
4.32,0.4698658287525177,0.009599675424396992,0.5358502268791199,0.0,0.0,0.0,0.9666333198547363,0.5293745398521423,-0.5423494577407837,0.0005322466022334993,2.8712430000305176,0.5358670949935913,35040.0,40920.0,37204.0,37580.0,0,0,0,0,37686.8046875,416.0,-589.0,-1548.0
4.34,0.4688345789909363,0.008882219903171062,0.5360851287841797,0.0,0.0,0.0,1.0218346118927002,0.15384677052497864,-0.5458706617355347,0.0005195543053559959,2.871230125427246,0.5361027121543884,34005.0,40423.0,37443.0,37297.0,0,0,0,0,37292.62890625,-1645.0,-2707.0,-1491.0
