time,x_kalman,y_kalman,z_kalman,x_lh,y_lh,z_lh,roll,pitch,yaw,F,R,Z,motor.m1,motor.m2,motor.m3,motor.m4,rpm.m1,rpm.m2,rpm.m3,rpm.m4,controller.cmd_thrust,controller.cmd_roll,controller.cmd_pitch,controller.cmd_yaw
0.0,-0.012916279025375843,-0.015951288864016533,0.02365981414914131,0.0,0.0,0.0,-1.9338552951812744,-0.13313208520412445,-0.005139758810400963,0.011887491680681705,2.894394874572754,0.02365981414914131,56511.0,56793.0,56639.0,56153.0,0,0,0,0,56524.984375,-618.0,-3191.0,18.0
0.02,-0.013492630794644356,-0.016619078814983368,0.02385789342224598,0.0,0.0,0.0,-1.9287242889404297,-0.13068455457687378,-0.00253751571290195,0.011887491680681705,2.894394874572754,0.02385789342224598,57837.0,58189.0,55837.0,55913.0,0,0,0,0,56944.25,-227.0,-4868.0,-128.0
0.04,-0.014091651886701584,-0.0173103716224432,0.023035794496536255,0.0,0.0,0.0,-1.8922882080078125,-0.1589139699935913,-0.013741439208388329,0.011773801408708096,2.8946590423583984,0.023035794496536255,59381.0,61661.0,54453.0,54557.0,0,0,0,0,57513.80078125,-4201.0,2179.0,-640.0
0.06,-0.014681764878332615,-0.017886001616716385,0.022642308846116066,0.0,0.0,0.0,-1.6531941890716553,-0.3407207429409027,-0.10112373530864716,0.011759449727833271,2.8945858478546143,0.022642308846116066,56879.0,65319.0,57795.0,51647.0,0,0,0,0,57910.03515625,-4416.0,-2023.0,-596.0
0.08,-0.01524452492594719,-0.0183117613196373,0.023393701761960983,0.0,0.0,0.0,-1.1616591215133667,-0.36781299114227295,-0.1862155646085739,0.016964970156550407,2.899789571762085,0.028608981519937515,50781.0,63975.0,60377.0,50531.0,0,0,0,0,56416.46484375,-1870.0,1041.0,-1025.0
0.1,0.0008344579837284982,-0.03378961607813835,0.027728816494345665,0.0,0.0,0.0,-0.576487123966217,-0.15395385026931763,-0.2654058635234833,0.00848754309117794,2.8920655250549316,0.02050516940653324,55068.0,56806.0,50934.0,54368.0,0,0,0,0,54294.0390625,2805.0,6310.0,-1347.0
0.12,0.02411789260804653,-0.040627144277095795,0.031902015209198,0.0,0.0,0.0,-0.5356412529945374,-0.1728806495666504,-0.38949987292289734,0.018492208793759346,2.901750087738037,0.032965581864118576,44131.0,53379.0,54629.0,49917.0,0,0,0,0,50514.203125,2938.0,-7527.0,-1172.0
0.14,-0.003219898557290435,-0.029453972354531288,0.0493292361497879,0.0,0.0,0.0,-1.3641771078109741,0.5544859766960144,-0.5730659365653992,0.02403610572218895,2.9072964191436768,0.047291647642850876,41350.0,47342.0,48028.0,47636.0,0,0,0,0,46089.8203125,176.0,-6758.0,-1418.0
0.16,-2.7609712560661137e-05,-0.014456375502049923,0.05399611219763756,0.0,0.0,0.0,-2.0608789920806885,0.9787211418151855,-0.6992196440696716,0.013851516880095005,2.8982162475585938,0.045114196836948395,41827.0,46103.0,41943.0,43631.0,0,0,0,0,43376.56640625,-394.0,-1697.0,-1440.0
0.18,-0.014606270007789135,0.033339519053697586,0.03452630341053009,0.0,0.0,0.0,-2.5357697010040283,1.408064603805542,-0.8657969832420349,0.031957078725099564,2.887981414794922,0.04796671122312546,34898.0,46278.0,43474.0,38310.0,0,0,0,0,40740.0546875,-988.0,-6069.0,-1565.0
0.2,-0.039199862629175186,0.04097284376621246,0.039018936455249786,0.0,0.0,0.0,-2.1121022701263428,1.5747873783111572,-1.0506622791290283,0.015295755118131638,2.8718960285186768,0.04652919992804527,36210.0,43642.0,38644.0,38312.0,0,0,0,0,39202.72265625,-1309.0,-2078.0,-1829.0
0.22,-0.04893851280212402,0.05179362744092941,0.04319237172603607,0.0,0.0,0.0,-1.3839389085769653,1.27144455909729,-1.2329192161560059,0.0028098858892917633,2.8600664138793945,0.05034654960036278,37359.0,40361.0,37315.0,41145.0,0,0,0,0,39045.9765625,-3024.0,-1091.0,-1644.0
0.24,-0.05249941721558571,0.03483535349369049,0.07457878440618515,0.0,0.0,0.0,-0.4081628620624542,0.18220475316047668,-1.3788880109786987,0.018509086221456528,2.8822269439697266,0.08368419110774994,38136.0,39114.0,31222.0,36840.0,0,0,0,0,36328.06640625,-4660.0,3190.0,-1739.0
0.26,-0.05590406432747841,0.030757874250411987,0.09794410318136215,0.0,0.0,0.0,0.5905049443244934,-1.243970274925232,-1.476104497909546,0.037973735481500626,2.9006619453430176,0.12079810351133347,36953.0,36789.0,27551.0,35171.0,0,0,0,0,34116.05078125,-7098.0,834.0,-1830.0
0.28,-0.051945071667432785,0.010790529660880566,0.1430523842573166,0.0,0.0,0.0,1.6224476099014282,-2.9185328483581543,-1.5490299463272095,0.046052832156419754,2.908494472503662,0.14652758836746216,33861.0,37505.0,28531.0,31899.0,0,0,0,0,32949.171875,-5622.0,-46.0,-1726.0
0.3,-0.05434909462928772,-0.0029912786558270454,0.15621142089366913,0.0,0.0,0.0,2.532104015350342,-4.162039756774902,-1.5954413414001465,0.008518077433109283,2.9139633178710938,0.15665258467197418,32846.0,37378.0,32358.0,34270.0,0,0,0,0,34213.109375,-1071.0,-4113.0,-1590.0
0.32,-0.05466294288635254,-0.002894517732784152,0.17273253202438354,0.0,0.0,0.0,2.8514161109924316,-5.073690414428711,-1.62088942527771,0.008607763797044754,2.9140520095825195,0.17266036570072174,31215.0,34935.0,34063.0,36571.0,0,0,0,0,34196.9765625,344.0,-2144.0,-1545.0
0.34,-0.05612284317612648,-0.0018866020254790783,0.18886733055114746,0.0,0.0,0.0,2.6639816761016846,-5.733656406402588,-1.6439063549041748,0.008850784972310066,2.914285182952881,0.18897750973701477,31569.0,36685.0,34051.0,34979.0,0,0,0,0,34321.3359375,3173.0,-394.0,-1437.0
0.36,-0.05749819427728653,-0.004735730122774839,0.2030152827501297,0.0,0.0,0.0,2.3529062271118164,-6.242076396942139,-1.6384028196334839,0.007447442971169949,2.964994192123413,0.20299410820007324,32816.0,36032.0,33364.0,35980.0,0,0,0,0,34548.54296875,780.0,295.0,-1396.0
0.38,-0.05695449933409691,-0.005054485518485308,0.2166062444448471,0.0,0.0,0.0,1.9437605142593384,-6.690737724304199,-1.6465455293655396,0.007664595730602741,2.96520733833313,0.21717163920402527,33011.0,35999.0,34059.0,36219.0,0,0,0,0,34822.4921875,667.0,-1401.0,-1247.0
0.4,-0.06140756234526634,-0.0035741205792874098,0.23679210245609283,0.0,0.0,0.0,1.5709044933319092,-6.980964660644531,-1.6304079294204712,0.006565817166119814,2.969804048538208,0.23632249236106873,31786.0,36686.0,33574.0,34022.0,0,0,0,0,34017.95703125,-413.0,-789.0,-1287.0
0.42,-0.06071434170007706,-0.004076744429767132,0.24953824281692505,0.0,0.0,0.0,1.3026766777038574,-7.312056064605713,-1.6206591129302979,0.006368889007717371,2.9670357704162598,0.24944832921028137,33845.0,33999.0,32205.0,37123.0,0,0,0,0,34293.0546875,-1568.0,-954.0,-1253.0
0.44,-0.05856689065694809,-0.00506881158798933,0.26125213503837585,0.0,0.0,0.0,1.1246455907821655,-7.689645290374756,-1.6069175004959106,0.005772339645773172,2.9698102474212646,0.2661842405796051,32578.0,34644.0,32398.0,35280.0,0,0,0,0,33725.390625,-791.0,-113.0,-1199.0
0.46,-0.056888971477746964,-0.006289527751505375,0.27831169962882996,0.0,0.0,0.0,0.9778467416763306,-8.041879653930664,-1.5769622325897217,0.005093859508633614,2.969120740890503,0.2778329849243164,34836.0,33660.0,31066.0,37106.0,0,0,0,0,34167.76953125,29.0,897.0,-1270.0
0.48,-0.05419827252626419,-0.00672271940857172,0.28929170966148376,0.0,0.0,0.0,0.7757771611213684,-8.336152076721191,-1.5656661987304688,0.003946651704609394,2.9679553508758545,0.28820323944091797,33343.0,37547.0,33465.0,34329.0,0,0,0,0,34671.78125,-604.0,-1071.0,-1220.0
0.5,-0.05395011603832245,-0.007336399517953396,0.3012547194957733,0.0,0.0,0.0,0.537015438079834,-8.384926795959473,-1.5534958839416504,0.002128510270267725,2.965754985809326,0.29719141125679016,32408.0,36072.0,35428.0,36424.0,0,0,0,0,35083.40234375,1414.0,-2226.0,-1060.0
0.52,-0.04642211273312569,-0.011548634618520737,0.30850592255592346,0.0,0.0,0.0,0.38878756761550903,-8.414946556091309,-1.5038048028945923,0.0016932734288275242,2.9657905101776123,0.3077980577945709,33372.0,38220.0,35406.0,35474.0,0,0,0,0,35618.74609375,-657.0,-3598.0,-1166.0
0.54,-0.04277433827519417,-0.0125897116959095,0.31765514612197876,0.0,0.0,0.0,0.09081116318702698,-8.232023239135742,-1.4995996952056885,0.002380878897383809,2.9664926528930664,0.31808170676231384,34508.0,38092.0,35084.0,36496.0,0,0,0,0,36045.03125,-1020.0,-1798.0,-1244.0
0.56,-0.04050365835428238,-0.014410276897251606,0.3280298411846161,0.0,0.0,0.0,-0.21323823928833008,-7.998000144958496,-1.4816982746124268,0.0023082331754267216,2.965920925140381,0.32923248410224915,33838.0,38604.0,35780.0,35874.0,0,0,0,0,36024.890625,-494.0,-2568.0,-1223.0
0.58,-0.03492038697004318,-0.01656273938715458,0.3377498686313629,0.0,0.0,0.0,-0.45673105120658875,-7.779409885406494,-1.4684237241744995,0.0014076386578381062,2.9650073051452637,0.33677253127098083,34292.0,39544.0,36318.0,35770.0,0,0,0,0,36481.03515625,-795.0,-2330.0,-1324.0
0.6,-0.029374724254012108,-0.01721169240772724,0.3453206717967987,0.0,0.0,0.0,-0.7468230724334717,-7.452824592590332,-1.4671036005020142,0.0006159503245726228,2.9642035961151123,0.343856543302536,34674.0,39442.0,36732.0,36732.0,0,0,0,0,36895.51171875,-1112.0,-2416.0,-1169.0
0.62,-0.022355176508426666,-0.01875588484108448,0.3545377254486084,0.0,0.0,0.0,-1.0032308101654053,-7.057867050170898,-1.4518415927886963,0.001160290907137096,2.962007522583008,0.35386160016059875,34933.0,38493.0,35961.0,37693.0,0,0,0,0,36770.9609375,720.0,-1903.0,-1318.0
0.64,-0.01566961780190468,-0.01969323121011257,0.36154502630233765,0.0,0.0,0.0,-1.2544244527816772,-6.633012771606445,-1.455470085144043,0.0006224496173672378,2.961463689804077,0.36051827669143677,36056.0,38946.0,35750.0,37604.0,0,0,0,0,37089.328125,156.0,-1592.0,-1253.0
0.66,-0.008176256902515888,-0.02095860429108143,0.367605060338974,0.0,0.0,0.0,-1.4636818170547485,-6.2396440505981445,-1.4406836032867432,-1.7308950191363692e-05,2.9608168601989746,0.3666313588619232,35634.0,39970.0,36650.0,37310.0,0,0,0,0,37391.15234375,-368.0,-1633.0,-1244.0
0.68,-0.0003855545073747635,-0.022265853360295296,0.37744542956352234,0.0,0.0,0.0,-1.6022605895996094,-5.75022554397583,-1.427693247795105,0.001761092571541667,2.957977294921875,0.38046303391456604,34038.0,38992.0,36180.0,36426.0,0,0,0,0,36409.5,-189.0,-2498.0,-1262.0
0.7,0.007968224585056305,-0.023562569171190262,0.3874753415584564,0.0,0.0,0.0,-1.7579445838928223,-5.185260772705078,-1.4126931428909302,0.0012639538617804646,2.957474708557129,0.3866627514362335,33055.0,40281.0,37093.0,35931.0,0,0,0,0,36590.91015625,-1049.0,-2594.0,-1545.0
0.72,0.016156967729330063,-0.024266697466373444,0.3935735523700714,0.0,0.0,0.0,-1.9144978523254395,-4.5313897132873535,-1.4282066822052002,0.0013027811655774713,2.9574291706085205,0.3927825093269348,34590.0,39356.0,36000.0,37346.0,0,0,0,0,36823.046875,-154.0,-2170.0,-1506.0
0.74,0.024602189660072327,-0.025199778378009796,0.3988837003707886,0.0,0.0,0.0,-1.9691466093063354,-3.9098331928253174,-1.4421253204345703,0.0008383778040297329,2.9569637775421143,0.39833182096481323,34643.0,38899.0,35455.0,36811.0,0,0,0,0,36452.203125,-649.0,-2876.0,-1311.0
0.76,0.03380201384425163,-0.02671211026608944,0.40771254897117615,0.0,0.0,0.0,-2.031315326690674,-3.3197906017303467,-1.4438607692718506,0.0014117946848273277,2.9535677433013916,0.40725988149642944,35762.0,39782.0,34894.0,36830.0,0,0,0,0,36817.76171875,-2098.0,-2790.0,-1446.0
0.78,0.0427597314119339,-0.027341799810528755,0.41189223527908325,0.0,0.0,0.0,-2.0554730892181396,-2.7476015090942383,-1.456497073173523,0.0008501919801346958,2.952716112136841,0.4112786650657654,34513.0,40083.0,36347.0,37153.0,0,0,0,0,37024.90234375,-1429.0,-3172.0,-1529.0
0.8,0.05181273818016052,-0.028001293540000916,0.4170170724391937,0.0,0.0,0.0,-2.048316478729248,-2.1191229820251465,-1.4736120700836182,0.0007952114683575928,2.9526610374450684,0.4165502190589905,33561.0,40069.0,37815.0,37459.0,0,0,0,0,37226.44921875,-197.0,-4520.0,-1566.0
0.82,0.061350829899311066,-0.02901829034090042,0.4273695945739746,0.0,0.0,0.0,-2.031489372253418,-1.4513800144195557,-1.4837034940719604,0.0016687269089743495,2.9488301277160645,0.42703643441200256,34720.0,39952.0,35230.0,35782.0,0,0,0,0,36421.1015625,-789.0,-3004.0,-1479.0
0.84,0.06896241009235382,-0.029216991737484932,0.42460545897483826,0.0,0.0,0.0,-2.0520474910736084,-0.8526219725608826,-1.4820853471755981,0.0008543449803255498,2.9462897777557373,0.42369478940963745,35850.0,40624.0,36954.0,38376.0,0,0,0,0,37951.09375,444.0,-730.0,-1422.0
0.86,0.0786857083439827,-0.030626541003584862,0.428522527217865,0.0,0.0,0.0,-2.0268566608428955,-0.35214298963546753,-1.4868004322052002,0.0009570994880050421,2.9463934898376465,0.42809706926345825,35274.0,42468.0,37924.0,36890.0,0,0,0,0,38139.68359375,-940.0,-2623.0,-1470.0
0.88,0.09081441164016724,-0.031275004148483276,0.4316582679748535,0.0,0.0,0.0,-1.965401291847229,0.046643923968076706,-1.4992773532867432,0.0007764051551930606,2.8909621238708496,0.431970477104187,36364.0,40834.0,37136.0,38722.0,0,0,0,0,38264.82421875,-877.0,-1935.0,-1497.0
0.9,0.10008513927459717,-0.031195824965834618,0.4306747615337372,0.0,0.0,0.0,-1.9087759256362915,0.46177181601524353,-1.511047124862671,0.0006334895733743906,2.8868424892425537,0.43106159567832947,35182.0,43794.0,40220.0,37460.0,0,0,0,0,39164.734375,-1613.0,-4100.0,-1549.0
0.92,0.10893604904413223,-0.030950993299484253,0.43405744433403015,0.0,0.0,0.0,-1.8471741676330566,0.9794929623603821,-1.5143568515777588,0.00046522440970875323,2.8866658210754395,0.43419480323791504,37308.0,40672.0,38324.0,40612.0,0,0,0,0,39229.2734375,-8.0,-1627.0,-1453.0
0.94,0.11788072437047958,-0.031126881018280983,0.4374004602432251,0.0,0.0,0.0,-1.7883046865463257,1.439405918121338,-1.5093697309494019,0.0004734997055493295,2.8848304748535156,0.4375697076320648,37320.0,42518.0,37736.0,38714.0,0,0,0,0,39072.40234375,131.0,-2714.0,-1526.0
0.96,0.12701591849327087,-0.031241267919540405,0.44105231761932373,0.0,0.0,0.0,-1.7252720594406128,1.7518963813781738,-1.5131088495254517,0.00043788424227386713,2.885101079940796,0.44124796986579895,37419.0,42727.0,37373.0,38289.0,0,0,0,0,38952.4609375,-2615.0,-4200.0,-1593.0
0.98,0.13586550951004028,-0.030927566811442375,0.44441938400268555,0.0,0.0,0.0,-1.6323626041412354,2.0215322971343994,-1.5277769565582275,0.0006997681339271367,2.885376453399658,0.4449116885662079,35954.0,42348.0,38534.0,38224.0,0,0,0,0,38765.91796875,-1788.0,-2771.0,-1511.0
1.0,0.14505761861801147,-0.031144341453909874,0.44775068759918213,0.0,0.0,0.0,-1.532481074333191,2.325645685195923,-1.529551386833191,0.0003688280121423304,2.8819432258605957,0.4489828050136566,34712.0,42520.0,38998.0,37366.0,0,0,0,0,38399.22265625,-1273.0,-4102.0,-1546.0
1.02,0.1523352414369583,-0.031119801104068756,0.4525046944618225,0.0,0.0,0.0,-1.471126675605774,2.6772022247314453,-1.5300875902175903,0.000363192695658654,2.881939649581909,0.4526081383228302,36138.0,41906.0,37160.0,37820.0,0,0,0,0,38256.65625,-2076.0,-2934.0,-1567.0
1.04,0.16250380873680115,-0.03182085603475571,0.4560658037662506,0.0,0.0,0.0,-1.3640172481536865,2.8432676792144775,-1.5534793138504028,0.0002870876924134791,2.881865978240967,0.4563768208026886,36620.0,42144.0,36478.0,37158.0,0,0,0,0,38100.66796875,-1928.0,-1430.0,-1608.0
1.06,0.1709226369857788,-0.030876105651259422,0.4597267806529999,0.0,0.0,0.0,-1.2780511379241943,2.9040770530700684,-1.567697286605835,0.00032989089959301054,2.8813693523406982,0.45883864164352417,35877.0,41749.0,37331.0,37723.0,0,0,0,0,38170.984375,-927.0,-2564.0,-1583.0
1.08,0.17816874384880066,-0.03012075461447239,0.46230462193489075,0.0,0.0,0.0,-1.1445776224136353,2.987833023071289,-1.581499457359314,0.0003040627343580127,2.8805181980133057,0.4625309407711029,35685.0,41353.0,37447.0,37911.0,0,0,0,0,38099.0625,-1801.0,-3094.0,-1520.0
1.1,0.18630766868591309,-0.03039020672440529,0.4657382369041443,0.0,0.0,0.0,-1.0365347862243652,3.108213186264038,-1.5821810960769653,0.00014169914356898516,2.880352735519409,0.4658757746219635,35404.0,41576.0,36994.0,36986.0,0,0,0,0,37740.515625,-2011.0,-4244.0,-1533.0
1.12,0.19323080778121948,-0.029833808541297913,0.47113773226737976,0.0,0.0,0.0,-0.9466366171836853,3.246823787689209,-1.5890746116638184,2.8593369279406033e-05,2.8809549808502197,0.4711223840713501,35577.0,41697.0,37047.0,36439.0,0,0,0,0,37690.0234375,-548.0,-2217.0,-1380.0
1.14,0.2011655867099762,-0.030249623581767082,0.4747772514820099,0.0,0.0,0.0,-0.812472939491272,3.25274395942688,-1.5735347270965576,-1.1279124919383321e-05,2.880544662475586,0.47482821345329285,36428.0,39092.0,35972.0,38960.0,0,0,0,0,37613.03125,-1621.0,-1588.0,-1432.0
1.16,0.20910502970218658,-0.029227357357740402,0.4792565703392029,0.0,0.0,0.0,-0.7075077891349792,3.168497085571289,-1.558332085609436,-9.205965761793777e-05,2.8808252811431885,0.4792860746383667,35046.0,41958.0,36988.0,35684.0,0,0,0,0,37419.73046875,-1288.0,-4236.0,-1424.0
1.18,0.21224063634872437,-0.02877812273800373,0.48106667399406433,0.0,0.0,0.0,-0.6611016988754272,3.1295502185821533,-1.5485892295837402,-0.00016453843272756785,2.8807520866394043,0.48275959491729736,35624.0,39456.0,36334.0,38274.0,0,0,0,0,37422.33984375,-1181.0,-508.0,-1440.0
1.2,0.21983776986598969,-0.029652951285243034,0.48526129126548767,0.0,0.0,0.0,-0.5433210134506226,3.090945243835449,-1.5346847772598267,-0.00023589158081449568,2.8793108463287354,0.4870040714740753,34868.0,40702.0,37244.0,36310.0,0,0,0,0,37281.48046875,-1208.0,-4033.0,-1389.0
1.22,0.22624710202217102,-0.029156534001231194,0.48708900809288025,0.0,0.0,0.0,-0.4690176546573639,3.0493857860565186,-1.5216870307922363,-0.00028900092002004385,2.878718137741089,0.4886089563369751,36775.0,39599.0,36261.0,38053.0,0,0,0,0,37672.9453125,-961.0,-846.0,-1369.0
1.24,0.23509782552719116,-0.029148418456315994,0.4901079833507538,0.0,0.0,0.0,-0.42006999254226685,2.9574809074401855,-1.5022063255310059,-0.0003404749440960586,2.8786656856536865,0.4916231334209442,35826.0,40116.0,37688.0,37414.0,0,0,0,0,37761.52734375,-3130.0,-2670.0,-1360.0
1.26,0.24077041447162628,-0.029019977897405624,0.49421995878219604,0.0,0.0,0.0,-0.39767545461654663,2.800757646560669,-1.4764864444732666,-0.000426654500188306,2.8771283626556396,0.4956507384777069,36297.0,40689.0,36347.0,37175.0,0,0,0,0,37627.47265625,-686.0,-997.0,-1446.0
1.28,0.2489127218723297,-0.02783058024942875,0.49523988366127014,0.0,0.0,0.0,-0.3604942262172699,2.5734856128692627,-1.4575339555740356,-0.0003941795730497688,2.8766088485717773,0.49657905101776123,36633.0,40439.0,36745.0,38399.0,0,0,0,0,38054.58203125,-2005.0,-1912.0,-1429.0
1.3,0.25558745861053467,-0.027423877269029617,0.4978504180908203,0.0,0.0,0.0,-0.2877649962902069,2.369199275970459,-1.453302025794983,-0.00043162042857147753,2.8765711784362793,0.49910739064216614,34953.0,41991.0,38985.0,36763.0,0,0,0,0,38173.859375,-1386.0,-4117.0,-1318.0
1.32,0.26256248354911804,-0.026059195399284363,0.5003356337547302,0.0,0.0,0.0,-0.22483289241790771,2.2063281536102295,-1.4424824714660645,-0.0004306169576011598,2.8765676021575928,0.5015373229980469,36289.0,41161.0,38297.0,37333.0,0,0,0,0,38270.34375,1014.0,68.0,-1264.0
1.34,0.2713705003261566,-0.02557949721813202,0.5026425719261169,0.0,0.0,0.0,-0.19567114114761353,2.081756591796875,-1.4171878099441528,-0.0004808162047993392,2.875622272491455,0.5001475214958191,38227.0,41489.0,37689.0,38487.0,0,0,0,0,38973.88671875,-1782.0,-227.0,-1308.0
1.36,0.2770460247993469,-0.02512143738567829,0.5010702610015869,0.0,0.0,0.0,-0.1962376981973648,1.9096883535385132,-1.387948989868164,-0.0005137782427482307,2.875589609146118,0.5019678473472595,38955.0,42843.0,37179.0,37219.0,0,0,0,0,39049.84375,502.0,-1595.0,-1233.0
1.38,0.28108400106430054,-0.024632498621940613,0.5028899908065796,0.0,0.0,0.0,-0.15117916464805603,1.7421045303344727,-1.3632757663726807,-0.0005177616840228438,2.8738605976104736,0.5057379007339478,37117.0,40635.0,38353.0,38547.0,0,0,0,0,38663.30859375,-1067.0,-2052.0,-1193.0
1.4,0.28501588106155396,-0.024884207174181938,0.5067375898361206,0.0,0.0,0.0,-0.07298476248979568,1.64907968044281,-1.3334811925888062,0.15274415910243988,2.873849868774414,0.5077551007270813,36252.0,42134.0,39168.0,36902.0,0,0,0,0,38614.3125,-1471.0,-3834.0,-1260.0
1.42,0.2887767255306244,-0.024205513298511505,0.5087600350379944,0.0,0.0,0.0,-0.025584639981389046,1.6221972703933716,-1.3016899824142456,0.15274269878864288,2.8738393783569336,0.5097890496253967,36702.0,40392.0,38440.0,38626.0,0,0,0,0,38540.92578125,100.0,-412.0,-1262.0
1.44,0.29301488399505615,-0.02287617139518261,0.5108122825622559,0.0,0.0,0.0,0.0003407305630389601,1.5379528999328613,-1.275755524635315,0.1527099460363388,2.873800277709961,0.5118044018745422,37213.0,40799.0,37869.0,38087.0,0,0,0,0,38492.44921875,-1311.0,-1781.0,-1177.0
1.46,0.2949213683605194,-0.02269814722239971,0.5133956670761108,0.0,0.0,0.0,-0.004243203904479742,1.315774917602539,-1.2515456676483154,0.31745001673698425,2.8736157417297363,0.5144500136375427,37648.0,40270.0,36960.0,38410.0,0,0,0,0,38322.94140625,-622.0,-1201.0,-1325.0
1.48,0.3050709068775177,-0.022998696193099022,0.515495240688324,0.0,0.0,0.0,0.021796485409140587,0.9844244122505188,-1.2265158891677856,0.3174535632133484,2.8736379146575928,0.5165644884109497,37582.0,39712.0,36424.0,39354.0,0,0,0,0,38268.43359375,-1124.0,-2029.0,-1328.0
1.5,0.31016066670417786,-0.022948764264583588,0.5175844430923462,0.0,0.0,0.0,0.0413118414580822,0.7471109628677368,-1.218361496925354,0.31742063164711,2.8735949993133545,0.5186309218406677,36637.0,39393.0,37327.0,39583.0,0,0,0,0,38235.06640625,-1743.0,-2510.0,-1380.0
1.52,0.3151157796382904,-0.02197929657995701,0.5231435894966125,0.0,0.0,0.0,0.0451945886015892,0.6096256971359253,-1.2125117778778076,0.3491317629814148,2.873015880584717,0.5243149399757385,36513.0,40157.0,36317.0,37629.0,0,0,0,0,37654.8828125,-517.0,-2313.0,-1338.0
1.54,0.317596435546875,-0.020986786112189293,0.52549147605896,0.0,0.0,0.0,0.020923499017953873,0.5037769675254822,-1.2048039436340332,0.34912213683128357,2.8729934692382812,0.5266435742378235,36319.0,38609.0,36461.0,39079.0,0,0,0,0,37617.47265625,-1834.0,-1967.0,-1332.0
1.56,0.3218245804309845,-0.02058829367160797,0.5277963876724243,0.0,0.0,0.0,0.022926535457372665,0.3249785006046295,-1.1965162754058838,0.34912213683128357,2.8729934692382812,0.5289318561553955,35986.0,39400.0,36248.0,38858.0,0,0,0,0,37623.9609375,-1734.0,-75.0,-1472.0
1.58,0.32641857862472534,-0.01973870024085045,0.5287235975265503,0.0,0.0,0.0,0.018511367961764336,0.08216211199760437,-1.1968928575515747,0.351506769657135,2.872798204421997,0.5303768515586853,35736.0,39218.0,36980.0,39346.0,0,0,0,0,37820.24609375,-885.0,-1493.0,-1347.0
1.6,0.3295154571533203,-0.019801286980509758,0.5313723683357239,0.0,0.0,0.0,0.03988465666770935,-0.12569059431552887,-1.2071342468261719,0.3514382839202881,2.872706651687622,0.5323247909545898,35127.0,41041.0,37835.0,37589.0,0,0,0,0,37898.92578125,-219.0,-2081.0,-1395.0
1.62,0.3325061500072479,-0.020526552572846413,0.5330422520637512,0.0,0.0,0.0,0.06397265195846558,-0.25702425837516785,-1.2056918144226074,0.3514869511127472,2.872607946395874,0.5339238047599792,36377.0,39689.0,37189.0,38817.0,0,0,0,0,38018.609375,-1512.0,-356.0,-1379.0
1.64,0.33304667472839355,-0.024633698165416718,0.5347456336021423,0.0,0.0,0.0,0.1018393412232399,-0.3679758906364441,-1.202844262123108,0.3505699932575226,2.872689723968506,0.5344090461730957,38498.0,41250.0,35034.0,38390.0,0,0,0,0,38293.00390625,-1249.0,614.0,-1509.0
1.66,0.3498704433441162,-0.02698943391442299,0.5351832509040833,0.0,0.0,0.0,0.07973137497901917,-0.7192843556404114,-1.2067710161209106,0.3505355715751648,2.8726634979248047,0.5359337329864502,36376.0,39536.0,36466.0,39914.0,0,0,0,0,38073.79296875,-438.0,-577.0,-1522.0
1.68,0.3559223413467407,-0.0277236420661211,0.5384382009506226,0.0,0.0,0.0,0.0498495027422905,-0.9800520539283752,-1.222015380859375,0.3504849970340729,2.872926712036133,0.5392526984214783,35300.0,40456.0,37584.0,39204.0,0,0,0,0,38136.7265625,113.0,-2129.0,-1489.0
1.7,0.3602665960788727,-0.026969129219651222,0.5400433540344238,0.0,0.0,0.0,-0.06266907602548599,-1.140607476234436,-1.2366024255752563,0.3504849970340729,2.872926712036133,0.5408133864402771,33610.0,42064.0,39370.0,37556.0,0,0,0,0,38150.4296875,-598.0,-6384.0,-1520.0
1.72,0.3560761511325836,-0.024815931916236877,0.54196697473526,0.0,0.0,0.0,-0.2124893218278885,-1.015777349472046,-1.2421692609786987,0.35062283277511597,2.8727924823760986,0.5427151918411255,33636.0,41248.0,38876.0,38136.0,0,0,0,0,37974.3984375,911.0,-3196.0,-1633.0
1.74,0.35283753275871277,-0.026737041771411896,0.5446397066116333,0.0,0.0,0.0,-0.323626309633255,-0.763144314289093,-1.2546584606170654,0.3506017327308655,2.8728840351104736,0.545417308807373,35849.0,41299.0,35929.0,38923.0,0,0,0,0,38000.859375,-1416.0,4.0,-1733.0
1.76,0.35918939113616943,-0.026679454371333122,0.5461956858634949,0.0,0.0,0.0,-0.48507845401763916,-0.753856360912323,-1.2862651348114014,0.35064736008644104,2.872939348220825,0.5469766855239868,37733.0,39843.0,34433.0,40011.0,0,0,0,0,38005.28515625,-2980.0,281.0,-1678.0
1.78,0.3628392219543457,-0.026334283873438835,0.5442236065864563,0.0,0.0,0.0,-0.5640975832939148,-0.9756309986114502,-1.319328784942627,0.34867754578590393,2.8730149269104004,0.5464006066322327,35590.0,42584.0,36858.0,37800.0,0,0,0,0,38208.02734375,-437.0,-941.0,-1655.0
1.8,0.36552202701568604,-0.024134838953614235,0.5471435785293579,0.0,0.0,0.0,-0.5627177953720093,-1.283942461013794,-1.3433626890182495,0.34874558448791504,2.8730926513671875,0.5478132367134094,35462.0,42238.0,37568.0,37728.0,0,0,0,0,38249.87890625,162.0,-3192.0,-1645.0
1.82,0.3882812261581421,-0.032055746763944626,0.5485415458679199,0.0,0.0,0.0,-0.4908641576766968,-1.6151056289672852,-1.3709819316864014,0.3489171266555786,2.873307704925537,0.5492168068885803,36488.0,40458.0,36078.0,40128.0,0,0,0,0,38288.00390625,-925.0,1197.0,-1746.0
1.84,0.3956036865711212,-0.03281676769256592,0.5478344559669495,0.0,0.0,0.0,-0.5214057564735413,-1.6936352252960205,-1.387232780456543,0.3479655086994171,2.8733553886413574,0.5484099388122559,36084.0,40384.0,35822.0,39210.0,0,0,0,0,37875.0625,-1575.0,-522.0,-1683.0
1.86,0.4147680997848511,-0.03575519099831581,0.5529240369796753,0.0,0.0,0.0,-0.6105754971504211,-1.863401174545288,-1.4148552417755127,0.3477882742881775,2.873757839202881,0.5536579489707947,35809.0,41975.0,36367.0,37277.0,0,0,0,0,37857.00390625,-1379.0,-2116.0,-1819.0
1.88,0.4263581335544586,-0.04063351824879646,0.554337739944458,0.0,0.0,0.0,-0.6509738564491272,-1.8187822103500366,-1.4260280132293701,0.34775713086128235,2.8737339973449707,0.55506831407547,34671.0,41375.0,37181.0,38209.0,0,0,0,0,37859.72265625,-1514.0,-3059.0,-1879.0
1.9,0.442688912153244,-0.042321670800447464,0.5557449460029602,0.0,0.0,0.0,-0.7347026467323303,-1.6269224882125854,-1.4409046173095703,0.34783855080604553,2.759880304336548,0.5597394704818726,33849.0,40939.0,37009.0,37471.0,0,0,0,0,37317.6484375,-834.0,-3581.0,-1893.0
1.92,0.4558872580528259,-0.047939326614141464,0.56048983335495,0.0,0.0,0.0,-0.8332434892654419,-1.2128534317016602,-1.4595837593078613,0.34776824712753296,2.7598013877868652,0.5613133311271667,34193.0,41163.0,36731.0,37369.0,0,0,0,0,37364.02734375,-1035.0,-2167.0,-1879.0
1.94,0.47256723046302795,-0.0512145571410656,0.5620304346084595,0.0,0.0,0.0,-1.010757327079773,-0.7555315494537354,-1.4721497297286987,0.347748726606369,2.7597601413726807,0.5628177523612976,35692.0,40182.0,35826.0,38088.0,0,0,0,0,37447.8125,-1146.0,-809.0,-1807.0
1.96,0.4868171513080597,-0.0517146922647953,0.563489556312561,0.0,0.0,0.0,-1.2286553382873535,-0.2571168839931488,-1.4737306833267212,0.34759947657585144,2.7563836574554443,0.5591793656349182,35897.0,40981.0,37875.0,39071.0,0,0,0,0,38456.78125,-435.0,-2377.0,-1716.0
1.98,0.5007222294807434,-0.05304019898176193,0.5595319867134094,0.0,0.0,0.0,-1.4142389297485352,0.23577958345413208,-1.4664109945297241,0.3476122319698334,0.7401677966117859,0.5599508881568909,36770.0,40096.0,38036.0,39618.0,0,0,0,0,38630.5078125,-664.0,-1586.0,-1640.0
2.0,0.512749195098877,-0.0509876050055027,0.5602562427520752,0.0,0.0,0.0,-1.6137028932571411,0.8128817677497864,-1.437056303024292,0.3477524220943451,0.7429831027984619,0.5641241669654846,35261.0,41175.0,38547.0,37549.0,0,0,0,0,38133.5625,-116.0,-3357.0,-1661.0
2.02,0.5250132083892822,-0.049351632595062256,0.5646023154258728,0.0,0.0,0.0,-1.8205711841583252,1.44556725025177,-1.401626467704773,0.3477741777896881,0.74297696352005,0.5650299787521362,35574.0,40938.0,37536.0,37988.0,0,0,0,0,38009.72265625,-1049.0,-1948.0,-1672.0
2.04,0.5406942367553711,-0.05118180438876152,0.566210925579071,0.0,0.0,0.0,-1.9264432191848755,2.1151952743530273,-1.3823949098587036,0.34781816601753235,0.7275083065032959,0.5667048096656799,35981.0,40505.0,36753.0,38841.0,0,0,0,0,38020.93359375,-71.0,-737.0,-1158.0
2.06,0.5512726902961731,-0.05003735423088074,0.5614092946052551,0.0,0.0,0.0,-2.008335590362549,2.771637201309204,-1.3432207107543945,0.34760844707489014,0.7233949899673462,0.5615977048873901,36427.0,39999.0,39101.0,40853.0,0,0,0,0,39095.47265625,1109.0,-642.0,-1539.0
2.08,0.5620384216308594,-0.04742775484919548,0.5617784261703491,0.0,0.0,0.0,-2.051776647567749,3.371540069580078,-1.3174086809158325,0.347616046667099,0.7233990430831909,0.5619315505027771,37743.0,42683.0,38091.0,38223.0,0,0,0,0,39185.61328125,-2795.0,-2246.0,-1606.0
2.1,0.5725112557411194,-0.046397775411605835,0.563041627407074,0.0,0.0,0.0,-2.0667765140533447,3.9591267108917236,-1.2861287593841553,0.3476572334766388,0.7178257703781128,0.5632517337799072,36005.0,42689.0,39405.0,37905.0,0,0,0,0,39001.734375,-1566.0,-3446.0,-1627.0
2.12,0.5846989750862122,-0.047567736357450485,0.5635676980018616,0.0,0.0,0.0,-2.0028281211853027,4.547607898712158,-1.2614467144012451,0.34766507148742676,0.717882513999939,0.563778281211853,36855.0,41265.0,38573.0,39179.0,0,0,0,0,38968.59375,193.0,-2563.0,-1577.0
2.14,0.5927577018737793,-0.04372665286064148,0.5640450716018677,0.0,0.0,0.0,-1.9221822023391724,5.1117634773254395,-1.2308191061019897,0.3477197289466858,0.7179312109947205,0.5642774105072021,37080.0,40482.0,38414.0,39848.0,0,0,0,0,38956.27734375,18.0,-28.0,-1464.0
2.16,0.5963810086250305,-0.04200020805001259,0.5637640953063965,0.0,0.0,0.0,-1.8607925176620483,5.498936653137207,-1.2075154781341553,0.34773769974708557,0.7202938199043274,0.564017653465271,38856.0,42240.0,37680.0,40612.0,0,0,0,0,39847.75390625,-1969.0,-871.0,-1684.0
2.18,0.6122600436210632,-0.040279414504766464,0.5596669316291809,0.0,0.0,0.0,-1.7593367099761963,5.680619716644287,-1.185836672782898,0.34761083126068115,0.7178701758384705,0.5596437454223633,37407.0,41555.0,39311.0,41111.0,0,0,0,0,39846.03515625,-525.0,-937.0,-1600.0
2.2,0.615962028503418,-0.039088960736989975,0.5596464276313782,0.0,0.0,0.0,-1.5418226718902588,5.9077324867248535,-1.18674898147583,0.3476681113243103,0.7179247140884399,0.5597267150878906,36754.0,43292.0,39992.0,39134.0,0,0,0,0,39793.2421875,-1434.0,-3687.0,-1570.0
2.22,0.6244688630104065,-0.03416622057557106,0.5595080852508545,0.0,0.0,0.0,-1.3405687808990479,6.121305465698242,-1.1624782085418701,0.34757086634635925,0.7183230519294739,0.5595203638076782,36196.0,44674.0,40296.0,37806.0,0,0,0,0,39743.5703125,-1136.0,-2996.0,-1566.0
2.24,0.6228038668632507,-0.031110171228647232,0.5613404512405396,0.0,0.0,0.0,-1.124787449836731,6.383934497833252,-1.1546483039855957,0.3474940359592438,0.7190027832984924,0.5615194439888,37110.0,42874.0,38246.0,38946.0,0,0,0,0,39294.41796875,-580.0,-1267.0,-1575.0
2.26,0.6230966448783875,-0.03247985616326332,0.5617161989212036,0.0,0.0,0.0,-0.9151790142059326,6.48430061340332,-1.1566946506500244,0.3476806879043579,0.7191870808601379,0.5622425079345703,37136.0,41368.0,38194.0,39630.0,0,0,0,0,39082.01171875,609.0,383.0,-1552.0
2.28,0.6377594470977783,-0.021941235288977623,0.5625459551811218,0.0,0.0,0.0,-0.7571917772293091,6.252299785614014,-1.135144829750061,0.347545862197876,0.7198605537414551,0.5622115731239319,36674.0,41766.0,38408.0,38684.0,0,0,0,0,38883.16796875,-26.0,-820.0,-1495.0
2.3,0.638483464717865,-0.016872338950634003,0.5635770559310913,0.0,0.0,0.0,-0.5033956170082092,5.9992995262146,-1.123053789138794,0.34753113985061646,0.7202311158180237,0.5639756917953491,36008.0,41582.0,39304.0,37958.0,0,0,0,0,38713.9453125,-219.0,-3936.0,-1421.0
2.32,0.6394262313842773,-0.008448686450719833,0.5643557906150818,0.0,0.0,0.0,-0.22137780487537384,5.773801803588867,-1.0949914455413818,0.3473714292049408,0.7200703620910645,0.5647427439689636,35827.0,42325.0,38543.0,37725.0,0,0,0,0,38605.46875,-506.0,-2088.0,-1437.0
2.34,0.6384138464927673,-0.0059274169616401196,0.5651952624320984,0.0,0.0,0.0,0.11290243268013,5.593968391418457,-1.0762879848480225,0.34734365344047546,0.7200433611869812,0.5657066702842712,37203.0,39331.0,36487.0,39975.0,0,0,0,0,38249.30078125,-340.0,-155.0,-1436.0
2.36,0.6416612267494202,-0.004119563847780228,0.567234992980957,0.0,0.0,0.0,0.44100356101989746,5.250184535980225,-1.066478967666626,0.34720197319984436,0.7213994264602661,0.5676165223121643,37943.0,41331.0,36145.0,37949.0,0,0,0,0,38342.78515625,-2448.0,-810.0,-1499.0
2.38,0.6429967284202576,0.005284381099045277,0.568264365196228,0.0,0.0,0.0,0.7423103451728821,4.67844820022583,-1.0278286933898926,0.3471832573413849,0.721380889415741,0.5686936378479004,38367.0,40793.0,37865.0,41467.0,0,0,0,0,39623.19921875,-1969.0,-732.0,-1508.0
2.4,0.6428470015525818,0.007157364394515753,0.5617608428001404,0.0,0.0,0.0,1.148381233215332,4.074974536895752,-1.0172755718231201,0.34714630246162415,0.7195872664451599,0.5619179606437683,37672.0,42638.0,38898.0,39392.0,0,0,0,0,39650.69140625,-1946.0,-2682.0,-1449.0
2.42,0.6478009819984436,0.0016234421636909246,0.5621125102043152,0.0,0.0,0.0,1.6135879755020142,3.45164155960083,-1.0165424346923828,0.3467971682548523,0.7194110155105591,0.561763346195221,36949.0,42003.0,39921.0,39907.0,0,0,0,0,39695.83984375,-435.0,-2429.0,-1470.0
2.44,0.6357134580612183,0.015524245798587799,0.5626534819602966,0.0,0.0,0.0,1.8779126405715942,2.9916634559631348,-0.9714577794075012,0.3468085527420044,0.7195903658866882,0.5628789663314819,38689.0,41547.0,37961.0,39807.0,0,0,0,0,39501.27734375,-719.0,-860.0,-1485.0
2.46,0.6391257643699646,0.016983527690172195,0.563204824924469,0.0,0.0,0.0,2.093322515487671,2.375797986984253,-0.9428627490997314,0.346429705619812,0.7192099094390869,0.562994658946991,38165.0,40359.0,38281.0,40867.0,0,0,0,0,39418.2421875,265.0,-1451.0,-1416.0
2.48,0.6298686265945435,0.016427448019385338,0.5635943412780762,0.0,0.0,0.0,2.328300952911377,1.7339091300964355,-0.9191954731941223,0.34652945399284363,0.7191164493560791,0.5639165639877319,37878.0,41300.0,37838.0,39808.0,0,0,0,0,39206.0546875,-463.0,-36.0,-1521.0
2.5,0.6327724456787109,0.015808245167136192,0.5628390908241272,0.0,0.0,0.0,2.5877187252044678,0.9871938824653625,-0.8913916349411011,0.34623780846595764,0.7185056209564209,0.5627602338790894,37066.0,41960.0,38916.0,39474.0,0,0,0,0,39354.77734375,-1299.0,-3356.0,-1499.0
2.52,0.622802734375,0.017754720523953438,0.5631045699119568,0.0,0.0,0.0,2.789151430130005,0.2986884117126465,-0.8715972304344177,0.3462345600128174,0.7185022234916687,0.5634586811065674,37374.0,41614.0,38152.0,39716.0,0,0,0,0,39214.6328125,-946.0,-2626.0,-1486.0
2.54,0.6227565407752991,0.017588963732123375,0.5638505816459656,0.0,0.0,0.0,2.9247660636901855,-0.4202812910079956,-0.8420482277870178,0.3458082675933838,0.717660129070282,0.5644077062606812,37040.0,41100.0,37842.0,39834.0,0,0,0,0,38954.7265625,-184.0,-1195.0,-1509.0
2.56,0.6130684614181519,0.018629923462867737,0.5649617910385132,0.0,0.0,0.0,2.9688642024993896,-1.1069092750549316,-0.8105450868606567,0.345897912979126,0.7174249887466431,0.5636628270149231,37684.0,40970.0,37544.0,40466.0,0,0,0,0,39166.7265625,-1256.0,-1759.0,-1531.0
2.58,0.6098175644874573,0.01947575807571411,0.5639487504959106,0.0,0.0,0.0,2.915069818496704,-1.9000588655471802,-0.7865681648254395,0.34565815329551697,0.7171840071678162,0.5642812252044678,38344.0,41506.0,36762.0,39656.0,0,0,0,0,39067.2265625,-2925.0,-1339.0,-1565.0
2.6,0.6030773520469666,0.014056548476219177,0.5645763874053955,0.0,0.0,0.0,2.8835723400115967,-2.6538116931915283,-0.776852011680603,0.34549787640571594,0.7167084813117981,0.5655692219734192,36903.0,43275.0,37667.0,37543.0,0,0,0,0,38847.13671875,-330.0,-2501.0,-1546.0
2.62,0.5922057032585144,0.011743138544261456,0.5657123923301697,0.0,0.0,0.0,2.862179756164551,-3.325892686843872,-0.7576878666877747,0.34523919224739075,0.716587483882904,0.5672001838684082,37391.0,42591.0,36697.0,37753.0,0,0,0,0,38608.89453125,924.0,-277.0,-1551.0
2.64,0.5944428443908691,0.008863172493875027,0.5677266716957092,0.0,0.0,0.0,2.7562673091888428,-4.001537799835205,-0.7560573816299438,0.34526196122169495,0.7166102528572083,0.5684238076210022,37587.0,40307.0,36285.0,39817.0,0,0,0,0,38499.83984375,1299.0,1000.0,-1545.0
2.66,0.5975368618965149,0.007887103594839573,0.5690332055091858,0.0,0.0,0.0,2.512593984603882,-4.712430477142334,-0.7513352036476135,0.3450254499912262,0.7163722515106201,0.5694361329078674,38321.0,41147.0,35233.0,38487.0,0,0,0,0,38297.7734375,-1069.0,-526.0,-1518.0
2.68,0.5902837514877319,0.001435980200767517,0.5706501007080078,0.0,0.0,0.0,2.2295007705688477,-5.41947078704834,-0.7418513894081116,0.3450406491756439,0.7168353199958801,0.5761435627937317,36343.0,41337.0,35483.0,36401.0,0,0,0,0,37391.73046875,-112.0,-88.0,-1443.0
2.7,0.5951752662658691,-0.0011286709923297167,0.5770701766014099,0.0,0.0,0.0,1.960107684135437,-6.096839904785156,-0.7401085495948792,0.34508273005485535,0.7168769240379333,0.5779837965965271,35511.0,40553.0,36153.0,37059.0,0,0,0,0,37319.328125,-1278.0,-4803.0,-1528.0
2.72,0.5946580171585083,-0.01034459751099348,0.5787243247032166,0.0,0.0,0.0,1.712738275527954,-6.574556350708008,-0.7367473244667053,0.3449013829231262,0.7166948318481445,0.5795799493789673,34928.0,39162.0,36280.0,38930.0,0,0,0,0,37325.71875,185.0,-982.0,-1484.0
2.74,0.5949054956436157,-0.014188835397362709,0.5802829265594482,0.0,0.0,0.0,1.3764162063598633,-6.876634120941162,-0.7512262463569641,0.3448812961578369,0.7175196409225464,0.5860644578933716,35038.0,37024.0,34914.0,39180.0,0,0,0,0,36539.26953125,-779.0,-1222.0,-1554.0
2.76,0.5999419093132019,-0.02458634041249752,0.5869975686073303,0.0,0.0,0.0,0.9441474676132202,-7.194339275360107,-0.761469304561615,0.34482014179229736,0.7174571752548218,0.5880153179168701,36921.0,37877.0,33117.0,38421.0,0,0,0,0,36584.1484375,-449.0,1642.0,-1558.0
2.78,0.6031659841537476,-0.027439624071121216,0.5889473557472229,0.0,0.0,0.0,0.4665753245353699,-7.499459266662598,-0.7809978127479553,0.3447931408882141,0.7174298167228699,0.5898661613464355,35748.0,38358.0,34642.0,38032.0,0,0,0,0,36695.9140625,-1701.0,-165.0,-1541.0
2.8,0.6113070249557495,-0.03723070025444031,0.5898417234420776,0.0,0.0,0.0,0.05550336465239525,-7.7978081703186035,-0.7971939444541931,0.34474971890449524,0.7181568145751953,0.5930045247077942,33801.0,40381.0,36433.0,35829.0,0,0,0,0,36611.52734375,407.0,-1902.0,-1520.0
2.82,0.6143164038658142,-0.039947595447301865,0.5938115119934082,0.0,0.0,0.0,-0.3948114812374115,-7.8732123374938965,-0.8104752898216248,0.34478604793548584,0.718193531036377,0.5946609973907471,33537.0,39171.0,36817.0,37571.0,0,0,0,0,36774.65234375,1337.0,-1307.0,-1593.0
2.84,0.6221700310707092,-0.047944750636816025,0.5952449440956116,0.0,0.0,0.0,-0.8614122867584229,-7.785567283630371,-0.8190771341323853,0.34466269612312317,0.7180686593055725,0.5959190726280212,35346.0,39250.0,35300.0,38100.0,0,0,0,0,36999.3515625,-44.0,937.0,-1724.0
2.86,0.6287462115287781,-0.04719426482915878,0.5999717712402344,0.0,0.0,0.0,-1.4795799255371094,-7.620955467224121,-0.8466218709945679,0.3447060286998749,0.7188912034034729,0.600023090839386,35538.0,36772.0,34616.0,39898.0,0,0,0,0,36706.71875,-364.0,50.0,-1614.0
2.88,0.6417688131332397,-0.05511721596121788,0.600597083568573,0.0,0.0,0.0,-1.9981324672698975,-7.499264717102051,-0.8712049126625061,0.3446475565433502,0.7188315391540527,0.6011937856674194,36272.0,40900.0,34114.0,36158.0,0,0,0,0,36861.0546875,-1701.0,296.0,-1676.0
2.9,0.6474435925483704,-0.05686018988490105,0.6017509698867798,0.0,0.0,0.0,-2.4781553745269775,-7.2559332847595215,-0.8800797462463379,0.34462565183639526,0.7188252210617065,0.6023653745651245,34928.0,40658.0,35682.0,36728.0,0,0,0,0,36999.3125,-487.0,-1569.0,-1671.0
2.92,0.660062313079834,-0.060995809733867645,0.6028207540512085,0.0,0.0,0.0,-2.8364381790161133,-6.894168853759766,-0.8840780258178711,0.34466367959976196,0.7188634872436523,0.6033313274383545,34402.0,40708.0,36726.0,37232.0,0,0,0,0,37267.53515625,169.0,-2156.0,-1729.0
2.94,0.6734814643859863,-0.06263988465070724,0.6029258966445923,0.0,0.0,0.0,-3.1842756271362305,-6.376725673675537,-0.8802504539489746,0.3446289598941803,0.7192138433456421,0.6033145189285278,36842.0,39072.0,35636.0,39982.0,0,0,0,0,37883.91796875,-380.0,-218.0,-1628.0
2.96,0.687784731388092,-0.06689801812171936,0.6009037494659424,0.0,0.0,0.0,-3.538637399673462,-5.803991317749023,-0.8634355068206787,0.34453481435775757,0.718836784362793,0.6010227799415588,36907.0,38147.0,35931.0,41447.0,0,0,0,0,38108.12890625,-858.0,903.0,-1633.0
2.98,0.7025661468505859,-0.07055641710758209,0.6009291410446167,0.0,0.0,0.0,-3.8408989906311035,-5.2585225105285645,-0.8483148217201233,0.3445034623146057,0.7188050150871277,0.6010637283325195,37556.0,40022.0,35548.0,39790.0,0,0,0,0,38229.47265625,-2216.0,-1156.0,-1660.0
3.0,0.7106813788414001,-0.0739452987909317,0.6010478138923645,0.0,0.0,0.0,-4.050703525543213,-4.638729572296143,-0.8240483403205872,0.344474732875824,0.7187349200248718,0.6011157631874084,35918.0,42118.0,38850.0,38574.0,0,0,0,0,38865.32421875,-831.0,-5118.0,-1638.0
3.02,0.7246549129486084,-0.0727221742272377,0.5978708863258362,0.0,0.0,0.0,-4.189053058624268,-3.8712682723999023,-0.7838401794433594,0.3444514870643616,0.7183837890625,0.5977748036384583,36221.0,40759.0,38177.0,40551.0,0,0,0,0,38927.4296875,-955.0,-3527.0,-1771.0
3.04,0.7344163060188293,-0.0769406333565712,0.5974897742271423,0.0,0.0,0.0,-4.305321216583252,-2.910917282104492,-0.7382369041442871,0.3442922830581665,0.7182226777076721,0.5972030758857727,38921.0,39241.0,36233.0,41409.0,0,0,0,0,38951.6875,491.0,2400.0,-1637.0
3.06,0.7468769550323486,-0.07833429425954819,0.5972379446029663,0.0,0.0,0.0,-4.442324638366699,-2.040137767791748,-0.7105787396430969,0.3441423177719116,0.7180090546607971,0.5968355536460876,38123.0,41107.0,36389.0,39933.0,0,0,0,0,38888.09765625,-1630.0,-1161.0,-1584.0
3.08,0.7700037360191345,-0.07625215500593185,0.5938981175422668,0.0,0.0,0.0,-4.570857524871826,-1.4114620685577393,-0.6825175285339355,0.3440771996974945,0.7176597714424133,0.5935482978820801,37385.0,41255.0,38383.0,40385.0,0,0,0,0,39352.90234375,-2958.0,-1096.0,-1528.0
3.1,0.7798709273338318,-0.0725274458527565,0.5934054851531982,0.0,0.0,0.0,-4.579096794128418,-0.6102494597434998,-0.6395123600959778,0.34401509165763855,0.7175973653793335,0.5930142402648926,36280.0,41380.0,39260.0,40056.0,0,0,0,0,39244.546875,-740.0,-3676.0,-1435.0
3.12,0.7922557592391968,-0.06550129503011703,0.5936984419822693,0.0,0.0,0.0,-4.5118818283081055,0.3290373980998993,-0.5810116529464722,0.3440210521221161,0.7173353433609009,0.5934886932373047,35953.0,40735.0,38791.0,40233.0,0,0,0,0,38928.5859375,-1138.0,-3667.0,-1543.0
3.14,0.8032011985778809,-0.060731299221515656,0.5903825759887695,0.0,0.0,0.0,-4.385120868682861,1.3918378353118896,-0.5171018242835999,0.3439615070819855,0.7169584631919861,0.5900087952613831,38621.0,41403.0,36937.0,40523.0,0,0,0,0,39371.01953125,-1323.0,-1144.0,-1591.0
3.16,0.8211635947227478,-0.06000060960650444,0.5899108648300171,0.0,0.0,0.0,-4.175243377685547,2.2635090351104736,-0.48570534586906433,0.34402453899383545,0.7170224189758301,0.5898119211196899,37619.0,41775.0,37863.0,39571.0,0,0,0,0,39207.2890625,-628.0,-1599.0,-1483.0
3.18,0.8259758353233337,-0.056141309440135956,0.5904802083969116,0.0,0.0,0.0,-3.8382327556610107,3.0580127239227295,-0.47326475381851196,0.3439669907093048,0.7167311310768127,0.5903416872024536,37332.0,40822.0,37474.0,40000.0,0,0,0,0,38907.81640625,-1609.0,-2932.0,-1519.0
3.2,0.8371982574462891,-0.04981576278805733,0.6003488898277283,0.0,0.0,0.0,-3.443610429763794,3.8091917037963867,-0.4713950753211975,0.3439619243144989,0.7177065014839172,0.6009780168533325,33973.0,40719.0,36769.0,35623.0,0,0,0,0,36771.5234375,298.0,-4596.0,-1399.0
3.22,0.843736469745636,-0.04920744523406029,0.6017075181007385,0.0,0.0,0.0,-2.9472975730895996,4.567738056182861,-0.45524242520332336,0.3439951539039612,0.7177403569221497,0.6023850440979004,33126.0,40066.0,37050.0,35898.0,0,0,0,0,36535.78125,-1420.0,-5178.0,-1454.0
3.24,0.8513107299804688,-0.04678802937269211,0.6031398773193359,0.0,0.0,0.0,-2.4616689682006836,5.289493560791016,-0.43953394889831543,0.34402504563331604,0.7179387211799622,0.6032657623291016,34603.0,39611.0,35461.0,36549.0,0,0,0,0,36556.171875,-536.0,-2863.0,-1595.0
3.26,0.8594946265220642,-0.041546422988176346,0.6039133071899414,0.0,0.0,0.0,-2.0119571685791016,5.867228031158447,-0.4444165825843811,0.25751805305480957,0.7178919911384583,0.6045180559158325,35171.0,40013.0,35025.0,36179.0,0,0,0,0,36597.4921875,-17.0,-525.0,-1823.0
3.28,0.8622700572013855,-0.03919213265180588,0.6051939725875854,0.0,0.0,0.0,-1.5446945428848267,6.216153144836426,-0.4670189619064331,0.2575089931488037,0.7178803086280823,0.6056724190711975,35821.0,40283.0,34855.0,35969.0,0,0,0,0,36732.72265625,-777.0,-683.0,-1547.0
3.3,0.8683569431304932,-0.03320034593343735,0.6062294244766235,0.0,0.0,0.0,-1.049460768699646,6.369355201721191,-0.4856882095336914,0.2563888132572174,0.7180953621864319,0.6052373051643372,35466.0,43214.0,36276.0,33748.0,0,0,0,0,37176.234375,-4484.0,-5234.0,-1249.0
3.32,0.8739503622055054,-0.030893899500370026,0.6056099534034729,0.0,0.0,0.0,-0.4708145260810852,6.436229228973389,-0.48525577783584595,0.25636693835258484,0.7180658578872681,0.6058288216590881,35230.0,40720.0,37144.0,36574.0,0,0,0,0,37417.87109375,-724.0,-2020.0,-1040.0
3.34,0.8768271207809448,-0.025006026029586792,0.6060556769371033,0.0,0.0,0.0,0.07920512557029724,6.416606903076172,-0.47312861680984497,0.02283000946044922,0.7180661559104919,0.6062180995941162,36690.0,39986.0,36170.0,37814.0,0,0,0,0,37665.48828125,-1863.0,-2165.0,-995.0
3.36,0.8829233050346375,-0.019722746685147285,0.606301486492157,0.0,0.0,0.0,0.5484535694122314,6.2281599044799805,-0.4508815109729767,0.0227737445384264,0.7180085778236389,0.6063348054885864,36940.0,42406.0,37276.0,37038.0,0,0,0,0,38415.8828125,-1782.0,-2137.0,-1156.0
3.38,0.8862186670303345,-0.017106398940086365,0.6031421422958374,0.0,0.0,0.0,0.9842981100082397,5.91641092300415,-0.4325505793094635,0.015538894571363926,0.7183059453964233,0.6046750545501709,36690.0,41590.0,37598.0,37318.0,0,0,0,0,38299.79296875,-1329.0,-1468.0,-801.0
3.4,0.8898020386695862,-0.01253148727118969,0.6045846343040466,0.0,0.0,0.0,1.383848786354065,5.5557990074157715,-0.40432098507881165,0.015515024773776531,0.7182788848876953,0.6044142842292786,36031.0,41953.0,38595.0,37353.0,0,0,0,0,38483.29296875,-1219.0,-2018.0,-844.0
3.42,0.893223226070404,-0.008474688977003098,0.6042541265487671,0.0,0.0,0.0,1.7348839044570923,5.212673187255859,-0.37086221575737,0.015461781062185764,0.7182216644287109,0.6040164828300476,37280.0,42066.0,37398.0,37660.0,0,0,0,0,38601.3984375,-1163.0,-3543.0,-1193.0
3.44,0.8954346179962158,-0.005985133815556765,0.6020481586456299,0.0,0.0,0.0,2.060387134552002,4.86887788772583,-0.3540222644805908,0.01376795582473278,0.7182725667953491,0.6017144322395325,37824.0,42538.0,37362.0,38040.0,0,0,0,0,38941.90234375,-999.0,-356.0,-1235.0
3.46,0.8966057300567627,0.003097898093983531,0.6013778448104858,0.0,0.0,0.0,2.313288450241089,4.405359745025635,-0.33631017804145813,0.013691538944840431,0.7181932330131531,0.6010735630989075,37973.0,42139.0,37285.0,38595.0,0,0,0,0,38998.1640625,-974.0,-1145.0,-1240.0
3.48,0.9009526968002319,0.0053542680107057095,0.6008278131484985,0.0,0.0,0.0,2.5722596645355225,3.7728476524353027,-0.3263871669769287,0.013658450916409492,0.7180203199386597,0.598456084728241,37158.0,43156.0,38584.0,38562.0,0,0,0,0,39365.1875,-1953.0,-1996.0,-1455.0
3.5,0.9005616903305054,0.010220436379313469,0.5968721508979797,0.0,0.0,0.0,2.816570520401001,3.16782283782959,-0.3219139277935028,0.012757075019180775,0.7179678082466125,0.5964260697364807,37604.0,42518.0,38376.0,39578.0,0,0,0,0,39519.28515625,-891.0,-1075.0,-1797.0
3.52,0.9007551074028015,0.012235011905431747,0.5960383415222168,0.0,0.0,0.0,3.088839054107666,2.6333768367767334,-0.3369249403476715,0.012715163640677929,0.7179192900657654,0.5956441760063171,36721.0,43299.0,39999.0,39833.0,0,0,0,0,39963.84765625,-511.0,-3157.0,-1808.0
3.54,0.9036304354667664,0.014251827262341976,0.59249347448349,0.0,0.0,0.0,3.2656421661376953,2.1135270595550537,-0.3625388741493225,0.01254706084728241,0.717681348323822,0.5919933319091797,37772.0,42776.0,38660.0,40244.0,0,0,0,0,39863.984375,214.0,-616.0,-1889.0
3.56,0.8999966382980347,0.016781242564320564,0.5904452800750732,0.0,0.0,0.0,3.366269826889038,1.56779146194458,-0.3890334367752075,0.011789711192250252,0.7175950407981873,0.5900410413742065,38198.0,41510.0,38220.0,41380.0,0,0,0,0,39827.76171875,352.0,290.0,-1716.0
3.58,0.8990307450294495,0.020033784210681915,0.5896406173706055,0.0,0.0,0.0,3.4259090423583984,0.917579174041748,-0.3977847099304199,0.011499827727675438,0.7171579003334045,0.5845679044723511,38240.0,44108.0,39086.0,40558.0,0,0,0,0,40498.08203125,-1223.0,66.0,-2116.0
3.6,0.8972043991088867,0.020884521305561066,0.5840145945549011,0.0,0.0,0.0,3.447704792022705,0.2736407518386841,-0.4281415343284607,0.011478118598461151,0.7171345353126526,0.5836399793624878,38007.0,43295.0,39109.0,40737.0,0,0,0,0,40287.76171875,-250.0,-1650.0,-2054.0
3.62,0.895668089389801,0.023251883685588837,0.5831415057182312,0.0,0.0,0.0,3.462506055831909,-0.3423572778701782,-0.46150001883506775,0.012592565268278122,0.7169715166091919,0.5850946307182312,36438.0,44286.0,39534.0,38834.0,0,0,0,0,39773.40234375,-1240.0,-2757.0,-2103.0
3.64,0.8944301009178162,0.024080360308289528,0.584837794303894,0.0,0.0,0.0,3.4276316165924072,-0.9668141603469849,-0.48931488394737244,0.06273478269577026,0.7169077396392822,0.5847347974777222,37243.0,42533.0,38187.0,39981.0,0,0,0,0,39486.4765625,-1359.0,-410.0,-2015.0
3.66,0.8952383399009705,0.02288055047392845,0.5846366286277771,0.0,0.0,0.0,3.4029300212860107,-1.5443896055221558,-0.517163097858429,0.06268833577632904,0.716857373714447,0.5846482515335083,37535.0,42661.0,37035.0,39513.0,0,0,0,0,39186.140625,-1043.0,300.0,-2088.0
3.68,0.8899940848350525,0.02403944917023182,0.5845810174942017,0.0,0.0,0.0,3.3024110794067383,-2.1536240577697754,-0.5383824110031128,0.06255020946264267,0.7167023420333862,0.5847038626670837,36761.0,43177.0,37007.0,38283.0,0,0,0,0,38807.87109375,-1180.0,-938.0,-2283.0
3.7,0.8891419172286987,0.023957833647727966,0.58570796251297,0.0,0.0,0.0,3.1436800956726074,-2.8409311771392822,-0.5698904991149902,0.1257079541683197,0.7166383266448975,0.5859602093696594,34374.0,41786.0,38860.0,39148.0,0,0,0,0,38542.4921875,-587.0,-2809.0,-2355.0
3.72,0.8902089595794678,0.019001014530658722,0.5862043499946594,0.0,0.0,0.0,2.9948105812072754,-3.4284627437591553,-0.6085506081581116,0.12563486397266388,0.7165629267692566,0.5865627527236938,34449.0,42537.0,38237.0,37989.0,0,0,0,0,38303.46875,112.0,-4170.0,-2551.0
3.74,0.8926168084144592,0.019723322242498398,0.5869585275650024,0.0,0.0,0.0,2.790576219558716,-3.908266067504883,-0.662505030632019,0.12566222250461578,0.716590404510498,0.5873773097991943,35536.0,40064.0,36574.0,40202.0,0,0,0,0,38094.3125,-22.0,-891.0,-2575.0
3.76,0.8917903304100037,0.020387573167681694,0.5878335237503052,0.0,0.0,0.0,2.5102062225341797,-4.333593368530273,-0.7128164172172546,0.15777814388275146,0.7164725065231323,0.5882424712181091,36169.0,40827.0,35373.0,39331.0,0,0,0,0,37925.3203125,-937.0,-313.0,-2756.0
3.78,0.8936771750450134,0.015302537940442562,0.5887235403060913,0.0,0.0,0.0,2.2064273357391357,-4.871017932891846,-0.7663517594337463,0.15773288905620575,0.7164254188537598,0.589184045791626,37103.0,40873.0,34303.0,38885.0,0,0,0,0,37791.64453125,-1791.0,-1499.0,-2671.0
3.8,0.8946346640586853,0.014510237611830235,0.5897157788276672,0.0,0.0,0.0,1.906651258468628,-5.346085071563721,-0.8244943618774414,0.1577017456293106,0.7163898944854736,0.5901929140090942,35288.0,42506.0,35966.0,36964.0,0,0,0,0,37681.9296875,-380.0,-374.0,-2549.0
3.82,0.895415186882019,0.010125396773219109,0.5907809138298035,0.0,0.0,0.0,1.6760648488998413,-5.7081379890441895,-0.87066251039505,0.1577443778514862,0.716380774974823,0.5913184285163879,35542.0,41026.0,36212.0,38832.0,0,0,0,0,37903.703125,-820.0,-1736.0,-2454.0
3.84,0.9008665680885315,0.0038713456597179174,0.5902936458587646,0.0,0.0,0.0,1.404068946838379,-5.980501174926758,-0.913552463054657,0.16040466725826263,0.7163165807723999,0.5907412767410278,36201.0,39575.0,35481.0,40291.0,0,0,0,0,37887.69140625,-407.0,-613.0,-2483.0
3.86,0.9071521162986755,0.002267185365781188,0.5911485552787781,0.0,0.0,0.0,1.0667484998703003,-6.192476272583008,-0.9543106555938721,0.16039252281188965,0.7163072228431702,0.5915671586990356,36138.0,41300.0,35680.0,38478.0,0,0,0,0,37899.57421875,-1396.0,-2452.0,-2403.0
3.88,0.9105901122093201,-0.002070540562272072,0.5934390425682068,0.0,0.0,0.0,0.7082614302635193,-6.400366306304932,-0.9875928163528442,0.12446615099906921,0.7163028717041016,0.5939096212387085,35647.0,40909.0,35523.0,38693.0,0,0,0,0,37693.97265625,-911.0,-382.0,-2536.0
3.9,0.9152565598487854,-0.003350044833496213,0.5943159461021423,0.0,0.0,0.0,0.35743340849876404,-6.494743824005127,-1.0289642810821533,0.12443219870328903,0.7162548899650574,0.5947283506393433,34919.0,41829.0,36231.0,37841.0,0,0,0,0,37705.71875,-733.0,-1759.0,-2381.0
3.92,0.9198836088180542,-0.005691592115908861,0.5951328277587891,0.0,0.0,0.0,-0.01376153901219368,-6.484782695770264,-1.060752511024475,0.12445340305566788,0.7162879109382629,0.5955430865287781,34549.0,42085.0,36921.0,37389.0,0,0,0,0,37736.17578125,-333.0,-2892.0,-2282.0
3.94,0.9283726215362549,-0.011277498677372932,0.5958144664764404,0.0,0.0,0.0,-0.3665372431278229,-6.337028980255127,-1.0857089757919312,0.04397901892662048,0.716266930103302,0.5978257060050964,34565.0,39665.0,36573.0,39281.0,0,0,0,0,37551.96484375,-121.0,-2006.0,-1988.0
3.96,0.9354131817817688,-0.013726338744163513,0.5981769561767578,0.0,0.0,0.0,-0.7295888066291809,-6.115850448608398,-1.0920542478561401,0.04400605335831642,0.7162827253341675,0.5986229777336121,34540.0,40108.0,36596.0,39060.0,0,0,0,0,37616.57421875,634.0,248.0,-2205.0
3.98,0.9487857818603516,-0.013374192640185356,0.6028812527656555,0.0,0.0,0.0,-1.1424567699432373,-5.949341297149658,-1.1101592779159546,0.03534858673810959,0.7163257598876953,0.603541374206543,34535.0,40367.0,35067.0,37159.0,0,0,0,0,36809.16796875,-1132.0,-2431.0,-1906.0
4.0,0.9519438743591309,-0.014798270538449287,0.6041004061698914,0.0,0.0,0.0,-1.5063327550888062,-5.6733880043029785,-1.1076582670211792,0.03582010045647621,0.7163094878196716,0.6052149534225464,34288.0,40748.0,35296.0,37012.0,0,0,0,0,36795.0546875,-436.0,-1768.0,-1887.0
4.02,0.9629045724868774,-0.018222220242023468,0.605699360370636,0.0,0.0,0.0,-1.701256275177002,-5.269332408905029,-1.0976275205612183,0.035796623677015305,0.7162898778915405,0.6061817407608032,32419.0,39905.0,37271.0,37801.0,0,0,0,0,36925.79296875,446.0,-3588.0,-2217.0
4.04,0.973430871963501,-0.01990918070077896,0.6140077710151672,0.0,0.0,0.0,-1.9124468564987183,-4.697601318359375,-1.0985116958618164,0.032868996262550354,0.7164193987846375,0.6149905323982239,31011.0,39515.0,35849.0,35569.0,0,0,0,0,35587.5390625,964.0,-1188.0,-2145.0
4.06,0.9818614721298218,-0.020119789987802505,0.6156213283538818,0.0,0.0,0.0,-2.1419148445129395,-4.065310955047607,-1.0993300676345825,0.0328681543469429,0.7164220213890076,0.616477906703949,32520.0,39194.0,34252.0,36666.0,0,0,0,0,36386.875,-18.0,-1283.0,-2566.0
4.08,0.9870588183403015,-0.022836364805698395,0.6121594905853271,0.0,0.0,0.0,-2.3670802116394043,-3.5410587787628174,-1.112129807472229,0.02944614738225937,0.7163785099983215,0.6126644015312195,32776.0,40716.0,35054.0,37414.0,0,0,0,0,34992.828125,-536.0,-2138.0,-2603.0
4.1,0.9942323565483093,-0.024052126333117485,0.6215358972549438,0.0,0.0,0.0,-2.524986982345581,-3.0167977809906006,-1.1593395471572876,0.027742385864257812,0.7164083123207092,0.6222955584526062,31959.0,38557.0,33621.0,36339.0,0,0,0,0,35256.98046875,0.0,-3311.0,-2583.0
4.12,1.0047471523284912,-0.025856737047433853,0.6229740381240845,0.0,0.0,0.0,-2.6144330501556396,-2.539262056350708,-1.1808687448501587,0.027756793424487114,0.7164206504821777,0.6236082911491394,30835.0,41345.0,36349.0,35847.0,0,0,0,0,36094.03125,425.0,-6154.0,-3006.0
4.14,1.015055775642395,-0.024016045033931732,0.6201913356781006,0.0,0.0,0.0,-2.677338123321533,-2.0094659328460693,-1.2223964929580688,0.025379953905940056,0.7164255976676941,0.6205618977546692,31168.0,40642.0,34188.0,35702.0,0,0,0,0,35425.8515625,-681.0,-4703.0,-2889.0
4.16,1.0247398614883423,-0.025428039953112602,0.6265687346458435,0.0,0.0,0.0,-2.6850271224975586,-1.3857345581054688,-1.2694313526153564,0.02459762431681156,0.7164193391799927,0.6270238757133484,33196.0,39066.0,32922.0,37368.0,0,0,0,0,35848.09765625,459.0,-1171.0,-3081.0
4.18,1.0322577953338623,-0.02742426097393036,0.6273242831230164,0.0,0.0,0.0,-2.6272449493408203,-0.8575450778007507,-1.3090676069259644,0.024616193026304245,0.7164347767829895,0.6275690793991089,33215.0,39863.0,33721.0,37409.0,0,0,0,0,36271.66796875,-1398.0,-1785.0,-3075.0
4.2,1.0405341386795044,-0.02789861150085926,0.6232563257217407,0.0,0.0,0.0,-2.598729372024536,-0.49651679396629333,-1.3554625511169434,0.02218039333820343,0.7164379358291626,0.6231775879859924,34293.0,41261.0,34845.0,37897.0,0,0,0,0,36980.29296875,-3751.0,-1978.0,-2834.0
4.22,1.049015760421753,-0.02894800528883934,0.624761700630188,0.0,0.0,0.0,-2.516030788421631,-0.17892509698867798,-1.398009181022644,0.021918712183833122,0.7164544463157654,0.6245903968811035,34194.0,42350.0,35580.0,36744.0,0,0,0,0,37445.05078125,-1655.0,-3851.0,-2366.0
4.24,1.0587360858917236,-0.028476586565375328,0.6242349743843079,0.0,0.0,0.0,-2.3536980152130127,0.12496306747198105,-1.4095598459243774,0.021892644464969635,0.7164322733879089,0.6238534450531006,34894.0,42416.0,35762.0,37632.0,0,0,0,0,37914.24609375,-2324.0,-3442.0,-2346.0
4.26,1.0658305883407593,-0.027631279081106186,0.6233919262886047,0.0,0.0,0.0,-2.206210136413574,0.4361104369163513,-1.4110455513000488,0.020604722201824188,0.7164539694786072,0.6201974749565125,35455.0,41689.0,37697.0,40439.0,0,0,0,0,38820.0390625,-788.0,-3022.0,-2157.0
4.28,1.069575548171997,-0.025877047330141068,0.6189510226249695,0.0,0.0,0.0,-2.0336174964904785,0.730982780456543,-1.4105340242385864,0.020719192922115326,0.7164623737335205,0.6180905699729919,37221.0,43171.0,37625.0,39579.0,0,0,0,0,39399.51171875,-1933.0,-3477.0,-2235.0
4.3,1.078673243522644,-0.027936862781643867,0.6172668933868408,0.0,0.0,0.0,-1.8625017404556274,0.9586255550384521,-1.3886150121688843,0.020751943811774254,0.7164914608001709,0.6163297891616821,36131.0,44551.0,38287.0,38647.0,0,0,0,0,39675.953125,-3467.0,-3772.0,-2197.0
4.32,1.090308427810669,-0.0275610089302063,0.6153597831726074,0.0,0.0,0.0,-1.6928300857543945,1.1783385276794434,-1.3646990060806274,0.020970778539776802,0.7164844274520874,0.6113424301147461,36353.0,45659.0,39955.0,39473.0,0,0,0,0,40394.53515625,-1859.0,-4341.0,-2238.0
4.34,1.0953906774520874,-0.028928222134709358,0.6106849908828735,0.0,0.0,0.0,-1.4719675779342651,1.5126311779022217,-1.3378207683563232,0.02124912291765213,0.7165033221244812,0.6094975471496582,38258.0,44726.0,38308.0,40332.0,0,0,0,0,40469.765625,-681.0,-3721.0,-2060.0
4.36,1.1027247905731201,-0.02579834684729576,0.6083900332450867,0.0,0.0,0.0,-1.3056436777114868,1.8024249076843262,-1.32094144821167,0.02127004601061344,0.7165226340293884,0.6072583794593811,38414.0,45492.0,38454.0,39560.0,0,0,0,0,41161.4453125,-857.0,-955.0,-2064.0
4.38,1.109750747680664,-0.0253798495978117,0.6025367379188538,0.0,0.0,0.0,-1.1550647020339966,1.9540228843688965,-1.2862721681594849,0.021731887012720108,0.7165335416793823,0.6012651324272156,37978.0,44990.0,39198.0,40366.0,0,0,0,0,40633.94140625,-1686.0,-3665.0,-1858.0
4.4,1.1177005767822266,-0.023809747770428658,0.6041408777236938,0.0,0.0,0.0,-0.9674533605575562,2.0149002075195312,-1.2621948719024658,0.023851467296481133,0.7165501713752747,0.6031083464622498,36728.0,45612.0,40432.0,39436.0,0,0,0,0,40316.3828125,-16.0,-1780.0,-1979.0
