time,x_kalman,y_kalman,z_kalman,x_lh,y_lh,z_lh,roll,pitch,yaw,F,R,Z,B,C,X,S,T,Y,motor.m1,motor.m2,motor.m3,motor.m4,rpm.m1,rpm.m2,rpm.m3,rpm.m4,controller.cmd_thrust,controller.cmd_roll,controller.cmd_pitch,controller.cmd_yaw
0.0,3.661049049696885e-05,-0.0017104008002206683,0.0028427678626030684,0.0,0.0,0.0,-1.333753228187561,0.27511507272720337,0.009356105700135231,-0.007018555421382189,2.8570549488067627,0.0028427678626030684,-0.6619576215744019,0.1270422339439392,3.150652992189862e-05,-0.22050030529499054,0.4884996712207794,-0.00178476981818676,28316.0,30010.0,31422.0,29604.0,0,0,0,0,29838.572265625,833.0,-520.0,-20.0
0.02,0.0002652606344781816,-0.0010182703845202923,0.0028637791983783245,0.0,0.0,0.0,-1.3799389600753784,0.261652410030365,0.012148216366767883,-0.007017097901552916,2.8570556640625,0.0028637791983783245,-0.6617812514305115,0.1272185891866684,0.00026661547599360347,-0.21989573538303375,0.4891042709350586,-0.0010093213059008121,27551.0,30711.0,32147.0,28851.0,0,0,0,0,29815.0390625,1032.0,-1825.0,-2.0
0.042,0.0002895042998716235,-0.0009149213437922299,-0.0008547667530365288,0.0,0.0,0.0,-1.3815616369247437,0.26836225390434265,0.013151760213077068,-0.007450077682733536,2.8574838638305664,-0.001174606615677476,-0.6487106680870056,0.12928949296474457,0.0002839786757249385,-0.21391497552394867,0.45308539271354675,-0.0008433066541329026,28859.0,28105.0,31353.0,32007.0,0,0,0,0,30081.505859375,1473.0,-1434.0,143.0
0.06,3.6429119063541293e-06,-0.0007997323991730809,0.0011009485460817814,0.0,0.0,0.0,-1.3539540767669678,0.2982659637928009,0.015417858958244324,-0.007540463469922543,2.857581615447998,0.0011204276233911514,-0.648924708366394,0.12907546758651733,-6.850503268651664e-06,-0.21482974290847778,0.45217064023017883,-0.0018224959494546056,28999.0,28609.0,30957.0,31859.0,0,0,0,0,30106.291015625,1351.0,173.0,-247.0
0.08,-2.8455062420107424e-05,-0.0010999366641044617,0.0009947421494871378,0.0,0.0,0.0,-1.3114924430847168,0.3098681569099426,0.01949129067361355,-0.007538322359323502,2.8575828075408936,0.0010121538070961833,-0.6490694284439087,0.12893076241016388,-0.0002910344337578863,-0.21491988003253937,0.45208048820495605,-0.0018403588328510523,27648.0,27398.0,31982.0,33408.0,0,0,0,0,30109.330078125,4027.0,4327.0,-835.0
0.105,-1.7283182387473062e-06,-0.0019510169513523579,-0.0008077656966634095,0.0,0.0,0.0,-1.243915319442749,0.3135037124156952,0.0018409937620162964,-0.007707242388278246,2.8577651977539062,-0.0010120067745447159,-0.6460017561912537,0.1289982795715332,-5.7408775319345295e-05,-0.21295103430747986,0.5120489597320557,-0.0018352026818320155,30834.0,35286.0,33320.0,31124.0,0,0,0,0,32641.88671875,4759.0,-1379.0,-741.0
0.12,-0.0001197015808429569,-0.00166297797113657,0.0007575984345749021,0.0,0.0,0.0,-1.2535165548324585,0.31214162707328796,-0.05319506302475929,-0.007785664405673742,2.8578362464904785,0.000735140813048929,-0.6462119817733765,0.128788024187088,-0.00042013818165287375,-0.21203269064426422,0.5129672884941101,-0.0004553388571366668,28687.0,33765.0,35617.0,32651.0,0,0,0,0,32680.62109375,2321.0,-463.0,-437.0
0.14,-0.00040452496614307165,0.0002742762444540858,0.0006342856213450432,0.0,0.0,0.0,-1.3186753988265991,0.3564842939376831,-0.17234955728054047,-0.0077855344861745834,2.8578362464904785,0.0006535851280204952,-0.6465640664100647,0.12843595445156097,-0.0010759772267192602,-0.21204330027103424,0.5129566192626953,-2.7754867915064096e-06,30380.0,31696.0,34724.0,34172.0,0,0,0,0,32743.41796875,180.0,-2164.0,-204.0
0.16,-0.0008268026867881417,0.00019701782730408013,0.0005713871214538813,0.0,0.0,0.0,-1.2892258167266846,0.36396029591560364,-0.2326449304819107,-0.007780524902045727,2.8578388690948486,0.0005937201785854995,-0.6549287438392639,0.12907123565673828,-0.000928764755371958,-0.20720191299915314,0.5247980952262878,-0.00020184990717098117,32132.0,31238.0,32850.0,35660.0,0,0,0,0,32970.78515625,-349.0,-4735.0,-435.0
0.18,-0.0010367699433118105,6.289352313615382e-05,-0.0008389411959797144,0.0,0.0,0.0,-1.2504143714904785,0.37547680735588074,-0.24852332472801208,-0.008133752271533012,2.8581924438476562,-0.0008315852610394359,-0.6547537446022034,0.12924617528915405,-0.0009499210864305496,-0.20731063187122345,0.5246893763542175,0.00022472147247754037,33127.0,35435.0,31437.0,31425.0,0,0,0,0,32856.01953125,-6024.0,-1252.0,-592.0
0.2,-0.0012246842961758375,0.0004922624211758375,-0.0009693201864138246,0.0,0.0,0.0,-1.1113659143447876,0.36317458748817444,-0.2947109341621399,-0.008127543143928051,2.8581960201263428,-0.0009283926920033991,-0.6547804474830627,0.1292194128036499,-0.0012040813453495502,-0.20798073709011078,0.5240193009376526,-4.017111496068537e-05,32687.0,41101.0,36165.0,30923.0,0,0,0,0,35219.796875,-1151.0,-2676.0,-788.0
0.22,-0.0011810692958533764,0.0010672147618606687,-0.0009272915776818991,0.0,0.0,0.0,-0.6999702453613281,0.32794561982154846,-0.3586342930793762,-0.008133209310472012,2.8581929206848145,-0.0009406075696460903,-0.6546260714530945,0.12937378883361816,-0.0012153558200225234,-0.207128643989563,0.5248714089393616,0.001821116078644991,34108.0,39912.0,34676.0,31884.0,0,0,0,0,35145.1640625,-2502.0,-7674.0,-739.0
0.24,-0.0003830046334769577,0.0012151125119999051,-0.0007103126845322549,0.0,0.0,0.0,-0.18422354757785797,0.40243810415267944,-0.4391823410987854,-0.00852818600833416,2.85860276222229,-0.0007132752216421068,-0.643437922000885,0.12956222891807556,-0.000576875580009073,-0.20500613749027252,0.548993706703186,0.0016570461448282003,35344.0,38090.0,32630.0,32868.0,0,0,0,0,34733.52734375,-3316.0,585.0,-722.0
0.26,-0.0011426585260778666,0.000679123739246279,-0.00020232205861248076,0.0,0.0,0.0,0.36004137992858887,0.7056522965431213,-0.508988618850708,-0.008521306328475475,2.858607053756714,-0.000215691834455356,-0.6442556977272034,0.1287444680929184,-0.0018227621912956238,-0.206817626953125,0.5471822023391724,-4.64224285678938e-05,34075.0,34523.0,31299.0,34275.0,0,0,0,0,33543.37109375,995.0,890.0,-803.0
0.28,-0.0019466076046228409,-0.001965551171451807,0.004601436201483011,0.0,0.0,0.0,0.9971427917480469,0.8107402324676514,-0.568337619304657,-0.008677946403622627,2.8586833477020264,0.004319067113101482,-0.6471861004829407,0.12581411004066467,-0.006634685210883617,-0.2106325477361679,0.5433672070503235,-0.005509535316377878,30488.0,33132.0,35052.0,35372.0,0,0,0,0,33511.8359375,3994.0,-1986.0,-732.0
0.301,-0.004950154107064009,-0.0070996154099702835,0.0037423628382384777,0.0,0.0,0.0,1.425034523010254,0.7084490060806274,-0.642691969871521,-0.008963378146290779,2.8589844703674316,0.0037423628382384777,-0.6465321183204651,0.12846791744232178,-0.004950154107064009,-0.1907227635383606,2.8012776374816895,-0.0070996154099702835,33919.0,38617.0,37025.0,34915.0,0,0,0,0,36119.1171875,229.0,-4723.0,-691.0
0.32,-0.0047197300009429455,-0.007642891723662615,0.002016274491325021,0.0,0.0,0.0,1.2918654680252075,0.5821289420127869,-0.6642187833786011,-0.00899469293653965,2.85884428024292,0.002175423316657543,-0.6462651491165161,0.12873487174510956,-0.0053547886200249195,-0.19457581639289856,2.797424793243408,-0.012625967152416706,35184.0,39056.0,36230.0,35514.0,0,0,0,0,36496.75,-2277.0,-2775.0,-834.0
0.34,-0.005399356130510569,-0.012545598670840263,0.0029617182444781065,0.0,0.0,0.0,1.1515785455703735,0.5205230712890625,-0.6974284052848816,-0.008926942944526672,2.8588807582855225,0.0038080564700067043,-0.6465104818344116,0.12848952412605286,-0.006453067529946566,-0.19323228299617767,2.7987685203552246,-0.01213839091360569,33777.0,39033.0,36701.0,35201.0,0,0,0,0,36178.1484375,-900.0,-3824.0,-2134.0
0.362,-0.004678055644035339,-0.016559338197112083,0.004003087989985943,0.0,0.0,0.0,0.8234903812408447,0.437910258769989,-0.7881768345832825,-0.009135209955275059,2.8590176105499268,0.004003087989985943,-0.6763179302215576,0.1486816257238388,-0.004678055644035339,-0.23130172491073608,2.81569766998291,-0.016559338197112083,37264.0,38618.0,33834.0,35748.0,0,0,0,0,36366.18359375,-4500.0,-3519.0,-1294.0
0.38,-0.005359559319913387,-0.017159277573227882,-0.001322255120612681,0.0,0.0,0.0,0.6863019466400146,0.4763062000274658,-0.8180751800537109,-0.009034695103764534,2.858788251876831,-0.0016768742352724075,-0.6766014695167542,0.14839814603328705,-0.0055664414539933205,-0.23331497609615326,2.8136844635009766,-0.02088874578475952,36602.0,42062.0,36210.0,34926.0,0,0,0,0,37450.03125,-3395.0,-961.0,-1730.0
0.4,-0.00684962747618556,-0.022720007225871086,-0.0010163600090891123,0.0,0.0,0.0,0.7654857635498047,0.4621945023536682,-0.8558309674263,-0.009055820293724537,2.858776807785034,-0.0009550109971314669,-0.677272617816925,0.14772699773311615,-0.007172531448304653,-0.23366791009902954,2.8133316040039062,-0.023568088188767433,36069.0,41539.0,40305.0,39135.0,0,0,0,0,39262.5546875,916.0,-3320.0,-1075.0
0.425,-0.008367069996893406,-0.026427436619997025,0.000225655225221999,0.0,0.0,0.0,0.8075839281082153,0.3949319124221802,-0.9169448614120483,-0.009079867042601109,2.8587186336517334,0.0013580743689090014,-0.6903669834136963,0.17263269424438477,-0.008954538032412529,-0.31742745637893677,2.80857253074646,-0.028089556843042374,36371.0,41679.0,40221.0,40169.0,0,0,0,0,39610.30078125,526.0,-526.0,-1308.0
0.44,-0.010379238985478878,-0.030891666188836098,-0.002711118198931217,0.0,0.0,0.0,0.5118668675422668,0.47216397523880005,-0.9899379014968872,-0.008960715495049953,2.858550548553467,-0.002514611929655075,-0.6907258033752441,0.1722738891839981,-0.01034761592745781,-0.31808334589004517,2.8079168796539307,-0.031528908759355545,36517.0,41685.0,38521.0,38949.0,0,0,0,0,38918.91796875,255.0,-3081.0,-1468.0
0.46,-0.014158031903207302,-0.03368574008345604,-0.0010065435199066997,0.0,0.0,0.0,-0.2349441647529602,0.5289145708084106,-1.0622568130493164,-0.008924921043217182,2.8585715293884277,-0.0004223539144732058,-0.6923932433128357,0.17060646414756775,-0.013824052177369595,-0.3173365592956543,2.8086636066436768,-0.03313745930790901,36999.0,39475.0,35611.0,39323.0,0,0,0,0,37874.05859375,-2330.0,-642.0,-1504.0
0.48,-0.011947358027100563,-0.03440991789102554,0.0025315843522548676,0.0,0.0,0.0,-1.1050200462341309,0.16812056303024292,-1.1895076036453247,-0.008863652125000954,2.8586061000823975,0.002732469467446208,-0.6840805411338806,0.2079191505908966,-0.010080520994961262,-0.45216822624206543,2.778832197189331,-0.032168198376894,36844.0,39948.0,35330.0,38814.0,0,0,0,0,37734.0625,340.0,364.0,-1645.0
0.5,-0.010402251034975052,-0.030397458001971245,0.002216730732470751,0.0,0.0,0.0,-2.0510590076446533,-0.20176836848258972,-1.3029602766036987,-0.008895644918084145,2.858767032623291,0.002216730732470751,-0.684059202671051,0.20794053375720978,-0.010741377249360085,-0.4496241807937622,2.781376361846924,-0.03112865425646305,37752.0,40474.0,37988.0,41562.0,0,0,0,0,39444.359375,-80.0,-1236.0,-1579.0
0.52,-0.011230984702706337,-0.028120392933487892,0.005714267957955599,0.0,0.0,0.0,-2.6285722255706787,-0.48606762290000916,-1.4119415283203125,-0.008926521055400372,2.858748435974121,0.005714267957955599,-0.6841827630996704,0.2078169584274292,-0.01156562753021717,-0.44669628143310547,2.784304141998291,-0.028490057215094566,36983.0,42073.0,37081.0,38647.0,0,0,0,0,38696.12109375,-2003.0,-3507.0,-1663.0
0.54,-0.013515740633010864,-0.029872309416532516,0.009869607165455818,0.0,0.0,0.0,-2.7908804416656494,-0.6598113179206848,-1.497387409210205,-0.00889663863927126,2.858766555786133,0.00988446082919836,-0.6854248046875,0.206574946641922,-0.014126508496701717,-0.4478324055671692,2.783167839050293,-0.03078765794634819,34874.0,42444.0,36596.0,35546.0,0,0,0,0,37365.72265625,-2896.0,-4023.0,-1641.0
0.56,-0.016525570303201675,-0.030692262575030327,0.019785085693001747,0.0,0.0,0.0,-2.796276807785034,-0.6320013403892517,-1.575617790222168,-0.008867151103913784,2.8586974143981934,0.019751979038119316,-0.6412187218666077,0.27578169107437134,-0.01739201880991459,-3.1540751457214355,2.7689249515533447,-0.030549481511116028,34766.0,39778.0,34118.0,35410.0,0,0,0,0,36018.51953125,-2536.0,-2265.0,-1626.0
0.58,-0.017391560599207878,-0.03535819053649902,0.025890162214636803,0.0,0.0,0.0,-2.4254002571105957,-0.6092603802680969,-1.6279585361480713,-0.00876142643392086,2.8587634563446045,0.025890162214636803,-0.6407924294471741,0.2762080729007721,-0.01787765696644783,-3.1578218936920166,2.7651782035827637,-0.03576429560780525,32710.0,36008.0,30978.0,34588.0,0,0,0,0,33571.9375,-2030.0,17.0,-1767.0
0.6,-0.021579522639513016,-0.03642219677567482,0.041114069521427155,0.0,0.0,0.0,-2.290961742401123,-0.5218676924705505,-1.6960090398788452,-0.008970826864242554,2.858955144882202,0.04117400571703911,-0.6426063179969788,0.2743941843509674,-0.02156987600028515,-3.1578166484832764,2.765183448791504,-0.0363207571208477,32907.0,39695.0,32781.0,37897.0,0,0,0,0,35820.34375,-963.0,-837.0,-2976.0
0.622,-0.019571496173739433,-0.03910289332270622,0.04923423007130623,0.0,0.0,0.0,-2.1128721237182617,-1.045418381690979,-1.7844127416610718,-0.009158165194094181,2.8592162132263184,0.04923423007130623,-0.6048950552940369,0.3861052691936493,-0.019571496173739433,-3.2044615745544434,2.8045380115509033,-0.03910289332270622,33131.0,38845.0,34663.0,36169.0,0,0,0,0,35702.3984375,100.0,-1466.0,-2552.0
0.64,-0.02028072066605091,-0.03958303481340408,0.06202215328812599,0.0,0.0,0.0,-2.1252822875976562,-1.167497992515564,-1.8200562000274658,-0.009433940052986145,2.859459400177002,0.06207490339875221,-0.6043486595153809,0.3866516053676605,-0.0196247398853302,-3.203357219696045,2.8056423664093018,-0.03832313045859337,31746.0,37014.0,31494.0,33762.0,0,0,0,0,33504.1484375,-893.0,-1993.0,-2580.0
0.66,-0.018526768311858177,-0.04221988841891289,0.07074666768312454,0.0,0.0,0.0,-2.105167865753174,-1.4938104152679443,-1.866987705230713,-0.009386065416038036,2.859489917755127,0.07074666768312454,-0.6033455729484558,0.38765472173690796,-0.018707575276494026,-3.2060341835021973,2.8029654026031494,-0.04261138662695885,30063.0,37109.0,32703.0,33413.0,0,0,0,0,33322.73828125,114.0,-2437.0,-2768.0
0.684,-0.017223648726940155,-0.04219755530357361,0.07581878453493118,0.0,0.0,0.0,-2.2740631103515625,-1.637226939201355,-1.9347145557403564,-0.009769330732524395,2.859830141067505,0.08061659336090088,-0.5512236952781677,0.5677763819694519,-0.017246324568986893,-3.218197822570801,2.8218023777008057,-0.042520951479673386,30925.0,37049.0,33255.0,34943.0,0,0,0,0,34043.16796875,-663.0,-2775.0,-1953.0
0.7,-0.01604907214641571,-0.04152289777994156,0.0877661257982254,0.0,0.0,0.0,-2.514277935028076,-1.6282974481582642,-2.001265525817871,-0.009897741489112377,2.85990309715271,0.0877661257982254,-0.5502049922943115,0.5687950849533081,-0.0159287191927433,-3.217136859893799,2.8228633403778076,-0.04163380339741707,33124.0,38728.0,34974.0,37274.0,0,0,0,0,36025.82421875,-599.0,-1441.0,-1968.0
0.72,-0.015913140028715134,-0.04073663800954819,0.09576130658388138,0.0,0.0,0.0,-2.710145950317383,-1.5019365549087524,-2.0508995056152344,-0.009901180863380432,2.859901189804077,0.09573537111282349,-0.5489417910575867,0.570058286190033,-0.013792349025607109,-3.2181525230407715,2.821847677230835,-0.043206553906202316,34845.0,39015.0,33403.0,37573.0,0,0,0,0,36209.01953125,-1443.0,0.0,-2085.0
0.745,-0.012748554348945618,-0.04189254716038704,0.0982494056224823,0.0,0.0,0.0,-2.708223819732666,-1.528141975402832,-2.080970048904419,-0.010412028059363365,2.8603434562683105,0.10197004675865173,-0.530748724937439,0.8062515258789062,-0.012323124334216118,-3.249892473220825,2.8391072750091553,-0.041846226900815964,34023.0,39045.0,34483.0,36941.0,0,0,0,0,36123.734375,-1893.0,-1737.0,-1871.0
0.76,-0.011787076480686665,-0.04161037504673004,0.1115594431757927,0.0,0.0,0.0,-2.6260581016540527,-1.3911110162734985,-2.127300977706909,-0.01065073162317276,2.860513925552368,0.11145725101232529,-0.5297132134437561,0.8072870373725891,-0.010197351686656475,-3.249103307723999,2.8398964405059814,-0.04068003222346306,34380.0,38476.0,34078.0,37678.0,0,0,0,0,36153.01171875,-449.0,249.0,-1945.0
0.78,-0.009772851131856441,-0.04020208865404129,0.11862853914499283,0.0,0.0,0.0,-2.550445556640625,-1.2675156593322754,-2.1474931240081787,-0.010678709484636784,2.8604960441589355,0.1185518205165863,-0.5294478535652161,0.8075523972511292,-0.00871185027062893,-3.248462677001953,2.8405370712280273,-0.039288148283958435,33595.0,39671.0,34617.0,36709.0,0,0,0,0,36148.84375,75.0,-2655.0,-2368.0
0.8,-0.008531730622053146,-0.03902282565832138,0.12557660043239594,0.0,0.0,0.0,-2.4272077083587646,-1.0415276288986206,-2.175281047821045,-0.010694623924791813,2.860485792160034,0.12546655535697937,-0.5218650698661804,1.0941349267959595,-0.00715189054608345,-3.2327260971069336,2.821274757385254,-0.038267526775598526,35845.0,42401.0,38531.0,39875.0,0,0,0,0,39163.80859375,503.0,-2299.0,-1959.0
0.82,-0.006512205116450787,-0.037673816084861755,0.13002541661262512,0.0,0.0,0.0,-2.2570607662200928,-0.7571908235549927,-2.204216957092285,-0.011147193610668182,2.860926866531372,0.13000647723674774,-0.5219508409500122,1.0940489768981934,-0.005910599138587713,-3.23226261138916,2.8217382431030273,-0.03676358982920647,37092.0,43006.0,37098.0,39268.0,0,0,0,0,39116.35546875,-1317.0,-2021.0,-2015.0
0.84,-0.0046682520769536495,-0.03608185052871704,0.13632352650165558,0.0,0.0,0.0,-2.110069990158081,-0.4866952896118164,-2.220644474029541,-0.01117774099111557,2.8609073162078857,0.13626602292060852,-0.5212794542312622,1.0947202444076538,-0.003603119170293212,-3.231809139251709,2.8221917152404785,-0.034982580691576004,36426.0,43164.0,36988.0,38750.0,0,0,0,0,38832.8828125,-493.0,-1636.0,-2133.0
0.86,-0.003001823555678129,-0.034770261496305466,0.14267633855342865,0.0,0.0,0.0,-1.8549119234085083,-0.2225632518529892,-2.2421069145202637,-0.011189584620296955,2.8608994483947754,0.1425793319940567,-0.5212749242782593,1.0947247743606567,-0.002069591311737895,-3.2314467430114746,2.822554111480713,-0.03304029628634453,36324.0,42212.0,37440.0,39900.0,0,0,0,0,38969.73046875,-1376.0,-2140.0,-2028.0
0.88,-0.001762667205184698,-0.03270750492811203,0.14631421864032745,0.0,0.0,0.0,-1.6281275749206543,0.02201293222606182,-2.281022548675537,-0.011455967091023922,2.8611629009246826,0.14865411818027496,-0.5168054699897766,2.1041946411132812,-0.00022585736587643623,-3.23315691947937,2.8498430252075195,-0.03160564973950386,34714.0,42496.0,37058.0,37880.0,0,0,0,0,38037.265625,-566.0,-2043.0,-2232.0
0.9,3.0106573831290007e-05,-0.030409423634409904,0.15531961619853973,0.0,0.0,0.0,-1.4070204496383667,0.2533973455429077,-2.3070003986358643,-0.011475836858153343,2.861150026321411,0.15525293350219727,-0.516806960105896,2.1041929721832275,0.001355511136353016,-3.2322757244110107,2.850724220275879,-0.0288169514387846,37243.0,44125.0,38403.0,40677.0,0,0,0,0,40112.0546875,-2003.0,-1218.0,-2323.0
0.92,0.0017837407067418098,-0.028044911101460457,0.1621459573507309,0.0,0.0,0.0,-1.1623456478118896,0.5409190654754639,-2.3464927673339844,-0.011473757214844227,2.8611514568328857,0.16212551295757294,-0.5167935490608215,2.1042063236236572,0.0029409511480480433,-3.2323553562164307,2.850644588470459,-0.027040956541895866,36392.0,45302.0,38080.0,40082.0,0,0,0,0,39964.98828125,-2183.0,-2658.0,-2292.0
0.94,0.00480933440849185,-0.025381874293088913,0.1705116629600525,0.0,0.0,0.0,-0.9006034135818481,0.68716961145401,-2.3898420333862305,-0.011855053715407848,2.8615031242370605,0.1705116629600525,-0.5160959959030151,3.0499043464660645,0.00480933440849185,-3.2324812412261963,2.8425190448760986,-0.025381874293088913,35572.0,43500.0,37420.0,39856.0,0,0,0,0,39087.23046875,-1787.0,-3520.0,-2278.0
0.96,0.00640813447535038,-0.02291800081729889,0.17804266512393951,0.0,0.0,0.0,-0.5957715511322021,0.8898109793663025,-2.4262967109680176,-0.011859942227602005,2.861499786376953,0.17804266512393951,-0.5161067247390747,3.049893617630005,0.00640813447535038,-3.232140302658081,2.842859983444214,-0.02291800081729889,35785.0,42463.0,36285.0,39087.0,0,0,0,0,38405.99609375,-1657.0,-2165.0,-2364.0
0.98,0.006714995950460434,-0.022323712706565857,0.18198636174201965,0.0,0.0,0.0,-0.42700833082199097,1.0102814435958862,-2.4429681301116943,-0.011855063028633595,2.8615031242370605,0.18595638871192932,-0.5162690281867981,3.0497312545776367,0.0077407099306583405,-3.232337236404419,2.842663049697876,-0.021028397604823112,34681.0,41947.0,36081.0,38187.0,0,0,0,0,37724.6015625,-1181.0,-2581.0,-2343.0
1.003,0.00968033168464899,-0.018375732004642487,0.19353052973747253,0.0,0.0,0.0,0.0725502073764801,1.3278706073760986,-2.5182478427886963,-0.0120553532615304,2.861701011657715,0.19353052973747253,-0.5236387848854065,3.179361343383789,0.009496763348579407,-3.2343978881835938,2.847602367401123,-0.01869586668908596,38389.0,45285.0,38589.0,41565.0,0,0,0,0,40957.875,-2356.0,-73.0,-2469.0
1.02,0.01000908948481083,-0.018127692863345146,0.19293630123138428,0.0,0.0,0.0,0.22716428339481354,1.420446515083313,-2.538609027862549,-0.01191540714353323,2.861563205718994,0.19292007386684418,-0.5238603949546814,3.1791396141052246,0.010561100207269192,-3.2343475818634033,2.8476526737213135,-0.016502272337675095,37638.0,43742.0,38298.0,42050.0,0,0,0,0,40432.0234375,-2334.0,-2438.0,-2393.0
1.04,0.011389018036425114,-0.015930304303765297,0.20070435106754303,0.0,0.0,0.0,0.48438072204589844,1.545506477355957,-2.582252025604248,-0.011913759633898735,2.8615641593933105,0.20069943368434906,-0.5240756273269653,3.178924560546875,0.011465230025351048,-3.234471559524536,2.8475286960601807,-0.014546745456755161,36973.0,43111.0,37693.0,41203.0,0,0,0,0,39745.5390625,-928.0,-2483.0,-2420.0
1.061,0.01176771055907011,-0.01395423337817192,0.20878270268440247,0.0,0.0,0.0,0.7468530535697937,1.665448546409607,-2.618839979171753,-0.011970491148531437,2.8616292476654053,0.21265949308872223,-0.5275371670722961,3.2254624366760254,0.01293260883539915,-3.2232413291931152,2.8417587280273438,-0.012268629856407642,35287.0,43125.0,36313.0,38635.0,0,0,0,0,38340.25,-1953.0,-1299.0,-2539.0
1.08,0.01293260883539915,-0.012268629856407642,0.2203381508588791,0.0,0.0,0.0,0.9821544885635376,1.752744197845459,-2.6485986709594727,-0.012116413563489914,2.8617708683013916,0.2203245908021927,-0.5278423428535461,3.2251572608947754,0.013030008412897587,-3.2224643230438232,2.8425357341766357,-0.010449755005538464,33743.0,41779.0,36303.0,38347.0,0,0,0,0,37543.0390625,-1513.0,-2214.0,-2528.0
1.1,0.013370153494179249,-0.009763067588210106,0.22953905165195465,0.0,0.0,0.0,1.125383734703064,1.7893667221069336,-2.6835765838623047,-0.01211441308259964,2.861772298812866,0.2295425683259964,-0.5276197791099548,3.2253799438476562,0.014030639082193375,-3.222777843475342,2.842222213745117,-0.008896347135305405,32246.0,40302.0,35158.0,37074.0,0,0,0,0,36195.47265625,-1221.0,-2229.0,-2551.0
1.12,0.013786272145807743,-0.008445557206869125,0.24217984080314636,0.0,0.0,0.0,1.2724138498306274,1.7911723852157593,-2.7161502838134766,-0.012170011177659035,2.8618292808532715,0.2421819418668747,-0.5279992818832397,3.2250006198883057,0.01413773000240326,-3.223276376724243,2.841723680496216,-0.007748466916382313,31891.0,41047.0,34533.0,35845.0,0,0,0,0,35829.1328125,-862.0,-1794.0,-2632.0
1.14,0.013000533916056156,-0.007414241787046194,0.2518010437488556,0.0,0.0,0.0,1.443882942199707,1.821700096130371,-2.7456138134002686,-0.012322519905865192,2.861980676651001,0.251791775226593,-0.5261830687522888,3.258816719055176,0.014266404323279858,-3.217926025390625,2.846074342727661,-0.004992408212274313,32180.0,39246.0,32608.0,35806.0,0,0,0,0,34960.17578125,-312.0,-2530.0,-2606.0
1.16,0.014573908410966396,-0.004182680509984493,0.26392096281051636,0.0,0.0,0.0,1.5055122375488281,1.7635977268218994,-2.7741899490356445,-0.012369876727461815,2.8620293140411377,0.26392629742622375,-0.5259193778038025,3.259080648422241,0.014864121563732624,-3.2185280323028564,2.8454723358154297,-0.004071376286447048,31799.0,39119.0,32333.0,35229.0,0,0,0,0,34620.7265625,-914.0,-1455.0,-2554.0
1.18,0.015541446395218372,-0.0032468456774950027,0.2746957838535309,0.0,0.0,0.0,1.6169198751449585,1.6873849630355835,-2.799661159515381,-0.012368187308311462,2.862030506134033,0.2746957838535309,-0.5254864692687988,3.2595133781433105,0.01564202271401882,-3.218536615371704,2.845463752746582,-0.002513884101063013,31995.0,39403.0,32831.0,35727.0,0,0,0,0,34989.29296875,-1613.0,-2727.0,-2612.0
1.2,0.015760740265250206,-0.0018024982418864965,0.2820760905742645,0.0,0.0,0.0,1.6727137565612793,1.622136116027832,-2.8087317943573,-0.01258915290236473,2.862243175506592,0.28207534551620483,-0.5262507796287537,3.2927491664886475,0.014781077392399311,-3.2450027465820312,2.8499972820281982,-0.0016598920337855816,30567.0,41039.0,35103.0,34787.0,0,0,0,0,35374.03125,-1712.0,-6627.0,-2540.0
1.22,0.012318610213696957,-0.0018103023758158088,0.28948286175727844,0.0,0.0,0.0,1.770864486694336,1.6555182933807373,-2.817039728164673,-0.012551325373351574,2.862187623977661,0.2894856333732605,-0.5283077359199524,3.2906923294067383,0.012247486039996147,-3.2467029094696045,2.848297119140625,-0.002449979539960623,31418.0,40262.0,34346.0,35394.0,0,0,0,0,35355.76953125,-1686.0,-4652.0,-2431.0
1.24,0.008517444133758545,-0.003650600090622902,0.2984451651573181,0.0,0.0,0.0,1.8851933479309082,1.660645842552185,-2.8160581588745117,-0.012567001394927502,2.8621768951416016,0.2984451651573181,-0.531146764755249,3.287853240966797,0.008159230463206768,-3.2480592727661133,2.846940755844116,-0.003255666932091117,32796.0,38684.0,33124.0,36692.0,0,0,0,0,35324.19140625,-530.0,-643.0,-2329.0
1.26,0.008383959531784058,-0.002710814354941249,0.3076413869857788,0.0,0.0,0.0,1.8052148818969727,1.3287748098373413,-2.79392409324646,-0.012555521912872791,2.8621771335601807,0.30764809250831604,-0.525644063949585,3.293355941772461,0.008984469808638096,-3.2615246772766113,2.850475311279297,-0.002090965397655964,32357.0,37869.0,32467.0,36455.0,0,0,0,0,34787.5625,-988.0,767.0,-2397.0
1.28,0.007506351452320814,-0.001370040699839592,0.3188306391239166,0.0,0.0,0.0,1.6356090307235718,0.7186135053634644,-2.7444610595703125,-0.012627040036022663,2.862243890762329,0.3188306391239166,-0.5262899994850159,3.292710065841675,0.007506351452320814,-3.261510133743286,2.850489854812622,-0.001370040699839592,32266.0,38304.0,32584.0,36106.0,0,0,0,0,34815.5546875,-1271.0,-580.0,-2355.0
1.3,0.007721278350800276,-0.00043968489626422524,0.3272654116153717,0.0,0.0,0.0,1.4910457134246826,-0.010455525480210781,-2.7088916301727295,-0.012624550610780716,2.862245798110962,0.3272629678249359,-0.5259018540382385,3.293097972869873,0.0071171424351632595,-3.261259078979492,2.850740909576416,-0.00045987017801962793,31273.0,40365.0,33831.0,33979.0,0,0,0,0,34862.32421875,-1915.0,-4473.0,-2310.0
1.325,0.006381534039974213,2.2245803847908974e-06,0.3353797197341919,0.0,0.0,0.0,1.400683879852295,-0.6215603351593018,-2.672537088394165,-0.012770971283316612,2.8623948097229004,0.3341884911060333,-0.5181484222412109,3.2878518104553223,0.006851625628769398,-3.2415900230407715,2.8424105644226074,0.0004103480896446854,32951.0,37983.0,32899.0,36863.0,0,0,0,0,35174.48828125,-1121.0,-1916.0,-2232.0
1.34,0.0059285941533744335,0.0003887337225023657,0.34185171127319336,0.0,0.0,0.0,1.3248498439788818,-1.1204299926757812,-2.634990692138672,-0.012768415734171867,2.862396717071533,0.341854065656662,-0.5176743865013123,3.288325786590576,0.006581032648682594,-3.241262197494507,2.842738389968872,0.00122741237282753,32902.0,37834.0,33130.0,37254.0,0,0,0,0,35280.59765625,-459.0,-1391.0,-2321.0
1.36,0.006214612163603306,0.0016576825873926282,0.34918704628944397,0.0,0.0,0.0,1.197473406791687,-1.63633131980896,-2.5942060947418213,-0.012764845043420792,2.862399101257324,0.3491858243942261,-0.5166339874267578,3.2893662452697754,0.007102156523615122,-3.241227388381958,2.842773199081421,0.0016721088904887438,32844.0,37622.0,33380.0,37706.0,0,0,0,0,35388.109375,400.0,-1500.0,-2297.0
1.381,0.006623206194490194,0.00257985875941813,0.35619667172431946,0.0,0.0,0.0,1.054207444190979,-2.266376495361328,-2.5618507862091064,-0.012802042998373508,2.862442970275879,0.3590503931045532,-0.5165231227874756,3.2894771099090576,0.006731629371643066,-3.240734100341797,2.843266487121582,0.0026061953976750374,34785.0,38069.0,32285.0,35889.0,0,0,0,0,35257.90625,-1585.0,-634.0,-2149.0
1.4,0.006417424418032169,0.0027048455085605383,0.3640403747558594,0.0,0.0,0.0,0.938988447189331,-2.9231011867523193,-2.524583101272583,-0.013017058372497559,2.8626551628112793,0.3640403747558594,-0.5164181590080261,3.235582113265991,0.006417424418032169,-3.252424478530884,2.8405754566192627,0.0027048455085605383,31054.0,40840.0,35370.0,34232.0,0,0,0,0,35374.1796875,-914.0,-3407.0,-2167.0
1.42,0.006996845826506615,0.002974274568259716,0.3705638647079468,0.0,0.0,0.0,0.8541793823242188,-3.4773550033569336,-2.4777963161468506,-0.013015344738960266,2.862656354904175,0.3705593943595886,-0.5152775645256042,3.236722469329834,0.007489389274269342,-3.252791166305542,2.8402087688446045,0.0025039135944098234,33734.0,38010.0,32546.0,36878.0,0,0,0,0,35292.04296875,-838.0,-1250.0,-2198.0
1.44,0.007037677336484194,0.0027520081494003534,0.3778918385505676,0.0,0.0,0.0,0.7845732569694519,-3.8749232292175293,-2.433748960494995,-0.01303547341376543,2.8626773357391357,0.37788909673690796,-0.5153399705886841,3.2366600036621094,0.007513606920838356,-3.2525694370269775,2.840430498123169,0.0028812631499022245,34717.0,37987.0,33225.0,38135.0,0,0,0,0,36016.21484375,-955.0,192.0,-2048.0
1.46,0.008454385213553905,0.002664719009771943,0.38101065158843994,0.0,0.0,0.0,0.6878975629806519,-4.377554893493652,-2.395792007446289,-0.013293446972966194,2.8629343509674072,0.38101086020469666,-0.5207391977310181,3.2452609539031982,0.008474871516227722,-3.264162302017212,2.8438377380371094,0.0028624003753066063,34845.0,36615.0,32557.0,36775.0,0,0,0,0,35198.36328125,-2140.0,-319.0,-2029.0
1.48,0.009956634603440762,0.00270693632774055,0.39072662591934204,0.0,0.0,0.0,0.5849237442016602,-4.882943153381348,-2.3449313640594482,-0.013390136882662773,2.8630316257476807,0.39072662591934204,-0.5199803709983826,3.2460196018218994,0.009956634603440762,-3.2643046379089355,2.8436954021453857,0.00270693632774055,32845.0,38981.0,34563.0,34775.0,0,0,0,0,35291.73828125,-1880.0,-1258.0,-2079.0
1.5,0.011191995814442635,0.0022552304435521364,0.39641010761260986,0.0,0.0,0.0,0.5067901015281677,-5.3067498207092285,-2.2949674129486084,-0.013390690088272095,2.8630313873291016,0.39641010761260986,-0.5197769999504089,3.246222972869873,0.011191995814442635,-3.264638662338257,2.8433613777160645,0.0022552304435521364,32351.0,39525.0,35791.0,33805.0,0,0,0,0,35368.06640625,-1565.0,-4111.0,-1946.0
1.521,0.013040970079600811,0.0013064719969406724,0.39936450123786926,0.0,0.0,0.0,0.458315372467041,-5.577692031860352,-2.2434206008911133,-0.013646753504872322,2.863283157348633,0.39936450123786926,-0.5479852557182312,3.0150146484375,0.013040970079600811,-3.2705581188201904,2.833441734313965,0.0013064719969406724,32032.0,40374.0,35732.0,35274.0,0,0,0,0,35853.45703125,-189.0,-4059.0,-1947.0
1.54,0.013921436853706837,0.001175635028630495,0.40352943539619446,0.0,0.0,0.0,0.43738675117492676,-5.624594211578369,-2.217322826385498,-0.013689915649592876,2.863326072692871,0.40595412254333496,-0.5479511022567749,3.0150487422943115,0.0148524921387434,-3.270575523376465,2.8334243297576904,0.0010534952161833644,33729.0,38995.0,34193.0,36979.0,0,0,0,0,35974.91796875,-1165.0,-1159.0,-2007.0
1.56,0.016668884083628654,0.00125201977789402,0.4083085060119629,0.0,0.0,0.0,0.34580668807029724,-5.679316997528076,-2.16872239112854,-0.013687331229448318,2.863328218460083,0.41061684489250183,-0.5473536252975464,3.01564621925354,0.0176920834928751,-3.269381284713745,2.83461856842041,0.0021898651029914618,34492.0,39464.0,33730.0,36610.0,0,0,0,0,36074.6484375,-1106.0,-158.0,-1928.0
1.58,0.02070232667028904,0.0011421195231378078,0.41283750534057617,0.0,0.0,0.0,0.20627160370349884,-5.896327495574951,-2.1330363750457764,-0.013941148295998573,2.8635778427124023,0.41069909930229187,-0.5893151760101318,2.976685047149658,0.020684581249952316,-3.254523754119873,2.8384766578674316,0.001476505771279335,34765.0,38839.0,34345.0,37731.0,0,0,0,0,36420.796875,-2296.0,-1686.0,-1867.0
1.6,0.022203495725989342,0.0013185165589675307,0.4155801832675934,0.0,0.0,0.0,0.09027630090713501,-6.144581317901611,-2.08357572555542,-0.014016622677445412,2.8636534214019775,0.4176079034805298,-0.5892266035079956,2.976773738861084,0.023733116686344147,-3.254544496536255,2.83845591545105,0.0011758127948269248,32809.0,41385.0,36365.0,35473.0,0,0,0,0,36508.4765625,-752.0,-4545.0,-1902.0
1.62,0.028010617941617966,0.0019334867829456925,0.4195598065853119,0.0,0.0,0.0,0.02576594427227974,-6.326779365539551,-2.043935537338257,-0.014016020111739635,2.863654136657715,0.4214968979358673,-0.5868000388145447,2.9792003631591797,0.029819801449775696,-3.2537143230438232,2.8392860889434814,0.0018071127124130726,32808.0,39648.0,36652.0,37036.0,0,0,0,0,36536.1875,338.0,-5155.0,-1848.0
1.641,0.026473239064216614,0.0022971301805227995,0.42348116636276245,0.0,0.0,0.0,-0.022663094103336334,-6.183550834655762,-1.9956467151641846,-0.014012608677148819,2.8636562824249268,0.42535635828971863,-0.6418611407279968,2.820138931274414,0.03279203921556473,-3.2656402587890625,2.844360113143921,0.0001361080358037725,34438.0,39224.0,34418.0,37224.0,0,0,0,0,36326.31640625,-1353.0,-1450.0,-1909.0
1.66,0.03279203921556473,0.0001361080358037725,0.428673654794693,0.0,0.0,0.0,-0.08814539760351181,-6.097952365875244,-1.9360116720199585,-0.01444348506629467,2.864081621170044,0.4286919832229614,-0.6434300541877747,2.818570137023926,0.0332791730761528,-3.264582633972168,2.8454177379608154,0.0010877555469051003,37123.0,39907.0,31891.0,36363.0,0,0,0,0,36321.77734375,-4103.0,-789.0,-1866.0
1.68,0.033326655626297,-0.017157694324851036,0.43241754174232483,0.0,0.0,0.0,0.12401697784662247,-6.04635763168335,-1.8302302360534668,-0.014464971609413624,2.864065647125244,0.4324093461036682,-0.644662618637085,2.8173375129699707,0.036424700170755386,-3.2805368900299072,2.829463481903076,-0.01715434528887272,36061.0,39631.0,32801.0,36879.0,0,0,0,0,36343.69140625,-435.0,-2130.0,-1863.0
1.7,0.03811502456665039,-0.01711905002593994,0.4360267221927643,0.0,0.0,0.0,0.04495330899953842,-6.135332107543945,-1.8057725429534912,-0.014465093612670898,2.864065647125244,0.43599292635917664,-0.6445011496543884,2.8174989223480225,0.04151590168476105,-3.2791364192962646,2.8308639526367188,-0.016758758574724197,33301.0,40571.0,35653.0,36043.0,0,0,0,0,36392.81640625,153.0,-4816.0,-1953.0
1.72,0.04442469775676727,-0.017489107325673103,0.4395185708999634,0.0,0.0,0.0,-0.14605529606342316,-6.129733562469482,-1.7850266695022583,-0.01485016942024231,2.8644511699676514,0.4395008385181427,-0.7033240795135498,3.1456761360168457,0.04857867583632469,-3.2777023315429688,2.8242979049682617,-0.019067278131842613,31951.0,40199.0,37165.0,36441.0,0,0,0,0,36439.0078125,-264.0,-4726.0,-1926.0
1.74,0.050221845507621765,-0.01949984021484852,0.442844420671463,0.0,0.0,0.0,-0.48026207089424133,-6.002991676330566,-1.761745810508728,-0.014850215055048466,2.8644511699676514,0.4428201913833618,-0.7027363777160645,3.146263837814331,0.05502988025546074,-3.2773542404174805,2.82464599609375,-0.01991882175207138,33002.0,37566.0,34634.0,37742.0,0,0,0,0,35736.97265625,-704.0,-2368.0,-1899.0
1.76,0.05754062160849571,-0.0201716348528862,0.44947579503059387,0.0,0.0,0.0,-0.9115102291107178,-5.817439556121826,-1.747908115386963,-0.014909964054822922,2.8645095825195312,0.44945797324180603,-0.7017440795898438,3.1472558975219727,0.06247459724545479,-3.27699613571167,2.8250041007995605,-0.020697718486189842,34009.0,38077.0,34237.0,36649.0,0,0,0,0,35743.078125,-1015.0,-1546.0,-1927.0
1.781,0.06676927953958511,-0.02101939544081688,0.45109546184539795,0.0,0.0,0.0,-1.3394615650177002,-5.6848978996276855,-1.7317348718643188,-0.015159279108047485,2.864760637283325,0.45109546184539795,-0.7431830763816833,3.1598165035247803,0.06676927953958511,-3.2821927070617676,2.814807653427124,-0.02101939544081688,33869.0,39377.0,35559.0,36331.0,0,0,0,0,36284.8125,-1784.0,-2267.0,-1812.0
1.801,0.07101994752883911,-0.020974580198526382,0.45469945669174194,0.0,0.0,0.0,-1.459301233291626,-5.621405124664307,-1.7244176864624023,-0.015205138362944126,2.864805221557617,0.4563606381416321,-0.7424171566963196,3.1605823040008545,0.07456240803003311,-3.2816522121429443,2.8153481483459473,-0.02147001586854458,32112.0,41460.0,35814.0,34074.0,0,0,0,0,35865.4140625,-1888.0,-6221.0,-1883.0
1.821,0.07945625483989716,-0.021944668143987656,0.45797476172447205,0.0,0.0,0.0,-1.6303186416625977,-5.468732833862305,-1.6940022706985474,-0.015206538140773773,2.864804267883301,0.45956850051879883,-0.7412953972816467,3.1617040634155273,0.08321630954742432,-3.281653642654419,2.8153467178344727,-0.022394219413399696,32851.0,40155.0,35883.0,34791.0,0,0,0,0,35920.1875,-1167.0,-4198.0,-1553.0
1.843,0.09158384054899216,-0.022833440452814102,0.458746075630188,0.0,0.0,0.0,-1.818142056465149,-4.943253040313721,-1.6463559865951538,-0.015509986318647861,2.865108013153076,0.458746075630188,-0.7811360955238342,3.120863914489746,0.09158384054899216,-3.292370557785034,2.820629596710205,-0.022833440452814102,34465.0,39883.0,35837.0,37755.0,0,0,0,0,36985.84375,-660.0,-1421.0,-1449.0
1.86,0.09433073550462723,-0.022501040250062943,0.4593414068222046,0.0,0.0,0.0,-1.8858057260513306,-4.769097328186035,-1.630818247795105,-0.015496250241994858,2.8650941848754883,0.45931705832481384,-0.7798897624015808,3.12211012840271,0.1010625958442688,-3.291102886199951,2.821897268295288,-0.022146305069327354,34997.0,39807.0,35557.0,37935.0,0,0,0,0,37074.5078125,-868.0,-2219.0,-1450.0
1.88,0.10360948741436005,-0.021755248308181763,0.4616079330444336,0.0,0.0,0.0,-2.0265250205993652,-4.596643924713135,-1.6075950860977173,-0.015494177117943764,2.865095376968384,0.46160760521888733,-0.7813724875450134,3.1206271648406982,0.10789672285318375,-3.290919780731201,2.822080373764038,-0.022437261417508125,35638.0,40982.0,35146.0,36806.0,0,0,0,0,37143.97265625,-2335.0,-1842.0,-1751.0
1.905,0.11220132559537888,-0.022391855716705322,0.4616708755493164,0.0,0.0,0.0,-2.0707831382751465,-4.420454978942871,-1.5714224576950073,-0.01563924178481102,2.8652405738830566,0.46276095509529114,-0.7817987203598022,3.185201406478882,0.11749830842018127,-3.2943918704986572,2.8236083984375,-0.02257959544658661,32616.0,42672.0,37742.0,34866.0,0,0,0,0,36974.45703125,-287.0,-6697.0,-1781.0
1.92,0.11995329707860947,-0.022682730108499527,0.46674802899360657,0.0,0.0,0.0,-2.0413296222686768,-4.035893440246582,-1.520165205001831,-0.01570713333785534,2.8653087615966797,0.46673062443733215,-0.7825460433959961,3.1844539642333984,0.12669552862644196,-3.2945456504821777,2.8234546184539795,-0.02296360395848751,32995.0,41589.0,37209.0,35903.0,0,0,0,0,36924.828125,-1465.0,-4894.0,-1838.0
1.94,0.12980680167675018,-0.023096125572919846,0.4690011143684387,0.0,0.0,0.0,-1.998355746269226,-3.5854098796844482,-1.4822022914886475,-0.01570812799036503,2.8653082847595215,0.46897152066230774,-0.7818194031715393,3.1851806640625,0.13686338067054749,-3.2947843074798584,2.823215961456299,-0.023302748799324036,34223.0,40297.0,35863.0,36969.0,0,0,0,0,36838.54296875,-1148.0,-1374.0,-1776.0
1.96,0.14043904840946198,-0.023456621915102005,0.471133291721344,0.0,0.0,0.0,-1.9718050956726074,-3.2316107749938965,-1.4575631618499756,-0.015706930309534073,2.865309000015259,0.471133291721344,-0.7869788408279419,3.2600209712982178,0.14718540012836456,-3.2805395126342773,2.8134613037109375,-0.023457838222384453,35919.0,38495.0,33301.0,38017.0,0,0,0,0,36433.3515625,-1631.0,-2215.0,-1644.0
1.98,0.14718540012836456,-0.023457838222384453,0.47452715039253235,0.0,0.0,0.0,-1.9616402387619019,-3.0191218852996826,-1.4353275299072266,-0.015791134908795357,2.8653910160064697,0.47450655698776245,-0.7849247455596924,3.2620749473571777,0.15424875915050507,-3.2808749675750732,2.8131258487701416,-0.023722970858216286,33908.0,40410.0,34982.0,36048.0,0,0,0,0,36337.72265625,-1320.0,-2458.0,-1832.0
2.0,0.15555846691131592,-0.024007389321923256,0.47692033648490906,0.0,0.0,0.0,-1.8868266344070435,-2.8089380264282227,-1.4186009168624878,-0.015790216624736786,2.865391731262207,0.47688549757003784,-0.7857085466384888,3.261291027069092,0.16338519752025604,-3.2808806896209717,2.813120126724243,-0.02346622198820114,31311.0,42039.0,37551.0,34163.0,0,0,0,0,36266.3515625,-1071.0,-6874.0,-1569.0
2.02,0.16526921093463898,-0.022866135463118553,0.4792969822883606,0.0,0.0,0.0,-1.8113276958465576,-2.515634298324585,-1.4136245250701904,-0.01578872837126255,2.8653926849365234,0.47927531599998474,-0.7871859669685364,3.2598133087158203,0.17182298004627228,-3.2811226844787598,2.812878131866455,-0.023363817483186722,32593.0,40949.0,37991.0,34375.0,0,0,0,0,36477.84765625,-1026.0,-3808.0,-1718.0
2.04,0.177803173661232,-0.02363162487745285,0.480808287858963,0.0,0.0,0.0,-1.67037832736969,-2.0827560424804688,-1.3786365985870361,-0.015885554254055023,2.8654897212982178,0.480808287858963,-0.7888246178627014,3.279175281524658,0.1829458624124527,-3.2849197387695312,2.8090806007385254,-0.02337813191115856,34587.0,38405.0,34797.0,37963.0,0,0,0,0,36438.41015625,-1069.0,-333.0,-1798.0
2.06,0.18762962520122528,-0.02382534369826317,0.4829619526863098,0.0,0.0,0.0,-1.5683320760726929,-1.733317255973816,-1.3424476385116577,-0.015886694192886353,2.8654887676239014,0.48294150829315186,-0.787589967250824,3.280410051345825,0.18945330381393433,-3.2853214740753174,2.8086788654327393,-0.023530323058366776,35197.0,38511.0,33731.0,37489.0,0,0,0,0,36232.5078125,-1861.0,-483.0,-1751.0
2.08,0.1987592875957489,-0.023255160078406334,0.4860193431377411,0.0,0.0,0.0,-1.5108064413070679,-1.602212905883789,-1.3252489566802979,-0.0159002672880888,2.8655037879943848,0.4860193431377411,-0.7886618375778198,3.2793383598327637,0.1987592875957489,-3.285630702972412,2.8083696365356445,-0.023255160078406334,34233.0,39919.0,35105.0,35687.0,0,0,0,0,36236.86328125,-1681.0,-2552.0,-1567.0
2.102,0.2107820212841034,-0.02233061194419861,0.48919880390167236,0.0,0.0,0.0,-1.355941653251648,-1.4719258546829224,-1.3081656694412231,-0.015858856961131096,2.865463972091675,0.48919880390167236,-0.7921370267868042,3.3058629035949707,0.2107820212841034,-3.284888744354248,2.8011114597320557,-0.02233061194419861,31662.0,41862.0,36788.0,33300.0,0,0,0,0,35903.7421875,-1037.0,-6157.0,-1289.0
2.12,0.21410642564296722,-0.023015931248664856,0.491433322429657,0.0,0.0,0.0,-1.2637338638305664,-1.3564890623092651,-1.2931710481643677,-0.015881547704339027,2.8654870986938477,0.49142882227897644,-0.7933573722839355,3.30464243888855,0.2201169729232788,-3.286076784133911,2.7999234199523926,-0.022787082940340042,32000.0,40244.0,36168.0,35288.0,0,0,0,0,35925.70703125,-1262.0,-3230.0,-1602.0
2.14,0.22279570996761322,-0.023342039436101913,0.4936714768409729,0.0,0.0,0.0,-1.1030819416046143,-1.0444097518920898,-1.2591092586517334,-0.01588021218776703,2.865487813949585,0.49366626143455505,-0.7952407598495483,3.3027591705322266,0.22867491841316223,-3.2860519886016846,2.799948215484619,-0.021908802911639214,33553.0,38757.0,35185.0,36437.0,0,0,0,0,35983.8984375,-344.0,-1977.0,-1614.0
2.164,0.24069175124168396,-0.020365651696920395,0.49743738770484924,0.0,0.0,0.0,-1.0014805793762207,-0.6921114325523376,-1.2422302961349487,-0.015849696472287178,2.86545729637146,0.49743738770484924,-0.7867218255996704,3.299278497695923,0.24069175124168396,-3.295945167541504,2.8120548725128174,-0.020365651696920395,33905.0,38265.0,34403.0,37319.0,0,0,0,0,35973.6328125,-1011.0,-1080.0,-1831.0
2.18,0.24889560043811798,-0.01860739476978779,0.4984103739261627,0.0,0.0,0.0,-0.9973726868629456,-0.7034719586372375,-1.240866780281067,-0.01581977680325508,2.865428924560547,0.49702268838882446,-0.78752201795578,3.298478126525879,0.2505593001842499,-3.294588088989258,2.8134119510650635,-0.017895860597491264,34224.0,39106.0,34926.0,37148.0,0,0,0,0,36351.91015625,-2176.0,-2324.0,-1749.0
2.2,0.2597575783729553,-0.018464289605617523,0.49873581528663635,0.0,0.0,0.0,-0.9100224375724792,-0.6677335500717163,-1.2394604682922363,-0.01581871323287487,2.8654298782348633,0.4987806975841522,-0.7892285585403442,3.29677152633667,0.25938257575035095,-3.2937610149383545,2.814239025115967,-0.015827558934688568,31847.0,40973.0,37649.0,35395.0,0,0,0,0,36466.7734375,113.0,-5690.0,-1718.0
2.225,0.2653194069862366,-0.015975061804056168,0.5026721358299255,0.0,0.0,0.0,-0.7830522060394287,-0.49511754512786865,-1.2371020317077637,-0.015667354688048363,2.865278959274292,0.5036550164222717,-0.7866806983947754,3.2973194122314453,0.2712193727493286,-3.278975486755371,2.800025224685669,-0.015301337465643883,32555.0,40577.0,36133.0,35135.0,0,0,0,0,36100.234375,-984.0,-4330.0,-1795.0
2.241,0.27407822012901306,-0.015434562228620052,0.5013362169265747,0.0,0.0,0.0,-0.6032343506813049,-0.2641153335571289,-1.2261508703231812,-0.015598755329847336,2.8652122020721436,0.5013362169265747,-0.7890819311141968,3.2949180603027344,0.2794015109539032,-3.2796971797943115,2.7993035316467285,-0.014816312119364738,34150.0,40334.0,35818.0,37194.0,0,0,0,0,36874.45703125,-378.0,-1098.0,-1841.0
2.26,0.2832970917224884,-0.013811573386192322,0.5025650262832642,0.0,0.0,0.0,-0.4523153305053711,-0.06312666088342667,-1.2238550186157227,-0.015598306432366371,2.8652124404907227,0.5025650262832642,-0.7903928756713867,3.293606996536255,0.2885955274105072,-3.2793517112731934,2.7996490001678467,-0.013167832046747208,35642.0,38470.0,34562.0,39154.0,0,0,0,0,36957.14453125,-2540.0,-2420.0,-1842.0
2.28,0.295021653175354,-0.012758314609527588,0.5036719441413879,0.0,0.0,0.0,-0.32088127732276917,-0.05517297238111496,-1.2269563674926758,-0.015598263591527939,2.8652124404907227,0.5036888122558594,-0.7969321012496948,3.296067953109741,0.3024824857711792,-3.279881238937378,2.797118902206421,-0.011075051501393318,34252.0,40172.0,35582.0,36854.0,0,0,0,0,36715.41015625,-1275.0,-851.0,-1842.0
2.3,0.30239516496658325,-0.011087530292570591,0.505897045135498,0.0,0.0,0.0,-0.28298360109329224,-0.13519346714019775,-1.2296831607818604,-0.015422684140503407,2.8650379180908203,0.5064980983734131,-0.7990031838417053,3.293997049331665,0.3056618869304657,-3.281419038772583,2.795581102371216,-0.012008723802864552,32912.0,41706.0,36676.0,35742.0,0,0,0,0,36759.625,-802.0,-6080.0,-1933.0
2.32,0.31268516182899475,-0.00939621776342392,0.5076529383659363,0.0,0.0,0.0,-0.02477767877280712,-0.09310541301965714,-1.2320529222488403,-0.015422177501022816,2.8650381565093994,0.5076529383659363,-0.8022899627685547,3.290710210800171,0.31268516182899475,-3.28021502494812,2.7967851161956787,-0.00939621776342392,33151.0,40061.0,36323.0,37673.0,0,0,0,0,36802.60546875,-972.0,-4063.0,-2062.0
2.34,0.3209317922592163,-0.009096265770494938,0.5081709027290344,0.0,0.0,0.0,0.045296456664800644,-0.10590718686580658,-1.2367955446243286,-0.015422253869473934,2.8650381565093994,0.5087218284606934,-0.8019110560417175,3.2910890579223633,0.3235873878002167,-3.2814834117889404,2.7955167293548584,-0.009484544396400452,34438.0,39770.0,34338.0,37098.0,0,0,0,0,36411.78515625,28.0,-3939.0,-2476.0
2.361,0.3313145935535431,-0.008874368853867054,0.5113223791122437,0.0,0.0,0.0,0.14209747314453125,-0.033653032034635544,-1.2642608880996704,-0.015229981392621994,2.8648464679718018,0.5081833004951477,-0.8057485222816467,3.316251516342163,0.3334844708442688,-3.3088366985321045,2.7781636714935303,-0.00921291671693325,35393.0,39997.0,34725.0,38841.0,0,0,0,0,37239.2109375,-900.0,-367.0,-2011.0
2.38,0.34318751096725464,-0.007730732671916485,0.508927047252655,0.0,0.0,0.0,0.22978968918323517,-0.16397538781166077,-1.3058749437332153,-0.01522995624691248,2.8648464679718018,0.508927047252655,-0.8064659833908081,3.3155341148376465,0.34318751096725464,-3.3086071014404297,2.778393268585205,-0.007730732671916485,35110.0,40048.0,35450.0,38604.0,0,0,0,0,37303.89453125,-1275.0,-1524.0,-2013.0
2.4,0.34815874695777893,-0.006048985756933689,0.509276807308197,0.0,0.0,0.0,0.24664118885993958,-0.24517560005187988,-1.313044548034668,-0.015230034478008747,2.8648464679718018,0.5096362829208374,-0.809161901473999,3.312838077545166,0.35063862800598145,-3.308713436126709,2.778286933898926,-0.006617009174078703,32849.0,42333.0,37655.0,36595.0,0,0,0,0,37358.78515625,457.0,-5427.0,-2343.0
2.421,0.3616478145122528,-0.005313275847584009,0.5098371505737305,0.0,0.0,0.0,0.4200456738471985,-0.3781121075153351,-1.341895341873169,-0.015057852491736412,2.864675283432007,0.5098371505737305,-0.8315538763999939,3.2834460735321045,0.3616478145122528,-3.290149450302124,2.783851146697998,-0.005313275847584009,33704.0,41676.0,37112.0,37548.0,0,0,0,0,37510.46484375,402.0,-5622.0,-2232.0
2.441,0.36684590578079224,-0.004689943045377731,0.5101023316383362,0.0,0.0,0.0,0.44981276988983154,-0.36649760603904724,-1.3513721227645874,-0.015057840384542942,2.864675283432007,0.5103688836097717,-0.8315090537071228,3.2834908962249756,0.37200403213500977,-3.290116548538208,2.783884048461914,-0.004108106717467308,34981.0,40437.0,35691.0,38851.0,0,0,0,0,37490.77734375,-337.0,-1300.0,-2378.0
2.461,0.3736504018306732,-0.002846160437911749,0.5106671452522278,0.0,0.0,0.0,0.5071048140525818,-0.32066860795021057,-1.3659539222717285,-0.015058170072734356,2.8646748065948486,0.5109405517578125,-0.8347207903862,3.2802791595458984,0.3787478506565094,-3.289487600326538,2.784512996673584,-0.002267207019031048,36916.0,40912.0,34886.0,38634.0,0,0,0,0,37837.1171875,-2155.0,-124.0,-1936.0
2.485,0.38558968901634216,-0.002569535281509161,0.5128133296966553,0.0,0.0,0.0,0.5377469658851624,-0.48875561356544495,-1.387526512145996,-0.014732986688613892,2.8643507957458496,0.5133475661277771,-0.833410382270813,3.27059006690979,0.3927935063838959,-3.294569730758667,2.780430555343628,-0.0018118807347491384,35767.0,40079.0,34609.0,37737.0,0,0,0,0,37048.16796875,-1725.0,-1840.0,-1890.0
2.5,0.4006178379058838,-0.0025181653909385204,0.5137313604354858,0.0,0.0,0.0,0.6396791934967041,-0.8171283006668091,-1.3868321180343628,-0.014733368530869484,2.8643505573272705,0.5137653350830078,-0.8354131579399109,3.268587350845337,0.40097272396087646,-3.2956838607788086,2.7793164253234863,-0.0019587757997214794,31816.0,43180.0,38228.0,34420.0,0,0,0,0,36911.79296875,-861.0,-6635.0,-1896.0
2.521,0.407820463180542,-0.0017021920066326857,0.5146176218986511,0.0,0.0,0.0,0.7720949649810791,-0.8623908758163452,-1.3609360456466675,-0.014718828722834587,2.864335298538208,0.5135930776596069,-0.837490975856781,3.266509532928467,0.40894606709480286,-3.2950563430786133,2.7799439430236816,-0.0003059025330003351,33282.0,42888.0,36944.0,35006.0,0,0,0,0,37030.87109375,-649.0,-3438.0,-1984.0
2.54,0.4131406247615814,-0.001089056022465229,0.5144036412239075,0.0,0.0,0.0,0.9095022678375244,-0.6090865135192871,-1.3410946130752563,-0.014719173312187195,2.8643345832824707,0.5144087076187134,-0.8673495650291443,3.2836501598358154,0.4187743365764618,-3.289752960205078,2.775247573852539,-0.00023298250744119287,34021.0,39841.0,34981.0,37261.0,0,0,0,0,36526.09375,-1349.0,-2554.0,-2056.0
2.56,0.4198295474052429,0.0002850908786058426,0.5170987248420715,0.0,0.0,0.0,0.9250662326812744,-0.5053744912147522,-1.3366814851760864,-0.014555494301021099,2.8641715049743652,0.5176928043365479,-0.8683035373687744,3.282696008682251,0.422890841960907,-3.2895309925079346,2.7754695415496826,0.00041516069904901087,34134.0,40828.0,35380.0,36826.0,0,0,0,0,36792.4375,-1454.0,-1595.0,-1998.0
2.58,0.43312346935272217,0.0013747273478657007,0.5169469714164734,0.0,0.0,0.0,0.8976925611495972,-0.5950673818588257,-1.3403400182724,-0.014524061232805252,2.864140510559082,0.5169469714164734,-0.8682833909988403,3.2827162742614746,0.43312346935272217,-3.289376974105835,2.7756235599517822,0.0013747273478657007,34916.0,41842.0,34532.0,35630.0,0,0,0,0,36712.66796875,-1446.0,-381.0,-2023.0
2.6,0.43840205669403076,0.0010684500448405743,0.5174425840377808,0.0,0.0,0.0,0.911085844039917,-0.7020865678787231,-1.3370658159255981,-0.014524699188768864,2.864140033721924,0.5179567933082581,-0.8827456831932068,3.2942543029785156,0.45096737146377563,-3.307715654373169,2.7742841243743896,0.0027989516966044903,32301.0,41707.0,35831.0,34617.0,0,0,0,0,36114.66796875,-736.0,-5553.0,-2040.0
2.62,0.45096737146377563,0.0027989516966044903,0.5214852690696716,0.0,0.0,0.0,0.9595542550086975,-0.8782625794410706,-1.3236364126205444,-0.014356657862663269,2.8639726638793945,0.5215077996253967,-0.8859079480171204,3.2910919189453125,0.4528021812438965,-3.308349609375,2.7736501693725586,0.002457147929817438,33580.0,41482.0,36142.0,36104.0,0,0,0,0,36827.74609375,-170.0,-2951.0,-1866.0
2.64,0.45813557505607605,0.002166183665394783,0.5191990733146667,0.0,0.0,0.0,1.0050384998321533,-0.8798023462295532,-1.3260321617126465,-0.01429739873856306,2.863912582397461,0.519205629825592,-0.8868609666824341,3.2901387214660645,0.4619884192943573,-3.3093698024749756,2.772629976272583,0.0019089486449956894,34782.0,39652.0,34970.0,37848.0,0,0,0,0,36813.2109375,-1225.0,-2169.0,-1788.0
2.66,0.4661885201931,0.003090834943577647,0.5200716853141785,0.0,0.0,0.0,0.9992498159408569,-0.8219648003578186,-1.3134207725524902,-0.01429699920117855,2.863913059234619,0.5200582146644592,-0.8859763145446777,3.2910232543945312,0.47324338555336,-3.308560848236084,2.7734389305114746,0.003286978229880333,34271.0,39753.0,34535.0,36869.0,0,0,0,0,36357.39453125,-1026.0,-1662.0,-1822.0
2.682,0.48228681087493896,0.003374558873474598,0.5230035781860352,0.0,0.0,0.0,0.9284842610359192,-0.9917432069778442,-1.3005201816558838,-0.014169608242809772,2.863788366317749,0.5235452055931091,-0.8849529027938843,3.2920470237731934,0.4875430464744568,-3.291842460632324,2.770158052444458,0.0035747166257351637,34834.0,39774.0,33954.0,36862.0,0,0,0,0,36356.6484375,-1913.0,-1745.0,-1771.0
2.7,0.4908679127693176,0.003196051111444831,0.5240954160690308,0.0,0.0,0.0,0.888806164264679,-1.1361232995986938,-1.2892311811447144,-0.014170141890645027,2.86378812789917,0.5246295928955078,-0.8867881298065186,3.2902116775512695,0.4961213171482086,-3.2923717498779297,2.7696287631988525,0.0033532665111124516,31816.0,41450.0,36988.0,35190.0,0,0,0,0,36361.53515625,-1630.0,-6316.0,-1781.0
2.72,0.4993849992752075,0.003107599448412657,0.5251678824424744,0.0,0.0,0.0,0.9070801138877869,-1.2065088748931885,-1.273333191871643,-0.014170438051223755,2.863787889480591,0.5256670117378235,-0.8874350786209106,3.289564371109009,0.505958616733551,-3.293138265609741,2.768862247467041,0.002756433794274926,32518.0,40686.0,36600.0,35700.0,0,0,0,0,36376.015625,-453.0,-4535.0,-1817.0
2.743,0.5155446529388428,0.002658118959516287,0.5278995633125305,0.0,0.0,0.0,0.906593382358551,-1.0524011850357056,-1.2557041645050049,-0.014092360623180866,2.8637101650238037,0.5278995633125305,-0.9027541875839233,3.294246196746826,0.5155446529388428,-3.2914137840270996,2.759586811065674,0.002658118959516287,32905.0,40171.0,35339.0,36181.0,0,0,0,0,36149.6875,-319.0,-1691.0,-2043.0
2.76,0.5165947079658508,0.002969419816508889,0.5284682512283325,0.0,0.0,0.0,0.874216616153717,-0.9262948632240295,-1.2494359016418457,-0.014092540368437767,2.8637099266052246,0.5289797782897949,-0.9033845067024231,3.2936160564422607,0.5255281925201416,-3.2920680046081543,2.758932590484619,0.002059740712866187,33259.0,40327.0,35071.0,36051.0,0,0,0,0,36177.484375,-972.0,-1674.0,-1949.0
2.78,0.5284777283668518,0.0028950870037078857,0.5295136570930481,0.0,0.0,0.0,0.7720980644226074,-0.9212283492088318,-1.2486131191253662,-0.014092966914176941,2.8637094497680664,0.5300164818763733,-0.9055904746055603,3.291410207748413,0.5337835550308228,-3.291306734085083,2.7596938610076904,0.002908968599513173,34566.0,40420.0,34608.0,36698.0,0,0,0,0,36573.04296875,-1860.0,-3137.0,-1990.0
2.8,0.5371865034103394,0.0032016069162636995,0.5287887454032898,0.0,0.0,0.0,0.6828516721725464,-0.9963287115097046,-1.2418363094329834,-0.014075341634452343,2.8636903762817383,0.5287854075431824,-0.9007476568222046,3.293252944946289,0.5432525873184204,-3.3086607456207275,2.7623393535614014,0.0033392903860658407,33378.0,41310.0,35930.0,35730.0,0,0,0,0,36587.8828125,-1309.0,-5413.0,-1896.0
2.82,0.5475558042526245,0.003289856482297182,0.5298323035240173,0.0,0.0,0.0,0.6494703888893127,-1.0521435737609863,-1.2323156595230103,-0.014048158191144466,2.8636631965637207,0.5298280715942383,-0.9010138511657715,3.2929868698120117,0.5536574721336365,-3.308814287185669,2.76218581199646,0.0031401817686855793,33062.0,40902.0,36400.0,36312.0,0,0,0,0,36669.95703125,-512.0,-4547.0,-1916.0
2.842,0.5638411641120911,0.0031272885389626026,0.5318469405174255,0.0,0.0,0.0,0.6214633584022522,-0.9005736112594604,-1.224297285079956,-0.01406418439000845,2.8636789321899414,0.5318469405174255,-0.9015288949012756,3.2924716472625732,0.5638411641120911,-3.308741807937622,2.762258291244507,0.0031272885389626026,33578.0,39296.0,35542.0,37544.0,0,0,0,0,36490.45703125,-171.0,-2153.0,-1778.0
2.86,0.5659088492393494,0.003003978170454502,0.5322117209434509,0.0,0.0,0.0,0.5791273713111877,-0.8428211212158203,-1.2151966094970703,-0.01406494528055191,2.863678216934204,0.5322117209434509,-0.9294298887252808,3.2895700931549072,0.574884831905365,-3.2953529357910156,2.744647741317749,0.0035792815033346415,33754.0,39268.0,35122.0,37200.0,0,0,0,0,36336.625,-1110.0,-2396.0,-1769.0
2.88,0.5757511854171753,0.004117091652005911,0.53377765417099,0.0,0.0,0.0,0.4352124035358429,-0.8844019770622253,-1.1990419626235962,-0.014002308249473572,2.8636155128479004,0.53377765417099,-0.9288080334663391,3.290191888809204,0.5808603763580322,-3.294816017150879,2.7451846599578857,0.004062104970216751,35647.0,40083.0,34087.0,37747.0,0,0,0,0,36891.96484375,-326.0,-3443.0,-2041.0
2.9,0.5847259163856506,0.0034054936841130257,0.5319138765335083,0.0,0.0,0.0,0.33945223689079285,-0.9711152911186218,-1.186625361442566,-0.013956637121737003,2.8635692596435547,0.5319138765335083,-0.9302152991294861,3.2887845039367676,0.590070366859436,-3.2953665256500244,2.7446341514587402,0.0033150522504001856,32564.0,42534.0,37304.0,35446.0,0,0,0,0,36962.6171875,-852.0,-5596.0,-1957.0
2.92,0.5953859090805054,0.0021937701385468245,0.5322747230529785,0.0,0.0,0.0,0.30170920491218567,-0.996685266494751,-1.1879196166992188,-0.013956812210381031,2.8635690212249756,0.5322747230529785,-0.9302571415901184,3.288742780685425,0.6007629036903381,-3.296295404434204,2.7437052726745605,0.0020720285829156637,32250.0,42430.0,36620.0,34232.0,0,0,0,0,36383.21875,-633.0,-5761.0,-1985.0
2.94,0.6056176424026489,0.0021035661920905113,0.5357632040977478,0.0,0.0,0.0,0.2805657982826233,-0.8975070714950562,-1.1789278984069824,-0.013770733959972858,2.8633840084075928,0.5357487201690674,-0.9211997389793396,3.298800468444824,0.6132283806800842,-3.3035707473754883,2.7284295558929443,0.002144422847777605,33859.0,38613.0,34845.0,38359.0,0,0,0,0,36419.9296875,-447.0,-2032.0,-2057.0
2.96,0.6173887848854065,0.003058718517422676,0.5360215902328491,0.0,0.0,0.0,0.20798709988594055,-0.8160954117774963,-1.1724790334701538,-0.013764047995209694,2.8633768558502197,0.5360215902328491,-0.9223904013633728,3.297609806060791,0.6228084564208984,-3.302589178085327,2.7294111251831055,0.002942445455119014,34355.0,40051.0,34259.0,36939.0,0,0,0,0,36401.71484375,-1029.0,-996.0,-2041.0
2.98,0.6251505613327026,0.003496603574603796,0.5366603136062622,0.0,0.0,0.0,0.0900653675198555,-0.8602697849273682,-1.1769793033599854,-0.013764527626335621,2.8633763790130615,0.5366479158401489,-0.9234678149223328,3.296532392501831,0.6324740648269653,-3.303874969482422,2.7281253337860107,0.0012449194910004735,33662.0,40210.0,34630.0,36010.0,0,0,0,0,36128.40625,-1082.0,-3379.0,-2017.0
3.0,0.6379693150520325,0.0028175022453069687,0.5386949181556702,0.0,0.0,0.0,0.029829205945134163,-0.9630212783813477,-1.1789036989212036,-0.013685575686395168,2.863298177719116,0.5386949181556702,-0.9284720420837402,3.2825281620025635,0.6434265971183777,-3.324063301086426,2.7179367542266846,0.0026973707135766745,33719.0,40735.0,35655.0,36987.0,0,0,0,0,36774.72265625,-878.0,-5301.0,-2096.0
