time,x_kalman,y_kalman,z_kalman,x_lh,y_lh,z_lh,roll,pitch,yaw,motor.m1,motor.m2,motor.m3,motor.m4,rpm.m1,rpm.m2,rpm.m3,rpm.m4,controller.cmd_thrust,controller.cmd_roll,controller.cmd_pitch,controller.cmd_yaw
0.0,-0.010550922714173794,-0.0042474642395973206,0.0005288236425258219,-0.00968778133392334,-0.003679022192955017,-0.00045624375343322754,-1.4720689058303833,-0.4927843511104584,-2.1975808143615723,52612.0,56370.0,55086.0,57148.0,0,0,0,0,55511.203125,2035.0,-1947.0,-1551.0
0.02,-0.009142834693193436,-0.004094212781637907,0.0005477358936332166,-0.00958743691444397,-0.003554105758666992,-0.000573575496673584,-1.4780391454696655,-0.5625602006912231,-2.2145795822143555,53037.0,57357.0,55437.0,57049.0,0,0,0,0,55911.9453125,-16.0,2637.0,-1442.0
0.04,-0.009267360903322697,-0.004405990708619356,0.0006540881586261094,-0.00958743691444397,-0.003554105758666992,-0.000573575496673584,-1.4232290983200073,-0.48817771673202515,-2.2067177295684814,56581.0,63427.0,54409.0,49883.0,0,0,0,0,56036.61328125,-10571.0,-12469.0,955.0
0.06,-0.010280843824148178,-0.003993837628513575,0.0007622738485224545,-0.009465187788009644,-0.003670528531074524,-0.00024127960205078125,-1.336220622062683,-0.35695430636405945,-2.04649019241333,54169.0,63273.0,52693.0,52141.0,0,0,0,0,54527.74609375,-2945.0,2132.0,-1894.0
0.08,-0.010108190588653088,-0.005840583238750696,0.004493387881666422,-0.009465187788009644,-0.003670528531074524,-0.00024127960205078125,-0.5633217692375183,0.06651472300291061,-2.0421011447906494,47925.0,63683.0,51959.0,46609.0,0,0,0,0,50844.11328125,-4671.0,-9832.0,-1902.0
0.1,-0.00017554653459228575,-0.011997107416391373,0.007063080556690693,-0.009737759828567505,-0.003519609570503235,0.0058765411376953125,0.3202015459537506,-0.18022409081459045,-2.1048922538757324,45667.0,52761.0,47035.0,50729.0,0,0,0,0,47172.828125,1996.0,-520.0,-1874.0
0.12,-0.002080988371744752,-0.011663301847875118,0.013667609542608261,-0.00928768515586853,-0.0035294145345687866,0.013484030961990356,0.5649166703224182,0.480204701423645,-2.194610834121704,38160.0,50776.0,48222.0,43614.0,0,0,0,0,43436.375,288.0,-7649.0,-1851.0
0.14,-0.009071141481399536,-0.017967289313673973,0.02189699374139309,-0.00928768515586853,-0.0035294145345687866,0.013484030961990356,0.7279658317565918,1.1487957239151,-2.263282299041748,36847.0,49143.0,42759.0,38907.0,0,0,0,0,40490.25,-3724.0,-5452.0,-1912.0
0.16,-0.01156406570225954,-0.017280781641602516,0.03445030376315117,-0.00928768515586853,-0.0035294145345687866,0.013484030961990356,0.2787097990512848,1.6045202016830444,-2.28741192817688,35920.0,40286.0,37334.0,42376.0,0,0,0,0,37606.5546875,4838.0,-2524.0,-2023.0
0.18,-0.0049605644308030605,-0.01363702304661274,0.05028846114873886,-0.00928768515586853,-0.0035294145345687866,0.013484030961990356,-0.29280877113342285,1.3791431188583374,-2.319756269454956,31655.0,40009.0,35409.0,38911.0,0,0,0,0,35550.8203125,2149.0,2468.0,-2307.0
0.2,-0.009927387349307537,-0.010305930860340595,0.07385024428367615,-0.00928768515586853,-0.0035294145345687866,0.013484030961990356,-1.087849497795105,1.4785339832305908,-2.4265503883361816,29028.0,38556.0,34102.0,37222.0,0,0,0,0,33773.90234375,1037.0,-3201.0,-2310.0
0.22,-0.010966209694743156,-0.008139967918395996,0.0915399044752121,-0.00928768515586853,-0.0035294145345687866,0.013484030961990356,-1.4051884412765503,1.300793170928955,-2.5045716762542725,31777.0,36365.0,28053.0,36749.0,0,0,0,0,32737.947265625,-4106.0,-2602.0,-2381.0
0.24,-0.009390730410814285,-0.01726911962032318,0.10896414518356323,-0.00928768515586853,-0.0035294145345687866,0.013484030961990356,-0.9035257697105408,0.947936475276947,-2.590224027633667,32720.0,35856.0,26364.0,34632.0,0,0,0,0,31183.49609375,-7308.0,-2138.0,-2248.0
0.26,-0.008130344562232494,-0.016743768006563187,0.1312153935432434,-0.00928768515586853,-0.0035294145345687866,0.013484030961990356,-0.6844634413719177,0.5853459239006042,-2.680814743041992,28890.0,35376.0,28564.0,31042.0,0,0,0,0,30894.2890625,-5252.0,-1837.0,-2076.0
0.28,-0.008030310273170471,-0.018800996243953705,0.1453392654657364,-0.008231371641159058,-0.007168322801589966,0.12200772762298584,-0.3505549430847168,0.3173137307167053,-2.627807855606079,29941.0,34587.0,28277.0,31895.0,0,0,0,0,31236.013671875,-1943.0,-6367.0,-1996.0
0.3,-0.009012830443680286,-0.01677795685827732,0.16313807666301727,-0.008231371641159058,-0.007168322801589966,0.12200772762298584,-0.4225010871887207,0.13229642808437347,-2.6255462169647217,27952.0,31674.0,30444.0,33998.0,0,0,0,0,31165.09375,2570.0,-2309.0,-1925.0
0.32,-0.009860465303063393,-0.017517773434519768,0.17852775752544403,-0.008231371641159058,-0.007168322801589966,0.12200772762298584,-0.5901494026184082,0.06734015792608261,-2.609684944152832,27341.0,34641.0,32189.0,31205.0,0,0,0,0,31540.91796875,1658.0,-8.0,-1832.0
0.34,-0.00847760122269392,-0.015690861269831657,0.19317184388637543,-0.008231371641159058,-0.007168322801589966,0.12200772762298584,-0.9976488351821899,-0.08696098625659943,-2.579324722290039,27115.0,34427.0,34623.0,33223.0,0,0,0,0,32612.23828125,32.0,-1113.0,-1763.0
0.36,-0.008624609559774399,-0.01569763757288456,0.203252911567688,-0.007687509059906006,-0.006387278437614441,0.18494726717472076,-1.285675048828125,-0.1435571163892746,-2.54125714302063,30766.0,36230.0,31300.0,33256.0,0,0,0,0,33450.16796875,-1036.0,-1631.0,-1796.0
0.38,-0.008630452677607536,-0.014373799785971642,0.207051619887352,-0.007687509059906006,-0.006387278437614441,0.18494726717472076,-1.399057388305664,-0.2028130143880844,-2.582993745803833,31128.0,35460.0,32844.0,35440.0,0,0,0,0,34466.484375,-2323.0,-1879.0,-1746.0
0.4,-0.007858711294829845,-0.013369176536798477,0.216200053691864,-0.0069696009159088135,-0.006771385669708252,0.20752659440040588,-1.4658774137496948,-0.3210678994655609,-2.5383989810943604,32279.0,38199.0,33821.0,34793.0,0,0,0,0,35227.3984375,-1291.0,114.0,-1693.0
0.42,-0.010196074843406677,-0.016137734055519104,0.22555410861968994,-0.0069696009159088135,-0.006771385669708252,0.20752659440040588,-1.2183867692947388,-0.2830759882926941,-2.506178617477417,33756.0,39746.0,33784.0,34550.0,0,0,0,0,36295.0703125,-635.0,-774.0,-1608.0
0.44,-0.010385286994278431,-0.01610228419303894,0.23216496407985687,-0.006059437990188599,-0.00706598162651062,0.22673365473747253,-1.0270129442214966,-0.2870831787586212,-2.4508373737335205,34763.0,38529.0,35067.0,37781.0,0,0,0,0,36868.890625,-1332.0,-2302.0,-1654.0
0.46,-0.00954030267894268,-0.014738856814801693,0.24003282189369202,-0.006059437990188599,-0.00706598162651062,0.22673365473747253,-0.8853737115859985,-0.3396078050136566,-2.397296190261841,33771.0,39535.0,37053.0,37893.0,0,0,0,0,37698.48046875,-923.0,-3701.0,-1659.0
0.48,-0.00962073728442192,-0.01448339968919754,0.24568985402584076,-0.006059437990188599,-0.00706598162651062,0.22673365473747253,-0.8522661328315735,-0.40104737877845764,-2.343557357788086,35166.0,41058.0,37088.0,37976.0,0,0,0,0,37911.9296875,616.0,-1124.0,-1693.0
0.5,-0.009013636037707329,-0.010154289193451405,0.2531742751598358,-0.006059437990188599,-0.00706598162651062,0.22673365473747253,-1.009652018547058,-0.42892107367515564,-2.303462505340576,35249.0,41827.0,37441.0,37447.0,0,0,0,0,38029.55859375,-262.0,-1043.0,-1701.0
0.52,-0.008904078975319862,-0.00969964824616909,0.2610265910625458,-0.0034702420234680176,-0.0072249919176101685,0.2582530677318573,-1.0188827514648438,-0.4359252154827118,-2.2615935802459717,34657.0,43779.0,37899.0,35401.0,0,0,0,0,37959.0234375,-701.0,-518.0,-1682.0
0.54,-0.007432782091200352,-0.00860875565558672,0.2675447463989258,-0.0034702420234680176,-0.0072249919176101685,0.2582530677318573,-0.9252628087997437,-0.4293748736381531,-2.228071451187134,35680.0,39454.0,36754.0,39760.0,0,0,0,0,37845.40625,-2078.0,-1437.0,-1733.0
0.56,-0.00734587199985981,-0.007934117689728737,0.27454495429992676,-0.0034702420234680176,-0.0072249919176101685,0.2582530677318573,-0.7231535911560059,-0.33284991979599,-2.1856164932250977,34429.0,42317.0,37963.0,36563.0,0,0,0,0,37741.66796875,-3330.0,-2219.0,-1690.0
0.58,-0.007325117941945791,-0.006987764500081539,0.28119149804115295,-0.0034702420234680176,-0.0072249919176101685,0.2582530677318573,-0.531787633895874,-0.3254014551639557,-2.1548335552215576,34174.0,41534.0,37744.0,37208.0,0,0,0,0,37581.77734375,-958.0,-1074.0,-1790.0
0.6,-0.006801645737141371,-0.005352598614990711,0.2879916727542877,-0.00019863247871398926,-0.007075712084770203,0.28588974475860596,-0.3564307391643524,-0.2774379551410675,-2.128330707550049,35955.0,38999.0,35295.0,39703.0,0,0,0,0,37583.0078125,-2460.0,-3066.0,-1874.0
0.62,-0.00517392810434103,-0.0048512970097362995,0.29353606700897217,0.0008879005908966064,-0.007143720984458923,0.29274624586105347,-0.1910502165555954,-0.21275779604911804,-2.133455991744995,35266.0,40708.0,36162.0,37892.0,0,0,0,0,37463.09375,-140.0,-2520.0,-1766.0
0.64,-0.003696971805766225,-0.004551966208964586,0.29984068870544434,0.0021683573722839355,-0.007237866520881653,0.29953157901763916,0.022234737873077393,-0.19168490171432495,-2.158465623855591,35364.0,39994.0,35890.0,38356.0,0,0,0,0,37382.9765625,-1672.0,-1245.0,-1835.0
0.66,-0.0021400072146207094,-0.004567785654217005,0.3060404062271118,0.0021683573722839355,-0.007237866520881653,0.29953157901763916,0.1997229903936386,-0.13961710035800934,-2.125486373901367,35422.0,38822.0,35546.0,39486.0,0,0,0,0,37251.98828125,-1151.0,-2661.0,-1833.0
0.68,-0.0003029927902389318,-0.004797763656824827,0.31230607628822327,0.004252880811691284,-0.008497565984725952,0.3098205327987671,0.35715916752815247,-0.105550616979599,-2.0089008808135986,36782.0,40948.0,33844.0,37258.0,0,0,0,0,37443.5390625,113.0,-2223.0,-1917.0
0.7,0.00047047657426446676,-0.004520351067185402,0.31730127334594727,0.004252880811691284,-0.008497565984725952,0.3098205327987671,0.4539364278316498,-0.034019265323877335,-2.0012199878692627,35136.0,40686.0,35826.0,37956.0,0,0,0,0,37370.0625,-1810.0,-4240.0,-1923.0
0.72,0.0015383459394797683,-0.0040650744922459126,0.32340431213378906,0.004252880811691284,-0.008497565984725952,0.3098205327987671,0.5570577383041382,0.05846751481294632,-2.0213968753814697,35630.0,42436.0,35268.0,36006.0,0,0,0,0,37300.00390625,-265.0,-3030.0,-1872.0
0.74,0.0024823241401463747,-0.0034970776177942753,0.3305296301841736,0.004252880811691284,-0.008497565984725952,0.3098205327987671,0.6214624643325806,0.21695302426815033,-2.0368571281433105,34291.0,40499.0,36033.0,37285.0,0,0,0,0,36986.125,-1400.0,-1814.0,-1902.0
0.76,0.003311316715553403,-0.0032993562053889036,0.336559921503067,0.004252880811691284,-0.008497565984725952,0.3098205327987671,0.6544291973114014,0.3587097227573395,-2.0396013259887695,33434.0,41342.0,36540.0,36468.0,0,0,0,0,36916.5078125,-176.0,-1341.0,-1921.0
0.78,0.004204288125038147,-0.003070245264098048,0.3424806594848633,0.010343194007873535,-0.00955905020236969,0.343561053276062,0.6308755278587341,0.4472876191139221,-2.051018714904785,34105.0,40977.0,36107.0,36923.0,0,0,0,0,37021.18359375,-636.0,-1393.0,-1866.0
0.8,0.006314626894891262,-0.004149985034018755,0.34748050570487976,0.011724412441253662,-0.010266587138175964,0.34959840774536133,0.6451433897018433,0.47989583015441895,-2.0700676441192627,34425.0,40387.0,35737.0,37487.0,0,0,0,0,37003.1796875,-878.0,-2216.0,-1889.0
0.82,0.00791932549327612,-0.0053729284554719925,0.3530116379261017,0.013173162937164307,-0.010958030819892883,0.3555525541305542,0.6772069334983826,0.5594889521598816,-2.084186553955078,33665.0,38491.0,36313.0,39555.0,0,0,0,0,36893.97265625,-2614.0,-4344.0,-1905.0
0.84,0.009706149809062481,-0.006287968251854181,0.359029620885849,0.013173162937164307,-0.010958030819892883,0.3555525541305542,0.6652512550354004,0.6434957981109619,-2.1194331645965576,35165.0,38695.0,35053.0,38743.0,0,0,0,0,36939.546875,-1907.0,-3581.0,-1921.0
0.86,0.011133340187370777,-0.006264922674745321,0.36693820357322693,0.013173162937164307,-0.010958030819892883,0.3555525541305542,0.5126287341117859,0.7831514477729797,-2.0880258083343506,32959.0,40907.0,37647.0,36331.0,0,0,0,0,36802.9296875,-1771.0,-2451.0,-1855.0
0.88,0.011631363071501255,-0.006516891531646252,0.3703659474849701,0.013173162937164307,-0.010958030819892883,0.3555525541305542,0.4652276337146759,0.8462141752243042,-2.039487838745117,33850.0,39084.0,36274.0,38076.0,0,0,0,0,36847.46875,-1249.0,-3560.0,-1795.0
0.9,0.012439494021236897,-0.006769206374883652,0.37567877769470215,0.013173162937164307,-0.010958030819892883,0.3555525541305542,0.3536360263824463,1.0161467790603638,-1.9966108798980713,33784.0,40144.0,36188.0,37348.0,0,0,0,0,36591.47265625,-2595.0,-2844.0,-1922.0
0.92,0.013399196788668633,-0.007540476508438587,0.3819904327392578,0.013173162937164307,-0.010958030819892883,0.3555525541305542,0.26514101028442383,1.1540946960449219,-1.9876573085784912,33758.0,41876.0,35722.0,35056.0,0,0,0,0,36636.42578125,-39.0,231.0,-1875.0
0.94,0.013845033943653107,-0.00781221641227603,0.3868770897388458,0.013173162937164307,-0.010958030819892883,0.3555525541305542,0.19024820625782013,1.2419424057006836,-1.99053156375885,34751.0,39289.0,34751.0,37885.0,0,0,0,0,36699.8359375,617.0,-528.0,-1872.0
0.96,0.014605972915887833,-0.008487292565405369,0.3888039290904999,0.013173162937164307,-0.010958030819892883,0.3555525541305542,0.12257962673902512,1.2760950326919556,-1.9965440034866333,34544.0,40258.0,36118.0,38284.0,0,0,0,0,37353.60546875,-106.0,-799.0,-1939.0
0.98,0.014857175759971142,-0.009445511735975742,0.3929808437824249,0.021638095378875732,-0.018983855843544006,0.3950618505477905,0.05937569960951805,1.2777948379516602,-1.9907398223876953,35598.0,39742.0,35574.0,38754.0,0,0,0,0,37470.9296875,-1355.0,-4404.0,-1899.0
1.0,0.016867516562342644,-0.012502207420766354,0.3969680070877075,0.021638095378875732,-0.018983855843544006,0.3950618505477905,0.007085375487804413,1.2491792440414429,-2.0049045085906982,34987.0,40551.0,37139.0,39063.0,0,0,0,0,37981.03125,-657.0,3.0,-1877.0
1.02,0.01721017062664032,-0.013387664221227169,0.3985171914100647,0.023070037364959717,-0.021495476365089417,0.4028676748275757,-0.08894934505224228,1.2460455894470215,-1.9932090044021606,32484.0,44040.0,39966.0,35602.0,0,0,0,0,38023.08984375,-1818.0,-1749.0,-1796.0
1.04,0.01900949701666832,-0.015797710046172142,0.4021124541759491,0.023070037364959717,-0.021495476365089417,0.4028676748275757,-0.20612797141075134,1.1526118516921997,-1.9894497394561768,35435.0,40219.0,36919.0,39579.0,0,0,0,0,38038.01953125,-1157.0,-4116.0,-1895.0
1.06,0.019208652898669243,-0.01659369096159935,0.40534284710884094,0.02445724606513977,-0.02401822805404663,0.41044217348098755,-0.33506011962890625,1.201187252998352,-1.952183485031128,35044.0,40450.0,37034.0,39496.0,0,0,0,0,38006.953125,421.0,-706.0,-1958.0
1.08,0.02082168124616146,-0.018976494669914246,0.408822625875473,0.0250568687915802,-0.02514401078224182,0.4141741991043091,-0.47999104857444763,1.2176990509033203,-1.95231294631958,37900.0,39528.0,34026.0,40162.0,0,0,0,0,37904.98828125,-1205.0,-5903.0,-1904.0
1.1,0.02166253700852394,-0.02082863450050354,0.41339579224586487,0.0250568687915802,-0.02514401078224182,0.4141741991043091,-0.686522901058197,1.2263401746749878,-1.9328128099441528,36374.0,40346.0,34986.0,38722.0,0,0,0,0,37607.66796875,-1229.0,-2221.0,-1926.0
1.12,0.02267702855169773,-0.022672871127724648,0.4170082211494446,0.027107447385787964,-0.027519971132278442,0.4206799864768982,-0.8376649618148804,1.2689238786697388,-1.863671064376831,35784.0,40318.0,35212.0,38714.0,0,0,0,0,37507.015625,1341.0,-850.0,-2019.0
1.14,0.023060698062181473,-0.02359437569975853,0.4205268919467926,0.027107447385787964,-0.027519971132278442,0.4206799864768982,-0.9509297013282776,1.2944074869155884,-1.8635045289993286,34224.0,38778.0,36582.0,40060.0,0,0,0,0,37411.19921875,-333.0,1240.0,-1997.0
1.16,0.023397749289870262,-0.02404196746647358,0.4238729774951935,0.027107447385787964,-0.027519971132278442,0.4206799864768982,-1.095418930053711,1.323556661605835,-1.874151349067688,34702.0,41868.0,36196.0,36738.0,0,0,0,0,37376.33203125,1858.0,-1612.0,-1869.0
1.18,0.02332143671810627,-0.024976113811135292,0.42703723907470703,0.027107447385787964,-0.027519971132278442,0.4206799864768982,-1.226135015487671,1.2667402029037476,-1.883410930633545,34724.0,39152.0,36004.0,39564.0,0,0,0,0,37361.84765625,803.0,-2269.0,-2022.0
1.2,0.023213744163513184,-0.025656292214989662,0.43025779724121094,0.027107447385787964,-0.027519971132278442,0.4206799864768982,-1.3007068634033203,1.2541143894195557,-1.8856958150863647,33687.0,41015.0,36975.0,37651.0,0,0,0,0,37332.4375,-2474.0,-2776.0,-1958.0
1.22,0.023017985746264458,-0.026378674432635307,0.4334152638912201,0.027617156505584717,-0.0326399952173233,0.43930280208587646,-1.389692783355713,1.2082372903823853,-1.892143964767456,34006.0,40222.0,35954.0,37686.0,0,0,0,0,36967.4921875,-1254.0,-1520.0,-2029.0
1.24,0.024074643850326538,-0.02806316502392292,0.4385957419872284,0.027864843606948853,-0.033497437834739685,0.44273024797439575,-1.432249665260315,1.1591739654541016,-1.8839259147644043,35516.0,39086.0,34290.0,38912.0,0,0,0,0,36951.62890625,-1041.0,-4155.0,-2054.0
1.26,0.024644333869218826,-0.029668577015399933,0.44194310903549194,0.027864843606948853,-0.033497437834739685,0.44273024797439575,-1.4797722101211548,1.106328010559082,-1.8916312456130981,33251.0,41119.0,36883.0,36671.0,0,0,0,0,36981.703125,644.0,-231.0,-1960.0
1.28,0.025133520364761353,-0.030980916693806648,0.44568338990211487,0.028515785932540894,-0.03487563133239746,0.4480457007884979,-1.5463249683380127,1.0176467895507812,-1.8398938179016113,35135.0,39783.0,34577.0,38237.0,0,0,0,0,36933.8515625,-533.0,-2263.0,-2010.0
1.3,0.024833817034959793,-0.03127242252230644,0.4487024247646332,0.028515785932540894,-0.03487563133239746,0.4480457007884979,-1.6357383728027344,0.9575764536857605,-1.8470301628112793,34343.0,41027.0,35651.0,37095.0,0,0,0,0,37029.296875,-1876.0,-3610.0,-2010.0
1.32,0.025009505450725555,-0.03258335590362549,0.45161333680152893,0.028245002031326294,-0.035928502678871155,0.4537866711616516,-1.6646546125411987,0.9457125067710876,-1.8040951490402222,35407.0,40255.0,34919.0,37991.0,0,0,0,0,37143.39453125,-389.0,-306.0,-2022.0
1.34,0.024575013667345047,-0.0326625220477581,0.45430558919906616,0.02774226665496826,-0.03623121976852417,0.45770156383514404,-1.682775616645813,0.9830856323242188,-1.8019771575927734,35640.0,38464.0,34952.0,39968.0,0,0,0,0,37256.7734375,-1725.0,777.0,-1953.0
1.36,0.024665646255016327,-0.03328223526477814,0.45665934681892395,0.027531445026397705,-0.03646567463874817,0.46020349860191345,-1.7401195764541626,0.9575637578964233,-1.8016375303268433,35263.0,41749.0,35691.0,36977.0,0,0,0,0,37420.88671875,1166.0,934.0,-1903.0
1.38,0.024671409279108047,-0.03371638059616089,0.45912542939186096,0.027531445026397705,-0.03646567463874817,0.46020349860191345,-1.7277421951293945,0.8905686736106873,-1.7980396747589111,35096.0,42240.0,36076.0,36540.0,0,0,0,0,37488.44140625,-55.0,-3129.0,-1870.0
1.4,0.02417626976966858,-0.03341775760054588,0.46096813678741455,0.027109473943710327,-0.03661833703517914,0.46468544006347656,-1.717468500137329,0.8407653570175171,-1.7996869087219238,35244.0,40104.0,35972.0,39084.0,0,0,0,0,37601.55859375,-1428.0,-2238.0,-2013.0
1.42,0.023988790810108185,-0.03364292159676552,0.46320244669914246,0.02696925401687622,-0.036690980195999146,0.4670325517654419,-1.6556813716888428,0.7928804159164429,-1.795189619064331,35009.0,40829.0,36273.0,38389.0,0,0,0,0,37625.22265625,936.0,-596.0,-1956.0
1.44,0.024048147723078728,-0.03369204327464104,0.4653855860233307,0.02696925401687622,-0.036690980195999146,0.4670325517654419,-1.605172038078308,0.7138917446136475,-1.797307014465332,35860.0,41424.0,35424.0,37392.0,0,0,0,0,37525.96875,694.0,153.0,-1923.0
1.46,0.02340489998459816,-0.03318203240633011,0.468065083026886,0.02696925401687622,-0.036690980195999146,0.4670325517654419,-1.6074156761169434,0.5991203784942627,-1.7898272275924683,34278.0,40748.0,37028.0,38150.0,0,0,0,0,37551.53515625,-1999.0,-1744.0,-1975.0
1.48,0.02313878759741783,-0.0332784540951252,0.47015175223350525,0.02561342716217041,-0.03626486659049988,0.4719960689544678,-1.556595802307129,0.5226185321807861,-1.7519339323043823,35210.0,40304.0,36054.0,38956.0,0,0,0,0,37631.10546875,-3510.0,-580.0,-2010.0
1.5,0.022445715963840485,-0.03260163590312004,0.4717813730239868,0.025343984365463257,-0.03557737171649933,0.47503387928009033,-1.5092099905014038,0.5151849985122681,-1.7669183015823364,35034.0,40416.0,36378.0,38688.0,0,0,0,0,37629.6015625,143.0,-4049.0,-1941.0
1.52,0.02225552685558796,-0.032427381724119186,0.47373107075691223,0.025343984365463257,-0.03557737171649933,0.47503387928009033,-1.4073586463928223,0.45709410309791565,-1.7612369060516357,36508.0,42196.0,34968.0,36912.0,0,0,0,0,37646.4765625,271.0,-581.0,-1890.0
1.54,0.021495919674634933,-0.031739939004182816,0.4755331873893738,0.025343984365463257,-0.03557737171649933,0.47503387928009033,-1.3373262882232666,0.44878828525543213,-1.750044345855713,36213.0,40531.0,35359.0,38537.0,0,0,0,0,37660.26953125,-694.0,-3892.0,-1821.0
1.56,0.020849039778113365,-0.030627161264419556,0.4772633910179138,0.025343984365463257,-0.03557737171649933,0.47503387928009033,-1.2715418338775635,0.36046478152275085,-1.7366077899932861,37243.0,37969.0,34265.0,41243.0,0,0,0,0,37680.6875,-2880.0,-4750.0,-1904.0
1.58,0.019615840166807175,-0.029532279819250107,0.47797226905822754,0.025343984365463257,-0.03557737171649933,0.47503387928009033,-1.2126507759094238,0.29691848158836365,-1.713911533355713,34861.0,41089.0,37185.0,38377.0,0,0,0,0,37878.484375,-1383.0,-1575.0,-1828.0
1.6,0.018327930942177773,-0.028074217960238457,0.4794965982437134,0.025343984365463257,-0.03557737171649933,0.47503387928009033,-1.1028765439987183,0.2458798885345459,-1.702878713607788,34882.0,41272.0,37152.0,38246.0,0,0,0,0,37888.21875,-996.0,-3916.0,-1825.0
1.62,0.01735534332692623,-0.026647984981536865,0.480793297290802,0.025343984365463257,-0.03557737171649933,0.47503387928009033,-0.961999773979187,0.23260986804962158,-1.674576759338379,35119.0,41471.0,36867.0,38219.0,0,0,0,0,37919.44921875,-1589.0,-3306.0,-1892.0
1.64,0.016795191913843155,-0.0254790261387825,0.4822492301464081,0.025343984365463257,-0.03557737171649933,0.47503387928009033,-0.8345851302146912,0.15844088792800903,-1.6581671237945557,36314.0,40158.0,35612.0,39492.0,0,0,0,0,37894.0703125,-2290.0,-1768.0,-1909.0
1.66,0.015605696476995945,-0.02444693259894848,0.48369652032852173,0.021268069744110107,-0.02997642755508423,0.4879308342933655,-0.6631848216056824,0.10449066758155823,-1.6472951173782349,35254.0,41232.0,37000.0,38750.0,0,0,0,0,38059.7265625,591.0,-409.0,-1879.0
1.68,0.016563698649406433,-0.0247984379529953,0.4840411841869354,0.021268069744110107,-0.02997642755508423,0.4879308342933655,-0.48540058732032776,-0.011888580396771431,-1.6218215227127075,37354.0,41144.0,34834.0,38756.0,0,0,0,0,38022.96875,414.0,-1532.0,-1918.0
1.7,0.015703748911619186,-0.023066848516464233,0.4853764474391937,0.021268069744110107,-0.02997642755508423,0.4879308342933655,-0.39159104228019714,-0.09422119706869125,-1.6050865650177002,36882.0,41286.0,35438.0,38798.0,0,0,0,0,38101.02734375,-251.0,-2809.0,-2112.0
1.72,0.014768564142286777,-0.02228819765150547,0.4861295521259308,0.021268069744110107,-0.02997642755508423,0.4879308342933655,-0.2456793338060379,-0.16714562475681305,-1.6061056852340698,35398.0,40592.0,36854.0,39324.0,0,0,0,0,38042.78125,-2043.0,-4868.0,-1940.0
1.74,0.01389242708683014,-0.020474707707762718,0.48743146657943726,0.021268069744110107,-0.02997642755508423,0.4879308342933655,-0.12514926493167877,-0.20320869982242584,-1.5965821743011475,35468.0,39884.0,36668.0,39928.0,0,0,0,0,37987.29296875,675.0,-1058.0,-1920.0
1.76,0.0130850775167346,-0.019058547914028168,0.49017518758773804,0.021268069744110107,-0.02997642755508423,0.4879308342933655,-0.017280006781220436,-0.21303662657737732,-1.5890272855758667,34380.0,41674.0,37060.0,37478.0,0,0,0,0,37648.23046875,-2813.0,-2147.0,-1947.0
1.78,0.01201667170971632,-0.017730241641402245,0.4916849136352539,0.021268069744110107,-0.02997642755508423,0.4879308342933655,0.046951934695243835,-0.282289981842041,-1.5801200866699219,33506.0,42154.0,37952.0,36752.0,0,0,0,0,37591.140625,-1258.0,936.0,-1917.0
1.8,0.011547083035111427,-0.01584356464445591,0.49256423115730286,0.021268069744110107,-0.02997642755508423,0.4879308342933655,0.1590317189693451,-0.2964288890361786,-1.5681958198547363,34888.0,41558.0,36584.0,37678.0,0,0,0,0,37677.37109375,-702.0,-374.0,-1936.0
1.82,0.010626912117004395,-0.014768976718187332,0.494006872177124,0.021268069744110107,-0.02997642755508423,0.4879308342933655,0.2834605574607849,-0.34456178545951843,-1.576857566833496,35788.0,42064.0,35684.0,37192.0,0,0,0,0,37682.9296875,454.0,-2832.0,-1902.0
1.84,0.01004015188664198,-0.013380877673625946,0.49625733494758606,0.021268069744110107,-0.02997642755508423,0.4879308342933655,0.37306249141693115,-0.386982798576355,-1.5746650695800781,35820.0,40292.0,35272.0,38776.0,0,0,0,0,37540.37890625,-698.0,-1813.0,-1936.0
1.86,0.009176366962492466,-0.012252401560544968,0.49771127104759216,0.021268069744110107,-0.02997642755508423,0.4879308342933655,0.41810229420661926,-0.4268319308757782,-1.5614386796951294,36043.0,41453.0,35053.0,37635.0,0,0,0,0,37546.55078125,-2426.0,-2147.0,-1935.0
1.88,0.008284698240458965,-0.010632574558258057,0.4991227388381958,0.021268069744110107,-0.02997642755508423,0.4879308342933655,0.4828568994998932,-0.4688655138015747,-1.5535812377929688,34606.0,40730.0,36626.0,38346.0,0,0,0,0,37577.46484375,-1111.0,-525.0,-1920.0
1.9,0.007617407478392124,-0.009331027045845985,0.5004059672355652,0.021268069744110107,-0.02997642755508423,0.4879308342933655,0.6070684790611267,-0.508500874042511,-1.5427958965301514,34903.0,40677.0,36457.0,38327.0,0,0,0,0,37591.57421875,-668.0,-1111.0,-1815.0
1.92,0.00734019884839654,-0.008355755358934402,0.5017203092575073,0.021268069744110107,-0.02997642755508423,0.4879308342933655,0.6761652231216431,-0.5387557148933411,-1.5274533033370972,34006.0,41916.0,37626.0,36964.0,0,0,0,0,37628.96875,-1626.0,1379.0,-1830.0
1.94,0.00684934388846159,-0.006462753750383854,0.5026727318763733,0.021268069744110107,-0.02997642755508423,0.4879308342933655,0.7034215331077576,-0.5817700028419495,-1.4968698024749756,34513.0,41095.0,37329.0,37999.0,0,0,0,0,37734.16796875,-833.0,-1952.0,-1860.0
1.96,0.006403892766684294,-0.005166103597730398,0.5038297772407532,0.021268069744110107,-0.02997642755508423,0.4879308342933655,0.7509456872940063,-0.5985475778579712,-1.4649680852890015,34977.0,40885.0,37053.0,38237.0,0,0,0,0,37788.4765625,-89.0,-2788.0,-1807.0
1.98,0.005957283545285463,-0.003912707790732384,0.5054019093513489,0.021268069744110107,-0.02997642755508423,0.4879308342933655,0.7959146499633789,-0.5666506290435791,-1.4429353475570679,35696.0,39840.0,36236.0,39232.0,0,0,0,0,37751.484375,-1804.0,-2128.0,-1923.0
2.0,0.005503127817064524,-0.0028155301697552204,0.5064840912818909,0.021268069744110107,-0.02997642755508423,0.4879308342933655,0.8318426609039307,-0.516563892364502,-1.4167354106903076,35356.0,41268.0,36490.0,37918.0,0,0,0,0,37758.55078125,-2028.0,-530.0,-1829.0
2.02,0.005078738555312157,-0.001770574483089149,0.5087489485740662,0.021268069744110107,-0.02997642755508423,0.4879308342933655,0.8639947175979614,-0.49684569239616394,-1.4012529850006104,35015.0,40805.0,36445.0,37899.0,0,0,0,0,37541.15234375,144.0,-822.0,-1798.0
2.04,0.004692384973168373,-0.0007893338333815336,0.5098993182182312,0.021268069744110107,-0.02997642755508423,0.4879308342933655,0.9306889176368713,-0.47312232851982117,-1.377803921699524,34941.0,41025.0,36529.0,37745.0,0,0,0,0,37560.8828125,-617.0,-3957.0,-1833.0
2.06,0.004339977633208036,0.0001273256348213181,0.5104796290397644,0.021268069744110107,-0.02997642755508423,0.4879308342933655,0.9651159048080444,-0.4840567708015442,-1.358223557472229,35347.0,41263.0,36437.0,37761.0,0,0,0,0,37702.578125,544.0,-4099.0,-1767.0
2.08,0.004683301784098148,0.0006113903364166617,0.5114708542823792,0.021268069744110107,-0.02997642755508423,0.4879308342933655,0.996214747428894,-0.4419853985309601,-1.3413188457489014,36550.0,39490.0,35378.0,39594.0,0,0,0,0,37753.05859375,176.0,-3202.0,-1796.0
2.1,0.005163877736777067,0.0009631506400182843,0.5124022960662842,0.021268069744110107,-0.02997642755508423,0.4879308342933655,1.0079030990600586,-0.3965798020362854,-1.318474292755127,36956.0,39942.0,35340.0,39606.0,0,0,0,0,37961.609375,527.0,-2987.0,-1797.0
2.12,0.004749543499201536,0.001961503876373172,0.5123461484909058,0.021268069744110107,-0.02997642755508423,0.4879308342933655,1.0133661031723022,-0.34572091698646545,-1.3028048276901245,34159.0,42915.0,38365.0,36569.0,0,0,0,0,38002.8046875,-588.0,1415.0,-1782.0
2.14,0.0054624914191663265,0.001391223631799221,0.5130874514579773,0.021268069744110107,-0.02997642755508423,0.4879308342933655,1.0237571001052856,-0.31021809577941895,-1.2860043048858643,34681.0,41695.0,37791.0,37889.0,0,0,0,0,38014.2109375,-1233.0,-1552.0,-1784.0
2.16,0.005338518880307674,0.001890558865852654,0.5134714841842651,0.021268069744110107,-0.02997642755508423,0.4879308342933655,0.9970690608024597,-0.3164234757423401,-1.2663925886154175,36820.0,39242.0,35672.0,40522.0,0,0,0,0,38064.59765625,-2537.0,-3313.0,-1465.0
2.18,0.01335775014013052,-0.013540851883590221,0.5144983530044556,0.016826927661895752,-0.02053992450237274,0.5203385353088379,1.1134532690048218,-0.36040395498275757,-1.2318261861801147,36814.0,42380.0,35658.0,37092.0,0,0,0,0,37986.265625,-1771.0,-129.0,-1781.0
2.2,0.01490834727883339,-0.01696782000362873,0.5165579915046692,0.01700139045715332,-0.021160706877708435,0.5211126208305359,1.0968561172485352,-0.31670081615448,-1.1878329515457153,33997.0,42403.0,37801.0,36591.0,0,0,0,0,37698.34765625,-185.0,-770.0,-1776.0
2.22,0.01536768488585949,-0.01710796169936657,0.5174442529678345,0.01700139045715332,-0.021160706877708435,0.5211126208305359,0.9554526805877686,-0.22041170299053192,-1.1761375665664673,34837.0,41227.0,36705.0,37859.0,0,0,0,0,37657.984375,-400.0,-1924.0,-1742.0
2.24,0.016216374933719635,-0.019342487677931786,0.5179939270019531,0.01736721396446228,-0.022700756788253784,0.522461473941803,0.6706812381744385,-0.07656543701887131,-1.179118037223816,35518.0,41784.0,36300.0,37326.0,0,0,0,0,37732.65625,-2302.0,-510.0,-1759.0
2.26,0.016756149008870125,-0.020987994968891144,0.5190580487251282,0.017623335123062134,-0.02332685887813568,0.523500919342041,0.33551931381225586,0.1396857053041458,-1.1261085271835327,35221.0,42157.0,36447.0,36943.0,0,0,0,0,37692.046875,-257.0,-1739.0,-1669.0
2.28,0.017268886789679527,-0.02225874364376068,0.5201496481895447,0.018030643463134766,-0.024110987782478333,0.5243383646011353,0.02714088000357151,0.2724394202232361,-1.1150108575820923,35457.0,40707.0,36055.0,38333.0,0,0,0,0,37638.1953125,368.0,-3776.0,-2378.0
2.3,0.017764970660209656,-0.023527348414063454,0.521202564239502,0.018305987119674683,-0.02504684031009674,0.52542644739151,-0.26802465319633484,0.4094357192516327,-1.1392310857772827,34736.0,39830.0,36712.0,39186.0,0,0,0,0,37616.46484375,-1676.0,-4036.0,-1813.0
2.32,0.018193382769823074,-0.02423478476703167,0.5220394134521484,0.018305987119674683,-0.02504684031009674,0.52542644739151,-0.5442421436309814,0.5361607670783997,-1.1471447944641113,35342.0,42546.0,36076.0,36408.0,0,0,0,0,37593.3046875,127.0,-3195.0,-1832.0
2.342,0.018376965075731277,-0.025087300688028336,0.5231432318687439,0.019679546356201172,-0.02701692283153534,0.5276150703430176,-0.7760071754455566,0.6503612995147705,-1.1381295919418335,34248.0,41488.0,35956.0,38720.0,0,0,0,0,37603.55859375,511.0,-34.0,-1765.0
2.36,0.01894042268395424,-0.025889422744512558,0.524171769618988,0.019679546356201172,-0.02701692283153534,0.5276150703430176,-1.0187623500823975,0.743237316608429,-1.1107300519943237,35731.0,41713.0,35029.0,38047.0,0,0,0,0,37630.30078125,-2901.0,-3007.0,-1887.0
2.38,0.019216280430555344,-0.026685670018196106,0.5248376727104187,0.019679546356201172,-0.02701692283153534,0.5276150703430176,-1.1809370517730713,0.8073273301124573,-1.1299748420715332,35828.0,40760.0,35900.0,38236.0,0,0,0,0,37681.9296875,217.0,-2354.0,-1695.0
2.4,0.019570941105484962,-0.027230380102992058,0.5255289673805237,0.019679546356201172,-0.02701692283153534,0.5276150703430176,-1.3132812976837158,0.8824580907821655,-1.119460105895996,35367.0,40667.0,36481.0,38389.0,0,0,0,0,37726.70703125,-957.0,-2911.0,-1699.0
2.42,0.01966596208512783,-0.027714861556887627,0.5263543725013733,0.019679546356201172,-0.02701692283153534,0.5276150703430176,-1.4433444738388062,0.9281798601150513,-1.1101233959197998,34779.0,40603.0,37153.0,38317.0,0,0,0,0,37713.3671875,-1162.0,-1039.0,-1568.0
2.44,0.01972712017595768,-0.028141668066382408,0.526981770992279,0.019679546356201172,-0.02701692283153534,0.5276150703430176,-1.536975383758545,0.9837630987167358,-1.0969910621643066,36381.0,40303.0,35669.0,38671.0,0,0,0,0,37756.83984375,-1598.0,409.0,-1930.0
2.46,0.01954139955341816,-0.0289028100669384,0.5280051231384277,0.018967002630233765,-0.029579713940620422,0.5303948521614075,-1.6188236474990845,0.9910722374916077,-1.0964256525039673,35397.0,40347.0,36493.0,38647.0,0,0,0,0,37721.40234375,-1236.0,-4237.0,-1670.0
2.48,0.019460055977106094,-0.02907504141330719,0.52858567237854,0.018967002630233765,-0.029579713940620422,0.5303948521614075,-1.6510353088378906,0.9592745304107666,-1.0818673372268677,35873.0,39945.0,36115.0,39095.0,0,0,0,0,37757.28515625,-1077.0,-1302.0,-1623.0
2.501,0.01931644417345524,-0.029133785516023636,0.5291277170181274,0.01837298274040222,-0.029761284589767456,0.5313451290130615,-1.6584761142730713,0.9601140022277832,-1.0706220865249634,35954.0,40798.0,35966.0,38290.0,0,0,0,0,37752.96484375,-470.0,-51.0,-1787.0
2.52,0.018768226727843285,-0.02919953502714634,0.5298396944999695,0.01837298274040222,-0.029761284589767456,0.5313451290130615,-1.6858607530593872,0.9104262590408325,-1.0290746688842773,36588.0,39216.0,35234.0,40070.0,0,0,0,0,37777.71484375,-1032.0,682.0,-2133.0
2.54,0.018079498782753944,-0.02918306179344654,0.5304197669029236,0.01773369312286377,-0.029683813452720642,0.5317420959472656,-1.6501044034957886,0.8575482964515686,-1.0444083213806152,34661.0,39453.0,37441.0,39933.0,0,0,0,0,37872.83984375,-2424.0,-1648.0,-1767.0
2.56,0.01782001368701458,-0.028707612305879593,0.530430793762207,0.01773369312286377,-0.029683813452720642,0.5317420959472656,-1.627176284790039,0.7891438603401184,-1.0438765287399292,34632.0,41712.0,37506.0,37670.0,0,0,0,0,37880.953125,-621.0,417.0,-1766.0
2.581,0.017400940880179405,-0.028305377811193466,0.5308419466018677,0.016076624393463135,-0.028509661555290222,0.5321968793869019,-1.6008164882659912,0.7442325353622437,-1.0332837104797363,34929.0,41931.0,37445.0,37227.0,0,0,0,0,37883.3984375,1316.0,-797.0,-1576.0
2.6,0.01652236096560955,-0.027903951704502106,0.5310906767845154,0.016076624393463135,-0.028509661555290222,0.5321968793869019,-1.5251868963241577,0.713802695274353,-1.001674771308899,35333.0,43185.0,36903.0,36303.0,0,0,0,0,37931.30078125,268.0,-941.0,-1770.0
2.62,0.01605876348912716,-0.027214763686060905,0.5314601063728333,0.016076624393463135,-0.028509661555290222,0.5321968793869019,-1.4554166793823242,0.7017098069190979,-1.0106874704360962,35738.0,41764.0,36816.0,37422.0,0,0,0,0,37935.9375,-563.0,-2787.0,-1635.0
2.64,0.01522896159440279,-0.02652936987578869,0.531471848487854,0.015004515647888184,-0.027002304792404175,0.5329254865646362,-1.4068427085876465,0.6147510409355164,-1.0034393072128296,36703.0,41305.0,35787.0,38157.0,0,0,0,0,37988.39453125,-1033.0,-1687.0,-1489.0
2.66,0.014797902666032314,-0.025706354528665543,0.5318011045455933,0.015004515647888184,-0.027002304792404175,0.5329254865646362,-1.3009440898895264,0.5484275221824646,-0.9764496684074402,36974.0,39978.0,35538.0,39398.0,0,0,0,0,37972.64453125,-1327.0,-373.0,-1313.0
2.68,0.013861129060387611,-0.02471957728266716,0.5305453538894653,0.01358795166015625,-0.02549247443675995,0.5334133505821228,-1.1512283086776733,0.4761483073234558,-0.9484179019927979,36532.0,41356.0,36430.0,38786.0,0,0,0,0,38276.59765625,-1969.0,-483.0,-1608.0
2.7,0.012935121543705463,-0.023776814341545105,0.5308399796485901,0.012827128171920776,-0.024488434195518494,0.5335520505905151,-1.0284345149993896,0.3870275914669037,-0.9301983118057251,35196.0,41140.0,37708.0,38892.0,0,0,0,0,38234.00390625,-3206.0,269.0,-1698.0
2.721,0.012178082019090652,-0.022563975304365158,0.5310370922088623,0.010474443435668945,-0.022781506180763245,0.5332034826278687,-0.9023589491844177,0.2768521308898926,-0.9277709126472473,34701.0,42809.0,38065.0,37501.0,0,0,0,0,38269.60546875,-1058.0,-5791.0,-1955.0
2.74,0.010948006063699722,-0.021631576120853424,0.5308696627616882,0.010474443435668945,-0.022781506180763245,0.5332034826278687,-0.7510762810707092,0.1509495973587036,-0.9038277864456177,36027.0,41151.0,36733.0,38925.0,0,0,0,0,38209.40234375,-1099.0,-4157.0,-1879.0
2.76,0.010054601356387138,-0.020507391542196274,0.531110942363739,0.010474443435668945,-0.022781506180763245,0.5332034826278687,-0.5925247669219971,0.07430228590965271,-0.91048264503479,36210.0,41698.0,36086.0,38046.0,0,0,0,0,38010.59765625,-1370.0,-1271.0,-1912.0
2.78,0.00953221321105957,-0.019122790545225143,0.5320742726325989,0.010474443435668945,-0.022781506180763245,0.5332034826278687,-0.47011181712150574,-0.022865736857056618,-0.9155078530311584,35045.0,42465.0,37345.0,36965.0,0,0,0,0,37955.6953125,-1105.0,-3797.0,-1742.0
2.8,0.008539781905710697,-0.017648877575993538,0.5324854254722595,0.010474443435668945,-0.022781506180763245,0.5332034826278687,-0.38547736406326294,-0.12186082452535629,-0.9144668579101562,36217.0,39681.0,35923.0,39771.0,0,0,0,0,37898.26171875,-857.0,-5251.0,-1790.0
2.82,0.007786635309457779,-0.01655515283346176,0.5322800874710083,0.00813940167427063,-0.017798393964767456,0.5353686809539795,-0.2630837857723236,-0.19260276854038239,-0.9544543027877808,36703.0,39915.0,35681.0,39673.0,0,0,0,0,37993.8984375,-784.0,-541.0,-1665.0
2.84,0.0069724684581160545,-0.015375152230262756,0.5328245162963867,0.007427304983139038,-0.016579806804656982,0.5357651710510254,-0.14847984910011292,-0.26396647095680237,-0.9477607607841492,35076.0,39422.0,37326.0,40080.0,0,0,0,0,37976.73828125,-1302.0,-5268.0,-1522.0
2.861,0.005940800998359919,-0.014186209067702293,0.5336481928825378,0.005003541707992554,-0.014709129929542542,0.5356866121292114,-0.03701615333557129,-0.359194815158844,-0.8960341215133667,35874.0,41020.0,36468.0,38166.0,0,0,0,0,37882.3515625,-1255.0,-435.0,-1597.0
2.88,0.0050580985844135284,-0.01275549829006195,0.5340873599052429,0.005003541707992554,-0.014709129929542542,0.5356866121292114,0.06330912560224533,-0.35496786236763,-0.8769718408584595,36709.0,40881.0,35477.0,38285.0,0,0,0,0,37838.41796875,-870.0,-518.0,-1602.0
2.9,0.0043203989043831825,-0.01150073017925024,0.5343083143234253,0.005003541707992554,-0.014709129929542542,0.5356866121292114,0.22079302370548248,-0.409952312707901,-0.8629154562950134,35161.0,40711.0,37117.0,38483.0,0,0,0,0,37868.0390625,401.0,-1332.0,-1616.0
2.92,0.00365151627920568,-0.010443570092320442,0.5348842144012451,0.004426628351211548,-0.011926203966140747,0.537636399269104,0.37939366698265076,-0.4987733066082001,-0.8706588745117188,34962.0,42180.0,37316.0,36966.0,0,0,0,0,37856.56640625,-545.0,217.0,-1506.0
2.94,0.003065391443669796,-0.009330124594271183,0.5354630947113037,0.0034731924533843994,-0.010847300291061401,0.5380363464355469,0.4564291834831238,-0.5391836762428284,-0.8469868898391724,35674.0,40602.0,36832.0,38584.0,0,0,0,0,37923.1328125,-375.0,-1314.0,-1533.0
2.96,0.0025234930217266083,-0.00806795246899128,0.535332441329956,0.0034731924533843994,-0.010847300291061401,0.5380363464355469,0.5588330030441284,-0.5764693021774292,-0.8213893175125122,35840.0,42556.0,36578.0,36710.0,0,0,0,0,37921.43359375,-64.0,-2523.0,-1570.0
2.98,0.0019904866348952055,-0.006829921156167984,0.5357069373130798,0.0034731924533843994,-0.010847300291061401,0.5380363464355469,0.6110594868659973,-0.6147382855415344,-0.808207631111145,37223.0,41027.0,35517.0,38709.0,0,0,0,0,38119.60546875,-701.0,-3186.0,-1657.0
3.0,0.0012527890503406525,-0.005791761912405491,0.5349205136299133,0.0034731924533843994,-0.010847300291061401,0.5380363464355469,0.7091426849365234,-0.617398738861084,-0.7964704632759094,25542.0,51486.0,47222.0,28142.0,0,0,0,0,38098.78125,-2964.0,-27199.0,-1543.0
3.02,0.0009230299037881196,-0.004605461377650499,0.5351845026016235,0.0034731924533843994,-0.010847300291061401,0.5380363464355469,0.7836343050003052,-0.6741695404052734,-0.7823750972747803,29785.0,44617.0,42651.0,35307.0,0,0,0,0,38090.37890625,2589.0,-2976.0,-1828.0
3.04,0.00047569561866112053,-0.0034913995768874884,0.5361812114715576,0.0034731924533843994,-0.010847300291061401,0.5380363464355469,0.8329581618309021,-0.979531466960907,-0.7782994508743286,39272.0,36246.0,32640.0,42934.0,0,0,0,0,37773.9765625,-1303.0,6364.0,-1564.0
3.06,0.00017166776524391025,-0.0033379942178726196,0.5368797779083252,0.000729680061340332,-0.005385607481002808,0.5409324169158936,0.7622210383415222,-2.789198637008667,-0.7670091986656189,43006.0,34640.0,28396.0,44158.0,0,0,0,0,37550.9921875,-3465.0,-890.0,-1486.0
3.08,-0.0001927942066686228,-0.002686640014871955,0.5375111103057861,0.000729680061340332,-0.005385607481002808,0.5409324169158936,0.7664968967437744,-5.634067058563232,-0.7321162819862366,37428.0,39242.0,33494.0,39444.0,0,0,0,0,37402.62890625,-2815.0,1706.0,-1828.0
3.1,-0.00016571606101933867,-0.0016902664210647345,0.5382385849952698,0.000729680061340332,-0.005385607481002808,0.5409324169158936,0.9069164991378784,-8.240614891052246,-0.7138508558273315,34606.0,39958.0,38088.0,36624.0,0,0,0,0,37319.4375,-2298.0,-2298.0,-1611.0
3.12,0.0006754121859557927,-0.0018336742650717497,0.5420091152191162,0.0018325746059417725,-0.0032737255096435547,0.5430610179901123,1.0483962297439575,-10.201713562011719,-0.6651023626327515,32375.0,38909.0,37685.0,38123.0,0,0,0,0,36773.3671875,1920.0,-3480.0,-1669.0
3.14,0.0024601342156529427,-0.0012109118979424238,0.543023407459259,0.003685474395751953,-0.002989739179611206,0.5442346334457397,1.0047118663787842,-11.5993070602417,-0.6485597491264343,34414.0,40614.0,35440.0,36884.0,0,0,0,0,36838.38671875,1745.0,-2460.0,-2153.0
3.16,0.004865423776209354,-0.0006922787870280445,0.5440068244934082,0.003685474395751953,-0.002989739179611206,0.5442346334457397,0.7935303449630737,-12.77938175201416,-0.6519135236740112,34597.0,39271.0,35017.0,37671.0,0,0,0,0,36639.2421875,-2501.0,-2517.0,-1904.0
3.18,0.0079423226416111,-0.0007156214560382068,0.5467219352722168,0.007858812808990479,-0.0020107030868530273,0.5454105734825134,0.6243181228637695,-13.858322143554688,-0.6436087489128113,35213.0,40965.0,34735.0,36451.0,0,0,0,0,36841.859375,-1255.0,-1077.0,-1915.0
3.2,0.011677362956106663,-0.0003374104271642864,0.5475060939788818,0.007858812808990479,-0.0020107030868530273,0.5454105734825134,0.5746949315071106,-14.83555793762207,-0.6515868902206421,35874.0,40060.0,34348.0,37534.0,0,0,0,0,36954.82421875,-900.0,-197.0,-1909.0
3.22,0.01645790785551071,3.448185452725738e-05,0.5489561557769775,0.007858812808990479,-0.0020107030868530273,0.5454105734825134,0.539101779460907,-15.724054336547852,-0.662987232208252,36642.0,41330.0,34272.0,36952.0,0,0,0,0,37299.6171875,1656.0,-416.0,-1818.0
3.24,0.022167261689901352,0.0003217153425794095,0.5492831468582153,0.024484187364578247,-0.0024021267890930176,0.5456438660621643,0.5353248715400696,-16.41384506225586,-0.6693636178970337,36678.0,39348.0,35118.0,39688.0,0,0,0,0,37708.65234375,-854.0,-3716.0,-1843.0
3.26,0.029528776183724403,-9.43075428949669e-05,0.5502399802207947,0.024484187364578247,-0.0024021267890930176,0.5456438660621643,0.514609158039093,-16.8156795501709,-0.6558681726455688,35723.0,40759.0,36599.0,38467.0,0,0,0,0,37887.97265625,-1442.0,-1431.0,-1655.0
3.28,0.038086045533418655,-0.00011028216249542311,0.5498086214065552,0.035650819540023804,-0.001165151596069336,0.544987678527832,0.45556196570396423,-16.87919807434082,-0.6443402171134949,36429.0,41559.0,36521.0,38515.0,0,0,0,0,38256.53125,-1513.0,-3866.0,-1807.0
3.3,0.047607097774744034,1.644739313633181e-05,0.5497385263442993,0.035650819540023804,-0.001165151596069336,0.544987678527832,0.37760117650032043,-16.66379165649414,-0.6423971652984619,34736.0,42252.0,38722.0,38142.0,0,0,0,0,38463.52734375,-1158.0,-5510.0,-1703.0
3.32,0.05773068219423294,1.845033148129005e-05,0.5491407513618469,0.035650819540023804,-0.001165151596069336,0.544987678527832,0.31817111372947693,-16.1466064453125,-0.640417754650116,36130.0,41808.0,37626.0,39300.0,0,0,0,0,38716.921875,-553.0,-1553.0,-1974.0
3.34,0.06953496485948563,-0.00011793917656177655,0.5489780306816101,0.06461736559867859,-0.0012125074863433838,0.5420200824737549,0.21592925488948822,-15.436203002929688,-0.6729297041893005,35388.0,41056.0,38458.0,40090.0,0,0,0,0,38748.1796875,-1340.0,-5947.0,-1954.0
3.36,0.08170317858457565,-0.00031885833595879376,0.5482216477394104,0.06461736559867859,-0.0012125074863433838,0.5420200824737549,0.13005496561527252,-14.581515312194824,-0.6833349466323853,35462.0,41894.0,38544.0,39540.0,0,0,0,0,38860.26953125,-394.0,-4021.0,-1977.0
3.38,0.09473244100809097,-0.00047891089343465865,0.5474388599395752,0.06461736559867859,-0.0012125074863433838,0.5420200824737549,0.09554442018270493,-13.450716018676758,-0.6929054856300354,35418.0,43396.0,38942.0,38360.0,0,0,0,0,39029.09375,-998.0,-8438.0,-1858.0
3.4,0.10907942801713943,-0.0007700761198066175,0.5456292629241943,0.10229513049125671,-0.0017496943473815918,0.5377973914146423,0.020982854068279266,-12.251236915588379,-0.7004558444023132,35066.0,41616.0,39406.0,40252.0,0,0,0,0,39085.76953125,222.0,-1644.0,-1933.0
3.42,0.12411660701036453,-0.0011446805438026786,0.5443503260612488,0.11624199151992798,-0.001839563250541687,0.5363146066665649,-0.017384637147188187,-10.862685203552246,-0.7255964279174805,33652.0,45620.0,41960.0,37040.0,0,0,0,0,39568.828125,133.0,-1140.0,-1687.0
3.44,0.1397922933101654,-0.0014314844738692045,0.5407894849777222,0.13116160035133362,-0.0019248872995376587,0.5349962711334229,-0.09300059080123901,-9.456841468811035,-0.7326333522796631,34805.0,44851.0,40423.0,37881.0,0,0,0,0,39490.796875,-175.0,-10396.0,-1740.0
3.46,0.1567787528038025,-0.001663302886299789,0.5394997000694275,0.14668256044387817,-0.0021326541900634766,0.5337612628936768,-0.1374269723892212,-7.8889570236206055,-0.7310338616371155,34674.0,44022.0,40144.0,38552.0,0,0,0,0,39348.16796875,-1362.0,-1321.0,-1850.0
3.48,0.17345216870307922,-0.0018857852555811405,0.5343371629714966,0.14668256044387817,-0.0021326541900634766,0.5337612628936768,-0.17227184772491455,-6.30782413482666,-0.7202523946762085,36470.0,44252.0,39630.0,39572.0,0,0,0,0,39981.6640625,-540.0,-3536.0,-1864.0
3.5,0.19127199053764343,-0.0022816744167357683,0.5332446694374084,0.14668256044387817,-0.0021326541900634766,0.5337612628936768,-0.17862842977046967,-4.799984455108643,-0.715934693813324,34810.0,45674.0,40924.0,37368.0,0,0,0,0,39694.5390625,-2300.0,-3244.0,-1943.0
3.52,0.20970328152179718,-0.002436605282127857,0.5315861105918884,0.20428624749183655,-0.005703195929527283,0.531482458114624,-0.19347140192985535,-3.219365119934082,-0.7142791748046875,35727.0,42385.0,39301.0,40591.0,0,0,0,0,39501.56640625,-160.0,109.0,-2102.0
3.54,0.22596077620983124,-0.0032562825363129377,0.5311223268508911,0.20428624749183655,-0.005703195929527283,0.531482458114624,-0.225591242313385,-1.5723189115524292,-0.6989648342132568,34462.0,44606.0,39704.0,37636.0,0,0,0,0,39102.59375,-1393.0,-4721.0,-1951.0
3.56,0.24493858218193054,-0.0034453067928552628,0.5292091369628906,0.23796644806861877,-0.006016567349433899,0.531582772731781,-0.2428084909915924,-0.17981389164924622,-0.7211215496063232,33645.0,44109.0,40411.0,37899.0,0,0,0,0,39016.64453125,-2144.0,-4497.0,-2022.0
3.58,0.26054662466049194,-0.003931778948754072,0.5293565392494202,0.23796644806861877,-0.006016567349433899,0.531582772731781,-0.21924032270908356,1.4230988025665283,-0.687106192111969,36018.0,41478.0,37198.0,39878.0,0,0,0,0,38643.19140625,320.0,-3372.0,-2033.0
3.6,0.2782801687717438,-0.004008974879980087,0.5296387076377869,0.23796644806861877,-0.006016567349433899,0.531582772731781,-0.2434907853603363,2.8440420627593994,-0.7074854969978333,32724.0,42740.0,39264.0,37520.0,0,0,0,0,38062.20703125,855.0,-6997.0,-2033.0
3.62,0.2942884862422943,-0.003969572018831968,0.5315899848937988,0.2791339159011841,-0.003138616681098938,0.5335584282875061,-0.3041332960128784,4.095818996429443,-0.7230631113052368,33451.0,43547.0,38049.0,36001.0,0,0,0,0,37762.671875,-245.0,-5374.0,-2026.0
3.64,0.31071898341178894,-0.004026136826723814,0.5325356125831604,0.295158714056015,-0.003249123692512512,0.5351356863975525,-0.34684517979621887,5.302797317504883,-0.7350592017173767,33362.0,40820.0,36618.0,36924.0,0,0,0,0,36931.51953125,560.0,-3045.0,-1996.0
3.66,0.32615983486175537,-0.0039018229581415653,0.5367165803909302,0.31053754687309265,-0.00336572527885437,0.536420464515686,-0.36329522728919983,6.500694274902344,-0.7140381932258606,33108.0,41114.0,36534.0,36360.0,0,0,0,0,36779.98828125,-734.0,-3895.0,-1936.0
3.68,0.34279459714889526,-0.003962503746151924,0.5381179451942444,0.31053754687309265,-0.00336572527885437,0.536420464515686,-0.35367462038993835,7.520044803619385,-0.7221091985702515,33084.0,40428.0,36504.0,36880.0,0,0,0,0,36724.6640625,-240.0,-3930.0,-1995.0
3.7,0.35654640197753906,-0.0038611770141869783,0.5425158143043518,0.3396100699901581,-0.0034441500902175903,0.5394149422645569,-0.3182061016559601,8.468706130981445,-0.7489516139030457,31889.0,39711.0,36585.0,36483.0,0,0,0,0,36167.90625,528.0,-4917.0,-1911.0
3.72,0.37146681547164917,-0.0038589206524193287,0.5441712141036987,0.3592514991760254,-0.006124183535575867,0.5414296388626099,-0.2872356176376343,9.209446907043457,-0.743992269039154,32061.0,43475.0,36469.0,33079.0,0,0,0,0,36271.51953125,-243.0,-3451.0,-1975.0
3.74,0.3837478756904602,-0.00419216463342309,0.5497832894325256,0.3717142641544342,-0.005831524729728699,0.5428017377853394,-0.23427718877792358,9.862749099731445,-0.7272078394889832,32191.0,39317.0,35667.0,35317.0,0,0,0,0,35623.1953125,-1893.0,-3993.0,-1944.0
3.76,0.395571768283844,-0.004446965642273426,0.5512629151344299,0.3717142641544342,-0.005831524729728699,0.5428017377853394,-0.16535615921020508,10.404738426208496,-0.6514708995819092,32455.0,39739.0,34875.0,36187.0,0,0,0,0,35814.82421875,-245.0,-4075.0,-1911.0
3.78,0.40631434321403503,-0.004304951056838036,0.5538886785507202,0.3890235126018524,-0.0034603923559188843,0.544423520565033,-0.10061009228229523,10.797520637512207,-0.6710646748542786,32634.0,38620.0,35158.0,36992.0,0,0,0,0,35851.99609375,-831.0,-3619.0,-1879.0
3.8,0.4162924587726593,-0.00406706053763628,0.5548604130744934,0.39962172508239746,-0.003578752279281616,0.544847846031189,-0.08762694895267487,11.039950370788574,-0.6505236625671387,33644.0,40066.0,34432.0,36786.0,0,0,0,0,36232.296875,-1301.0,-3459.0,-1939.0
3.82,0.42756834626197815,-0.0039968634955585,0.5559124946594238,0.39962172508239746,-0.003578752279281616,0.544847846031189,-0.1041894480586052,11.10210132598877,-0.6634086966514587,34053.0,40119.0,35433.0,36707.0,0,0,0,0,36578.2890625,-1348.0,-1353.0,-1837.0
3.84,0.4355085492134094,-0.003987948410212994,0.5561034083366394,0.422218918800354,-0.004727184772491455,0.5448360443115234,-0.06488987803459167,11.140155792236328,-0.6190885901451111,34576.0,40344.0,35976.0,37224.0,0,0,0,0,37030.5234375,364.0,-5426.0,-1729.0
3.86,0.44489696621894836,-0.0038605257868766785,0.5564002990722656,0.422218918800354,-0.004727184772491455,0.5448360443115234,-0.04913829639554024,11.045449256896973,-0.5985957980155945,35490.0,39064.0,38076.0,38206.0,0,0,0,0,37709.98828125,261.0,-2842.0,-1696.0
3.88,0.451121062040329,-0.0036667396780103445,0.5541773438453674,0.43359827995300293,-0.0033190399408340454,0.5436071157455444,-0.09056445956230164,10.961236000061035,-0.5349883437156677,35742.0,41300.0,36998.0,38460.0,0,0,0,0,38125.625,60.0,-640.0,-1670.0
3.9,0.45939135551452637,-0.0035335910506546497,0.5536789894104004,0.43359827995300293,-0.0033190399408340454,0.5436071157455444,-0.09162785857915878,10.705538749694824,-0.5188882350921631,35712.0,43332.0,38172.0,37032.0,0,0,0,0,38562.45703125,546.0,-2895.0,-1613.0
3.92,0.46670401096343994,-0.0032630383502691984,0.5520825982093811,0.43359827995300293,-0.0033190399408340454,0.5436071157455444,-0.0753454938530922,10.390207290649414,-0.48850154876708984,37848.0,39668.0,37856.0,39684.0,0,0,0,0,38764.453125,-1185.0,-2726.0,-1614.0
3.94,0.4697251319885254,-0.0030256325844675303,0.5506507158279419,0.45063602924346924,-0.0032421648502349854,0.5395204424858093,-0.1066906675696373,10.067826271057129,-0.42345571517944336,36084.0,40854.0,39498.0,39344.0,0,0,0,0,38945.3515625,-2937.0,-1732.0,-1603.0
3.96,0.4722173810005188,-0.0028284539002925158,0.5473810434341431,0.4549700915813446,-0.0032425373792648315,0.537945568561554,-0.08220243453979492,9.735418319702148,-0.3778899908065796,37976.0,42348.0,37694.0,39646.0,0,0,0,0,39416.1015625,-859.0,-4347.0,-1596.0
3.98,0.477114737033844,-0.002672143280506134,0.5461621284484863,0.45972368121147156,-0.003345310688018799,0.5350699424743652,-0.0057119810953736305,9.241594314575195,-0.3571859300136566,37783.0,41529.0,37701.0,40979.0,0,0,0,0,39498.8828125,331.0,-2896.0,-1687.0
4.0,0.4782769978046417,-0.002630701521411538,0.5421611070632935,0.45972368121147156,-0.003345310688018799,0.5350699424743652,0.028180528432130814,8.76831340789795,-0.34155839681625366,40753.0,42311.0,35587.0,40969.0,0,0,0,0,39905.62109375,-540.0,1205.0,-1810.0
4.02,0.4815447926521301,-0.0023451033048331738,0.5407940745353699,0.45972368121147156,-0.003345310688018799,0.5350699424743652,0.009657341986894608,8.145865440368652,-0.35891810059547424,37909.0,43913.0,38191.0,38999.0,0,0,0,0,39753.30859375,-369.0,-3603.0,-1706.0
4.04,0.4845937490463257,-0.0022560448851436377,0.5377289056777954,0.45972368121147156,-0.003345310688018799,0.5350699424743652,0.06368249654769897,7.4048943519592285,-0.38469746708869934,35786.0,42604.0,40832.0,40486.0,0,0,0,0,39927.2421875,-703.0,-2622.0,-1685.0
4.06,0.48615434765815735,-0.002086565364152193,0.5365445017814636,0.45972368121147156,-0.003345310688018799,0.5350699424743652,0.07241272926330566,6.743293285369873,-0.38016000390052795,37001.0,44039.0,38921.0,38887.0,0,0,0,0,39712.55078125,-525.0,231.0,-1721.0
4.08,0.4881625473499298,-0.002076517790555954,0.5355464816093445,0.45972368121147156,-0.003345310688018799,0.5350699424743652,0.0788465216755867,6.044370651245117,-0.374253511428833,36078.0,43426.0,40454.0,39998.0,0,0,0,0,39989.83984375,524.0,-4311.0,-1696.0
4.1,0.4889691472053528,-0.0019037224119529128,0.5319169163703918,0.45972368121147156,-0.003345310688018799,0.5350699424743652,0.06555651128292084,5.4190263748168945,-0.3669250011444092,39413.0,40103.0,36777.0,42679.0,0,0,0,0,39743.51953125,253.0,771.0,-1736.0
4.12,0.48986703157424927,-0.001972970785573125,0.5311614871025085,0.45972368121147156,-0.003345310688018799,0.5350699424743652,0.06142552196979523,4.827081203460693,-0.35572826862335205,37123.0,42605.0,38957.0,40523.0,0,0,0,0,39802.5078125,-1682.0,-1045.0,-1796.0
4.14,0.4899943768978119,-0.0015883732121437788,0.5288415551185608,0.45972368121147156,-0.003345310688018799,0.5350699424743652,0.040793828666210175,4.1464056968688965,-0.36472657322883606,37640.0,43272.0,38038.0,39186.0,0,0,0,0,39534.1796875,-769.0,-1606.0,-1730.0
4.16,0.4816874563694,-0.002183827804401517,0.5283553004264832,0.4621259570121765,-0.0032974928617477417,0.5274038910865784,0.041198067367076874,3.682453155517578,-0.34186744689941406,36995.0,43865.0,38125.0,38099.0,0,0,0,0,39271.1171875,-769.0,-4820.0,-1699.0
4.18,0.48072102665901184,-0.0021161832846701145,0.5262937545776367,0.4621259570121765,-0.0032974928617477417,0.5274038910865784,0.06341584026813507,3.0943100452423096,-0.34231579303741455,37109.0,43371.0,38217.0,38719.0,0,0,0,0,39354.52734375,-826.0,34.0,-1765.0
4.2,0.47948530316352844,-0.0020136761013418436,0.5261163711547852,0.4621259570121765,-0.0032974928617477417,0.5274038910865784,0.07809985429048538,2.504075527191162,-0.3390204906463623,36586.0,41832.0,37956.0,40014.0,0,0,0,0,39097.0546875,-2117.0,-2305.0,-1787.0
4.22,0.47871142625808716,-0.0019220956601202488,0.5267629027366638,0.4621259570121765,-0.0032974928617477417,0.5274038910865784,0.06687862426042557,1.801888346672058,-0.3868103325366974,38172.0,39342.0,35664.0,41642.0,0,0,0,0,38705.95703125,-1735.0,-424.0,-1836.0
4.24,0.4768235385417938,-0.002098012249916792,0.5270934700965881,0.4621259570121765,-0.0032974928617477417,0.5274038910865784,0.08215181529521942,1.1873431205749512,-0.38463205099105835,36245.0,41611.0,36885.0,39007.0,0,0,0,0,38437.65234375,-1391.0,-353.0,-1846.0
4.26,0.4758851230144501,-0.0020497706718742847,0.5276280045509338,0.4621259570121765,-0.0032974928617477417,0.5274038910865784,0.09964828193187714,0.4696531593799591,-0.44314584136009216,36158.0,42610.0,37484.0,38424.0,0,0,0,0,38669.59765625,-2496.0,-1918.0,-1851.0
4.28,0.47441062331199646,-0.0020653102546930313,0.5257211923599243,0.4621259570121765,-0.0032974928617477417,0.5274038910865784,0.11369513720273972,-0.13799236714839935,-0.44676506519317627,36807.0,40819.0,36419.0,39995.0,0,0,0,0,38510.515625,1277.0,-1979.0,-1857.0
4.3,0.47287717461586,-0.0018506271298974752,0.5262624621391296,0.4621259570121765,-0.0032974928617477417,0.5274038910865784,0.11164209991693497,-0.6209302544593811,-0.46560734510421753,35479.0,41129.0,34893.0,40831.0,0,0,0,0,38083.09375,-1589.0,-3753.0,-1900.0
4.32,0.4617924094200134,-0.0027155571151524782,0.5285778641700745,0.44630274176597595,-0.0046110600233078,0.5347885489463806,0.036470647901296616,-0.9789317846298218,-0.5135913491249084,34888.0,41296.0,37026.0,38514.0,0,0,0,0,37931.05078125,-2041.0,-6304.0,-1879.0
4.34,0.45964887738227844,-0.0029243130702525377,0.5294595956802368,0.44630274176597595,-0.0046110600233078,0.5347885489463806,0.039153024554252625,-1.4451425075531006,-0.5332109332084656,34311.0,41355.0,36945.0,37525.0,0,0,0,0,37534.41015625,-994.0,1150.0,-1988.0
4.36,0.45777449011802673,-0.0027767878491431475,0.531953752040863,0.44630274176597595,-0.0046110600233078,0.5347885489463806,0.010050090961158276,-1.887375831604004,-0.5693314075469971,35232.0,41006.0,33788.0,39558.0,0,0,0,0,37396.40234375,-395.0,-4060.0,-1984.0
4.38,0.4504944682121277,-0.003435497172176838,0.5333893299102783,0.44060462713241577,-0.005213886499404907,0.540076494216919,-0.03921191766858101,-2.325920581817627,-0.6130328178405762,34872.0,41896.0,36016.0,36664.0,0,0,0,0,37362.67578125,-378.0,-2078.0,-1903.0
4.4,0.4490993916988373,-0.003413774771615863,0.535219669342041,0.43852826952934265,-0.005561560392379761,0.5428611636161804,-0.07698734104633331,-2.706399440765381,-0.6076160669326782,34181.0,39801.0,36443.0,38351.0,0,0,0,0,37194.21484375,-210.0,-2427.0,-964.0
4.42,0.44293636083602905,-0.004510478116571903,0.536975622177124,0.4372585117816925,-0.005803689360618591,0.5446894764900208,-0.055462729185819626,-3.00996994972229,-0.49794748425483704,35435.0,40557.0,35015.0,37789.0,0,0,0,0,37199.73828125,-443.0,-1119.0,-1963.0
4.44,0.44149455428123474,-0.00451353145763278,0.5393152832984924,0.4372585117816925,-0.005803689360618591,0.5446894764900208,-0.08958671987056732,-3.3454387187957764,-0.5357986092567444,33676.0,43220.0,35146.0,35962.0,0,0,0,0,37001.55078125,-843.0,1195.0,-1969.0
4.46,0.43899574875831604,-0.004912694450467825,0.540691077709198,0.43565016984939575,-0.005964711308479309,0.546820878982544,-0.12086743116378784,-3.6199018955230713,-0.5667786598205566,34420.0,39576.0,34878.0,39350.0,0,0,0,0,37056.33984375,-2911.0,-2568.0,-1827.0
4.48,0.43728962540626526,-0.005185401067137718,0.5419947504997253,0.4351499378681183,-0.006250903010368347,0.5482717752456665,-0.13863471150398254,-3.8788504600524902,-0.582098662853241,34233.0,39673.0,35343.0,39307.0,0,0,0,0,37139.7890625,-2010.0,-922.0,-1880.0
4.5,0.4361494481563568,-0.005412330385297537,0.5431506037712097,0.4349493980407715,-0.006447926163673401,0.5497597455978394,-0.18050159513950348,-4.1222028732299805,-0.5945965051651001,34480.0,41176.0,36330.0,37126.0,0,0,0,0,37278.96484375,-266.0,-2435.0,-1853.0
