time,x_kalman,y_kalman,z_kalman,x_lh,y_lh,z_lh,roll,pitch,yaw,motor.m1,motor.m2,motor.m3,motor.m4,stabilizer.thrust,stabilizer.roll,stabilizer.pitch,stabilizer.yaw
0.0,0.0005513495998457074,-0.0007021154160611331,0.01966497302055359,0.0,0.0,0.0,-1.0713274478912354,0.9872577786445618,0.010707545094192028,53485.0,54403.0,55997.0,54099.0,54694.90625,-1.1565114259719849,0.9351204037666321,0.017225613817572594
0.02,0.0005210634553804994,0.0013812943361699581,0.019999545067548752,0.0,0.0,0.0,-1.1540765762329102,1.0052028894424438,0.015864985063672066,53155.0,54093.0,56289.0,55823.0,55025.125,-1.0999352931976318,1.033509373664856,0.008365959860384464
0.04,0.0003697702777571976,-0.0006624622619710863,0.02001180499792099,0.0,0.0,0.0,-1.057822585105896,1.013536810874939,0.008256514556705952,54192.0,56802.0,56246.0,53696.0,55418.8984375,-1.0799700021743774,1.0183643102645874,0.020133091136813164
0.06,0.0014409066643565893,0.0011682850308716297,0.01898523047566414,0.0,0.0,0.0,-1.1037414073944092,0.9533101320266724,0.02022048458456993,55314.0,60494.0,56144.0,51200.0,55823.08984375,-1.0345425605773926,1.0295583009719849,0.027519848197698593
0.08,-4.6035071136429906e-05,0.002487702528014779,0.019062668085098267,0.0,0.0,0.0,-1.0104382038116455,1.179992914199829,0.02877110056579113,53183.0,58825.0,57713.0,52727.0,55038.828125,-0.8164610266685486,1.3817265033721924,0.032323118299245834
0.1,-0.0001602613046998158,0.004372701980173588,0.020081741735339165,0.0,0.0,0.0,-0.6070796847343445,1.5948028564453125,0.029018687084317207,52212.0,54138.0,54872.0,55214.0,52968.3125,-0.4827210307121277,1.8220362663269043,0.014797915704548359
0.12,-0.0005872580222785473,0.005700611509382725,0.01993870921432972,0.0,0.0,0.0,-0.33470889925956726,1.907299518585205,-0.030249742791056633,49065.0,54585.0,54551.0,50791.0,50796.19921875,-0.19142483174800873,1.8399229049682617,-0.07260765135288239
0.14,0.007239030674099922,0.003449352690950036,0.025359220802783966,0.0,0.0,0.0,-0.02811504155397415,1.410399079322815,-0.10894204676151276,50298.0,52372.0,48044.0,46302.0,47737.015625,0.0804128423333168,1.4477427005767822,-0.13688142597675323
0.16,0.006076245103031397,0.0024232782889157534,0.03277067840099335,0.0,0.0,0.0,0.1303861141204834,1.3664898872375488,-0.1373494565486908,45239.0,48163.0,46947.0,44371.0,44647.5703125,0.3243841826915741,1.5017660856246948,-0.13622212409973145
0.18,0.005116700194776058,0.0011119290720671415,0.042580727487802505,0.0,0.0,0.0,0.4223099946975708,1.400523066520691,-0.1398586928844452,43162.0,44370.0,43264.0,42160.0,43239.21875,0.5185275673866272,1.3246173858642578,-0.14771033823490143
0.2,0.007123792078346014,0.0009952359832823277,0.05412573367357254,0.0,0.0,0.0,0.569913923740387,1.3365240097045898,-0.14193756878376007,42130.0,40900.0,39262.0,40964.0,40814.56640625,0.586983323097229,1.1839414834976196,-0.13792115449905396
0.22,0.009642894379794598,0.0007631306652911007,0.06621041148900986,0.0,0.0,0.0,0.612346887588501,1.0998317003250122,-0.13780717551708221,38731.0,40621.0,39351.0,37553.0,39064.8828125,0.6472985148429871,1.018722414970398,-0.13569550216197968
0.24,0.007371897343546152,0.0005823640967719257,0.08003497868776321,0.0,0.0,0.0,0.6404727101325989,0.9643563032150269,-0.12477633357048035,36060.0,39346.0,39632.0,35730.0,37692.3515625,0.5902799367904663,0.8767407536506653,-0.11482445150613785
0.26,0.007776378653943539,-0.0035072520840913057,0.09419666230678558,0.0,0.0,0.0,0.7868313193321228,0.8794963359832764,-0.10652383416891098,35194.0,37016.0,36268.0,33910.0,35597.14453125,0.7805648446083069,0.9302808046340942,-0.09324312210083008
0.28,0.006438617128878832,-0.0033890109043568373,0.11538087576627731,0.0,0.0,0.0,0.7445393800735474,0.9808194041252136,-0.07601101696491241,35170.0,36774.0,35272.0,33072.0,35072.86328125,0.6852928996086121,0.9598175883293152,-0.06505681574344635
0.3,0.006822411902248859,-0.002882918808609247,0.1303938627243042,0.0,0.0,0.0,0.6364750862121582,0.9532458186149597,-0.05065121501684189,34470.0,35908.0,35412.0,33522.0,34828.28515625,0.5337900519371033,0.9383033514022827,-0.03220793604850769
0.32,0.006824855227023363,-0.0016134025063365698,0.14694833755493164,0.0,0.0,0.0,0.42930886149406433,0.8598082065582275,-0.022407280281186104,34909.0,33863.0,34477.0,34815.0,34516.78515625,0.45621174573898315,0.7633357048034668,-0.013817960396409035
0.34,0.007222580257803202,-0.003811553353443742,0.1609218865633011,0.0,0.0,0.0,0.3404042422771454,0.6437437534332275,0.0009362187120132148,35068.0,34808.0,34628.0,34488.0,34748.5,0.2523760199546814,0.5024867653846741,0.01515613030642271
0.36,0.007013218943029642,-0.003911173436790705,0.17428258061408997,0.0,0.0,0.0,0.16982927918434143,0.389111191034317,0.026029614731669426,34335.0,33905.0,34669.0,34195.0,34276.828125,0.2552810311317444,0.2496194988489151,0.030939891934394836
0.38,0.006563055329024792,-0.009255534037947655,0.1920374631881714,0.0,0.0,0.0,0.19453643262386322,0.13783156871795654,0.04417036101222038,35560.0,35712.0,34444.0,33092.0,34702.91015625,0.11818670481443405,0.046352554112672806,0.05832408368587494
0.4,0.006639854516834021,-0.009089491330087185,0.20441752672195435,0.0,0.0,0.0,0.0020363484509289265,-0.04797209054231644,0.07374649494886398,35591.0,34905.0,35111.0,34969.0,35144.9921875,-0.09696530550718307,-0.0950930193066597,0.09468197077512741
0.42,0.006275482475757599,-0.00859843660145998,0.21162377297878265,0.0,0.0,0.0,-0.17671142518520355,-0.1374252289533615,0.10878095775842667,35977.0,36411.0,37051.0,35941.0,36345.140625,-0.28640279173851013,-0.18911001086235046,0.12020078301429749
0.44,0.007741380017250776,-0.008618677966296673,0.2219647616147995,0.0,0.0,0.0,-0.41631269454956055,-0.27966195344924927,0.12448256462812424,37295.0,36329.0,37081.0,37075.0,36945.421875,-0.5360108613967896,-0.34089234471321106,0.13242122530937195
0.46,0.007805968634784222,-0.013909273780882359,0.23057454824447632,0.0,0.0,0.0,-0.49221616983413696,-0.38496965169906616,0.14607827365398407,38673.0,37729.0,37137.0,37069.0,37652.45703125,-0.5847671627998352,-0.4161534309387207,0.1606331765651703
0.48,0.007509088609367609,-0.014528411440551281,0.23934069275856018,0.0,0.0,0.0,-0.6497043371200562,-0.40748873353004456,0.1737108826637268,38555.0,37731.0,38239.0,38131.0,38164.68359375,-0.7117597460746765,-0.38204219937324524,0.18495990335941315
0.5,0.006948930211365223,-0.015190774574875832,0.2474757432937622,0.0,0.0,0.0,-0.7660329937934875,-0.3627539277076721,0.1928427666425705,38328.0,39240.0,39090.0,37810.0,38617.953125,-0.8174620270729065,-0.3397028148174286,0.1941891461610794
0.52,0.0070513347163796425,-0.016020456328988075,0.25133875012397766,0.0,0.0,0.0,-0.9066604971885681,-0.30826565623283386,0.18945392966270447,39082.0,40570.0,40238.0,38358.0,39562.44140625,-0.9946419596672058,-0.3174015283584595,0.1802769899368286
0.54,0.00784507766366005,-0.016550935804843903,0.25815051794052124,0.0,0.0,0.0,-1.0546702146530151,-0.28307443857192993,0.1779380440711975,40195.0,40729.0,39825.0,38795.0,39886.69140625,-1.1407557725906372,-0.23521649837493896,0.17310397326946259
0.56,0.006843470502644777,-0.016603508964180946,0.2653576135635376,0.0,0.0,0.0,-1.239678144454956,-0.17404066026210785,0.17125076055526733,40788.0,43568.0,39416.0,36248.0,40005.78125,-1.297898292541504,-0.14183616638183594,0.17412087321281433
0.58,0.007432172540575266,-0.016888892278075218,0.27156543731689453,0.0,0.0,0.0,-1.315861463546753,-0.12740971148014069,0.171014204621315,39452.0,39520.0,40966.0,40586.0,40131.1875,-1.3886611461639404,-0.08831893652677536,0.16016553342342377
0.6,0.006526438519358635,-0.014545406214892864,0.2775745391845703,0.0,0.0,0.0,-1.4382704496383667,-0.06523817777633667,0.1532619595527649,39022.0,41460.0,41394.0,38956.0,40208.125,-1.4176057577133179,-0.04901121184229851,0.14851433038711548
0.62,0.006141691468656063,-0.016551613807678223,0.28309327363967896,0.0,0.0,0.0,-1.4380842447280884,-0.022315306589007378,0.139547660946846,40396.0,40790.0,40320.0,39510.0,40254.84765625,-1.4743146896362305,-0.006481647025793791,0.12589414417743683
0.64,0.00661769462749362,-0.015324205160140991,0.28878024220466614,0.0,0.0,0.0,-1.4411201477050781,-0.020089125260710716,0.12534454464912415,39027.0,41645.0,41587.0,38657.0,40229.9375,-1.4079984426498413,0.026464642956852913,0.12027742713689804
0.66,0.006360454950481653,-0.014919593930244446,0.29437801241874695,0.0,0.0,0.0,-1.380624771118164,0.044311974197626114,0.11646314710378647,40083.0,40621.0,39985.0,39119.0,39952.5703125,-1.2973307371139526,0.09028108417987823,0.11722709238529205
0.68,0.006234586704522371,-0.015354189090430737,0.3014261722564697,0.0,0.0,0.0,-1.278210997581482,0.10659515857696533,0.11449191719293594,39274.0,39964.0,40580.0,39690.0,39877.65234375,-1.2326223850250244,0.13361558318138123,0.11330856382846832
0.7,0.00689533120021224,-0.01506078988313675,0.3070095181465149,0.0,0.0,0.0,-1.2140841484069824,0.10669130086898804,0.1076722964644432,40090.0,40506.0,39574.0,39058.0,39807.23046875,-1.1129026412963867,0.12020406872034073,0.10570335388183594
0.72,0.00565587542951107,-0.01808410882949829,0.31218117475509644,0.0,0.0,0.0,-1.088988184928894,0.09975390881299973,0.09983158111572266,39570.0,41338.0,40140.0,38268.0,39829.0078125,-1.1217418909072876,0.08430104702711105,0.09132970124483109
0.74,0.005480926018208265,-0.01580488122999668,0.3175261616706848,0.0,0.0,0.0,-1.0869858264923096,0.09966485947370529,0.0871504694223404,38644.0,38838.0,40996.0,40738.0,39804.0078125,-1.0405256748199463,0.10527664422988892,0.09193699061870575
0.76,0.005737144034355879,-0.015377319417893887,0.32289421558380127,0.0,0.0,0.0,-1.0086073875427246,0.13972309231758118,0.09115259349346161,38283.0,40453.0,41459.0,38989.0,39796.1640625,-0.9282039999961853,0.13717308640480042,0.09411715716123581
0.78,0.004968349821865559,-0.014518042095005512,0.32802850008010864,0.0,0.0,0.0,-1.0037963390350342,0.147730752825737,0.08809258788824081,39961.0,39627.0,39863.0,39761.0,39803.79296875,-0.9468501806259155,0.13577768206596375,0.08692348003387451
0.8,0.005030584521591663,-0.017965171486139297,0.3330914378166199,0.0,0.0,0.0,-0.8567105531692505,0.1148260235786438,0.09196093678474426,38779.0,41211.0,41073.0,38137.0,39800.296875,-0.8030654191970825,0.09354477375745773,0.09529481083154678
0.82,0.004204158205538988,-0.01703416183590889,0.33618125319480896,0.0,0.0,0.0,-0.764256477355957,0.10325822979211807,0.10047832131385803,39461.0,42459.0,41013.0,37679.0,40153.52734375,-0.7787839770317078,0.08521606028079987,0.09932796657085419
0.84,0.0038544873241335154,-0.016443146392703056,0.3409839868545532,0.0,0.0,0.0,-0.7326709628105164,0.06358899921178818,0.10356146842241287,40198.0,40920.0,40322.0,39304.0,40186.57421875,-0.77321857213974,0.07365797460079193,0.1059650257229805
0.86,0.0017456606728956103,-0.015631066635251045,0.34459882974624634,0.0,0.0,0.0,-0.73345547914505,0.05381793901324272,0.1065928190946579,39266.0,39608.0,41760.0,40886.0,40380.4140625,-0.6962445378303528,0.05227036029100418,0.1014002189040184
0.88,5.6256834795931354e-05,-0.014808472245931625,0.34884071350097656,0.0,0.0,0.0,-0.658693790435791,0.022328250110149384,0.1040659099817276,40553.0,42259.0,40269.0,38463.0,40386.45703125,-0.6113951206207275,0.011653115972876549,0.1077674925327301
0.9,-0.001220319070853293,-0.013348598033189774,0.35300150513648987,0.0,0.0,0.0,-0.610815703868866,-0.01779819279909134,0.10521756112575531,40268.0,40904.0,40562.0,39762.0,40374.4609375,-0.5887551307678223,-0.050419293344020844,0.10461051762104034
0.92,-0.0018581327749416232,-0.01256477553397417,0.3575241267681122,0.0,0.0,0.0,-0.5440151691436768,-0.0935606062412262,0.10420911014080048,39162.0,40264.0,41012.0,40510.0,40237.7578125,-0.5118572115898132,-0.14718946814537048,0.09414166212081909
0.94,-0.002940831007435918,-0.011274700053036213,0.36163851618766785,0.0,0.0,0.0,-0.47892463207244873,-0.20610380172729492,0.07503361254930496,40832.0,40470.0,39482.0,39948.0,40183.10546875,-0.4371316730976105,-0.2707667946815491,0.06921623647212982
0.96,-0.0036366365384310484,-0.010944911278784275,0.36446961760520935,0.0,0.0,0.0,-0.39942461252212524,-0.3410841226577759,0.060867927968502045,40182.0,42618.0,40788.0,37924.0,40378.40234375,-0.33768796920776367,-0.34735313057899475,0.05720850080251694
0.98,-0.006484079174697399,-0.01019885390996933,0.3683498501777649,0.0,0.0,0.0,-0.27341750264167786,-0.37229427695274353,0.057555899024009705,39668.0,41534.0,41102.0,39112.0,40354.99609375,-0.2258329838514328,-0.39714205265045166,0.05946256220340729
1.0,-0.007427841424942017,-0.009371000342071056,0.37217622995376587,0.0,0.0,0.0,-0.16447187960147858,-0.43094107508659363,0.059616755694150925,40944.0,42630.0,39568.0,38174.0,40329.96484375,-0.13830095529556274,-0.4624282121658325,0.05673468858003616
1.02,-0.008363842032849789,-0.007939492352306843,0.37615305185317993,0.0,0.0,0.0,-0.08254982531070709,-0.49352362751960754,0.04790041595697403,39977.0,40895.0,40603.0,39613.0,40272.7578125,-0.03422435000538826,-0.5318280458450317,0.034334879368543625
1.04,-0.009245605207979679,-0.007121725007891655,0.3798869848251343,0.0,0.0,0.0,0.010107742622494698,-0.5722860097885132,0.029325125738978386,39259.0,41233.0,41331.0,39137.0,40240.30078125,0.06890510022640228,-0.6082022190093994,0.02791726030409336
1.06,-0.010539999231696129,-0.006305081769824028,0.3835698664188385,0.0,0.0,0.0,0.11509504169225693,-0.6362383365631104,0.027232108637690544,40632.0,42274.0,40636.0,38154.0,40424.84375,0.17577902972698212,-0.6906724572181702,0.031431008130311966
1.08,-0.01044783741235733,-0.0067879632115364075,0.3859536051750183,0.0,0.0,0.0,0.2659268081188202,-0.7144284248352051,0.04511651024222374,40090.0,41480.0,41150.0,38880.0,40400.296875,0.2840193212032318,-0.7351242303848267,0.05354612320661545
1.1,-0.010352063924074173,-0.00215216469950974,0.38938838243484497,0.0,0.0,0.0,0.31156888604164124,-0.7534447312355042,0.06588837504386902,39518.0,41016.0,41410.0,39568.0,40378.953125,0.3477395176887512,-0.7728068828582764,0.07843048125505447
1.12,-0.010545006021857262,-0.0011299889301881194,0.39158934354782104,0.0,0.0,0.0,0.38423141837120056,-0.7852448225021362,0.08010093122720718,39875.0,41345.0,41339.0,39665.0,40556.203125,0.4223591685295105,-0.7880268692970276,0.0818316638469696
1.14,-0.011421325616538525,-0.001247559441253543,0.3948575556278229,0.0,0.0,0.0,0.446041464805603,-0.8180939555168152,0.08409316092729568,40942.0,41238.0,40314.0,39582.0,40519.70703125,0.47615256905555725,-0.8630698323249817,0.08316775411367416
1.16,-0.011868004687130451,0.0005011169123463333,0.3980758488178253,0.0,0.0,0.0,0.518755316734314,-0.8968761563301086,0.08558997511863708,40411.0,41047.0,41669.0,40085.0,40803.59375,0.5594025254249573,-0.9085099697113037,0.09205946326255798
1.18,-0.013184740208089352,0.00018212082795798779,0.3994537591934204,0.0,0.0,0.0,0.6128997802734375,-0.8989617824554443,0.10359102487564087,40200.0,41952.0,41900.0,39168.0,40805.08984375,0.6487274169921875,-0.9167891144752502,0.11461583524942398
1.2,-0.012553628534078598,0.0011485537979751825,0.40240535140037537,0.0,0.0,0.0,0.6741883158683777,-0.9206051826477051,0.12610849738121033,40474.0,41862.0,41548.0,39260.0,40786.92578125,0.690717339515686,-0.9174841046333313,0.13925530016422272
1.22,-0.012675851583480835,0.002112845191732049,0.4063236117362976,0.0,0.0,0.0,0.704206109046936,-0.9099417924880981,0.14918766915798187,41314.0,40194.0,40104.0,40620.0,40558.58984375,0.7280914783477783,-0.8909545540809631,0.1555260419845581
1.24,-0.012570035643875599,0.003207142697647214,0.40935415029525757,0.0,0.0,0.0,0.7546842098236084,-0.8675187826156616,0.15674059092998505,39993.0,41547.0,41471.0,38921.0,40483.70703125,0.77222740650177,-0.8809903264045715,0.16701628267765045
1.26,-0.013122010044753551,0.003489625407382846,0.41328027844429016,0.0,0.0,0.0,0.783605694770813,-0.9062663912773132,0.17535963654518127,38957.0,41233.0,42187.0,38691.0,40267.921875,0.7630128264427185,-0.9155592918395996,0.18327628076076508
1.28,-0.01329460833221674,0.0030370887834578753,0.4163759648799896,0.0,0.0,0.0,0.7370632290840149,-0.919958233833313,0.19751867651939392,39733.0,40013.0,41381.0,39745.0,40218.1171875,0.7263741493225098,-0.887215793132782,0.20520110428333282
1.3,-0.01320082601159811,0.0035156270023435354,0.41946014761924744,0.0,0.0,0.0,0.7083118557929993,-0.831501841545105,0.21763955056667328,39338.0,41096.0,41330.0,38816.0,40145.5078125,0.6623259782791138,-0.7667393684387207,0.2280113697052002
1.32,-0.014083719812333584,0.0051820119842886925,0.4224146008491516,0.0,0.0,0.0,0.6714454889297485,-0.6995289921760559,0.23305407166481018,40534.0,40588.0,40392.0,38906.0,40105.9765625,0.6705811619758606,-0.637058436870575,0.23481158912181854
1.34,-0.014091035351157188,0.0044738417491316795,0.42543891072273254,0.0,0.0,0.0,0.692578911781311,-0.5999106764793396,0.2465372085571289,38909.0,40403.0,41829.0,39215.0,40089.1484375,0.7021856307983398,-0.5881441831588745,0.24961863458156586
1.36,-0.013973347842693329,0.006362862419337034,0.4285973012447357,0.0,0.0,0.0,0.6769163608551025,-0.6127214431762695,0.25253716111183167,39327.0,40845.0,41305.0,38787.0,40066.24609375,0.6464231014251709,-0.6238166093826294,0.25123798847198486
1.38,-0.01321775559335947,0.009790140204131603,0.43149223923683167,0.0,0.0,0.0,0.6677622199058533,-0.6283872723579407,0.2591555714607239,39714.0,41026.0,41004.0,38568.0,40078.66796875,0.6624243855476379,-0.6159972548484802,0.26213449239730835
1.4,-0.012662218883633614,0.00991866085678339,0.4343246817588806,0.0,0.0,0.0,0.6679529547691345,-0.5658810138702393,0.2690342664718628,39567.0,40833.0,41347.0,38569.0,40079.01171875,0.686615526676178,-0.502962052822113,0.27688512206077576
1.42,-0.011635794304311275,0.009381436742842197,0.4382157027721405,0.0,0.0,0.0,0.714318037033081,-0.4573219120502472,0.2840687930583954,39531.0,40955.0,40797.0,38149.0,39858.41796875,0.7543325424194336,-0.3941709101200104,0.28995218873023987
1.44,-0.010491741821169853,0.00983250979334116,0.44105657935142517,0.0,0.0,0.0,0.7884107828140259,-0.3428939878940582,0.29549628496170044,39236.0,39624.0,41076.0,39476.0,39853.76953125,0.8065612316131592,-0.3059946596622467,0.29704567790031433
1.46,-0.010032527148723602,0.010089091956615448,0.4431598484516144,0.0,0.0,0.0,0.808862566947937,-0.28688642382621765,0.3007304072380066,40443.0,41069.0,40279.0,38317.0,40027.609375,0.7975576519966125,-0.300702303647995,0.3122258186340332
1.48,-0.009782261215150356,0.009675980545580387,0.4457330107688904,0.0,0.0,0.0,0.8286144733428955,-0.31549739837646484,0.3218136131763458,40339.0,39245.0,40681.0,40163.0,40107.625,0.8574305176734924,-0.32459327578544617,0.3347220718860626
1.5,-0.009290372021496296,0.009798595681786537,0.4481915831565857,0.0,0.0,0.0,0.8590679168701172,-0.3264003396034241,0.34611454606056213,40438.0,41634.0,40582.0,38050.0,40176.01953125,0.8759722113609314,-0.3107880651950836,0.3583683371543884
1.52,-0.009244711138308048,0.007947376929223537,0.4523937404155731,0.0,0.0,0.0,0.8550459146499634,-0.289265513420105,0.3607943654060364,39430.0,40824.0,41148.0,38258.0,39915.26171875,0.8605750203132629,-0.26069214940071106,0.3677152693271637
1.54,-0.008727925829589367,0.007882069796323776,0.45483025908470154,0.0,0.0,0.0,0.8611202239990234,-0.23086267709732056,0.3723106384277344,39909.0,39287.0,40933.0,39771.0,39975.9375,0.8485111594200134,-0.20107105374336243,0.3793392777442932
1.56,-0.008620373904705048,0.007080943323671818,0.45604678988456726,0.0,0.0,0.0,0.8264138698577881,-0.16511467099189758,0.38986098766326904,39356.0,41342.0,41768.0,38530.0,40249.40625,0.7822900414466858,-0.15957191586494446,0.38970616459846497
1.58,-0.00658778240904212,0.006821133196353912,0.45815467834472656,0.0,0.0,0.0,0.7410569190979004,-0.16170774400234222,0.388581782579422,39664.0,42078.0,41580.0,37978.0,40325.78515625,0.7038737535476685,-0.13675633072853088,0.3934079706668854
1.6,-0.006617301609367132,0.006060482002794743,0.4602731168270111,0.0,0.0,0.0,0.6441320776939392,-0.10664968192577362,0.39444223046302795,39927.0,40907.0,41591.0,39127.0,40388.24609375,0.588726818561554,-0.07455939799547195,0.39425235986709595
1.62,-0.00620809243991971,0.006011832971125841,0.46275344491004944,0.0,0.0,0.0,0.5333229303359985,-0.043698038905858994,0.39744803309440613,39824.0,39536.0,41540.0,40496.0,40349.359375,0.47242942452430725,-0.005018723197281361,0.3914414942264557
1.64,-0.006291819736361504,0.0047137122601270676,0.4646686017513275,0.0,0.0,0.0,0.4113207161426544,0.009376553818583488,0.39147332310676575,39851.0,40419.0,41573.0,39701.0,40386.94921875,0.379858136177063,0.011772953905165195,0.3931811451911926
1.66,-0.007128614466637373,0.004617467988282442,0.46652939915657043,0.0,0.0,0.0,0.361483097076416,5.872648034710437e-05,0.3930762708187103,38856.0,40668.0,42080.0,38648.0,40063.87109375,0.3393373191356659,-0.020282715559005737,0.38852325081825256
1.68,-0.008388002403080463,0.00272870110347867,0.4703330099582672,0.0,0.0,0.0,0.2849343419075012,0.05986795946955681,0.3979237973690033,39695.0,40753.0,41167.0,38681.0,40074.8359375,0.25627586245536804,0.09863077104091644,0.399368017911911
1.7,-0.008501257747411728,0.0003772641357500106,0.47229647636413574,0.0,0.0,0.0,0.20592813193798065,0.10918589681386948,0.39904630184173584,39971.0,41077.0,40623.0,38641.0,40078.875,0.1775248795747757,0.09854885190725327,0.39371687173843384
1.72,-0.007183965295553207,-0.0030145368073135614,0.4742240607738495,0.0,0.0,0.0,0.13718649744987488,0.09523468464612961,0.38258007168769836,39697.0,40421.0,41215.0,39123.0,40114.828125,0.07608500123023987,0.10361703485250473,0.3708970546722412
1.74,-0.006918649189174175,-0.003856488037854433,0.47607046365737915,0.0,0.0,0.0,0.0069399019703269005,0.09486374258995056,0.37132391333580017,39832.0,41340.0,41040.0,38296.0,40127.85546875,-0.07611334323883057,0.05661750212311745,0.3719257414340973
1.76,-0.005488798953592777,-0.0045339493080973625,0.4778498411178589,0.0,0.0,0.0,-0.15106673538684845,0.039842016994953156,0.3694155514240265,39602.0,40050.0,41686.0,40126.0,40366.4921875,-0.21105703711509705,0.03986194729804993,0.36690497398376465
1.78,-0.005152376368641853,-0.005085522774606943,0.4784925878047943,0.0,0.0,0.0,-0.29651862382888794,0.027100764214992523,0.36223673820495605,40095.0,40429.0,41383.0,39901.0,40452.44921875,-0.33845654129981995,0.00513743981719017,0.356283038854599
1.8,-0.004907483235001564,-0.010746256448328495,0.4799852669239044,0.0,0.0,0.0,-0.4149409234523773,0.0013147792778909206,0.3464925289154053,40720.0,41922.0,41050.0,38388.0,40520.4140625,-0.4658222496509552,0.008882192894816399,0.34754228591918945
1.82,-0.004766565281897783,-0.011620083823800087,0.48226577043533325,0.0,0.0,0.0,-0.5150651335716248,0.0007819582824595273,0.35210222005844116,40552.0,39852.0,40956.0,40392.0,40438.6953125,-0.5676973462104797,-0.0036707452964037657,0.3492216467857361
1.84,-0.0036714316811412573,-0.014730033464729786,0.48370039463043213,0.0,0.0,0.0,-0.6278660297393799,0.009084566496312618,0.3487500250339508,39732.0,40652.0,41824.0,39780.0,40497.3125,-0.7134664058685303,0.01643003150820732,0.3492516577243805
1.86,-0.0032171879429370165,-0.015550946816802025,0.48507222533226013,0.0,0.0,0.0,-0.794272780418396,0.018548035994172096,0.3461804687976837,40808.0,39934.0,41112.0,40538.0,40598.953125,-0.8286385536193848,0.043397609144449234,0.34236007928848267
1.88,-0.0029641862493008375,-0.018920298665761948,0.4861189126968384,0.0,0.0,0.0,-0.9063940048217773,0.048856817185878754,0.3444838523864746,40038.0,40914.0,41800.0,39692.0,40611.48046875,-0.9689497947692871,0.0695689469575882,0.3452080190181732
1.9,-0.0026226819027215242,-0.01953306794166565,0.4873931407928467,0.0,0.0,0.0,-1.055768609046936,0.09874783456325531,0.34646400809288025,40680.0,42202.0,41124.0,38510.0,40629.125,-1.1205193996429443,0.14985013008117676,0.3494395315647125
1.92,-0.0021876515820622444,-0.02024875022470951,0.48885515332221985,0.0,0.0,0.0,-1.1720892190933228,0.1898314207792282,0.3460412323474884,39930.0,40978.0,41750.0,39706.0,40591.2109375,-1.2137430906295776,0.20766311883926392,0.33820876479148865
1.94,-0.0002765562676358968,-0.022864891216158867,0.490109384059906,0.0,0.0,0.0,-1.217252254486084,0.19680117070674896,0.33225443959236145,40151.0,39493.0,41379.0,41389.0,40603.56640625,-1.2541779279708862,0.17035049200057983,0.32339268922805786
1.96,0.00017927949375007302,-0.02349119819700718,0.49132266640663147,0.0,0.0,0.0,-1.308680772781372,0.11987629532814026,0.30968865752220154,41528.0,40962.0,40518.0,39840.0,40712.44921875,-1.348803162574768,0.09031148254871368,0.2992252707481384
1.98,0.0006107771769165993,-0.024862313643097878,0.4921036660671234,0.0,0.0,0.0,-1.37894868850708,0.07169036567211151,0.2987099289894104,39679.0,40287.0,42395.0,40615.0,40744.05078125,-1.41703200340271,0.0727510005235672,0.29650259017944336
2.0,0.0010496532777324319,-0.025336094200611115,0.4931968152523041,0.0,0.0,0.0,-1.464674949645996,0.0992497131228447,0.2963777482509613,28464.0,52148.0,53526.0,29014.0,40788.71875,-1.5155013799667358,0.128708153963089,0.2951904535293579
2.02,0.003567888867110014,-0.026277882978320122,0.494648814201355,0.0,0.0,0.0,-1.5993146896362305,0.10458972305059433,0.2824002802371979,37340.0,43836.0,44492.0,37464.0,40783.89453125,-1.6764165163040161,-0.010671823285520077,0.26089343428611755
2.04,0.009117456153035164,-0.02523849718272686,0.4957054555416107,0.0,0.0,0.0,-1.7238086462020874,-0.5163368582725525,0.2365143597126007,44274.0,37182.0,37266.0,44118.0,40710.8203125,-1.7189393043518066,-1.4383699893951416,0.2044648826122284
2.06,0.01384732499718666,-0.028340106830000877,0.49570178985595703,0.0,0.0,0.0,-1.7236452102661133,-2.8071000576019287,0.15094245970249176,44099.0,38217.0,37389.0,43651.0,40839.25390625,-1.7158838510513306,-4.2099480628967285,0.09041839092969894
2.08,0.012015963904559612,-0.027874527499079704,0.49674108624458313,0.0,0.0,0.0,-1.745522141456604,-5.730666637420654,0.02363305166363716,40247.0,41641.0,41085.0,40275.0,40812.91015625,-1.7804851531982422,-7.073042869567871,-0.042284298688173294
2.1,0.011599099263548851,-0.027498306706547737,0.4977867305278778,0.0,0.0,0.0,-1.8014439344406128,-8.166033744812012,-0.09229546785354614,38757.0,43445.0,42745.0,38353.0,40825.76171875,-1.8260658979415894,-9.142730712890625,-0.13431835174560547
2.12,0.014269297011196613,-0.027890924364328384,0.5002985000610352,0.0,0.0,0.0,-1.8168046474456787,-9.939983367919922,-0.16659240424633026,39251.0,41729.0,41745.0,39703.0,40607.99609375,-1.7855956554412842,-10.636428833007812,-0.19102393090724945
2.14,0.012822861783206463,-0.02724352292716503,0.5014249682426453,0.0,0.0,0.0,-1.7713744640350342,-11.267827987670898,-0.2146068811416626,39693.0,42573.0,41341.0,38945.0,40638.61328125,-1.7253429889678955,-11.852179527282715,-0.2366623878479004
2.16,0.015688322484493256,-0.02885177731513977,0.5005457997322083,0.0,0.0,0.0,-1.6604102849960327,-12.379807472229004,-0.2563689947128296,40145.0,43067.0,41389.0,39671.0,41068.80859375,-1.615771770477295,-12.890978813171387,-0.2832808494567871
2.18,0.02106705866754055,-0.026800304651260376,0.5012874603271484,0.0,0.0,0.0,-1.5832394361495972,-13.393949508666992,-0.3091285228729248,40235.0,41261.0,41781.0,41395.0,41168.79296875,-1.5672003030776978,-13.901631355285645,-0.32429444789886475
2.2,0.022313343361020088,-0.02414551191031933,0.5020313858985901,0.0,0.0,0.0,-1.5778394937515259,-14.366559028625488,-0.34224194288253784,38916.0,42156.0,43350.0,40474.0,41224.81640625,-1.5769623517990112,-14.794506072998047,-0.3534347712993622
2.22,0.027240196242928505,-0.02233782783150673,0.5020557641983032,0.0,0.0,0.0,-1.5883829593658447,-15.13638973236084,-0.35615235567092896,40054.0,42758.0,43116.0,39776.0,41426.265625,-1.5940666198730469,-15.385920524597168,-0.34191611409187317
2.24,0.033284347504377365,-0.02192126214504242,0.5025956630706787,0.0,0.0,0.0,-1.5590380430221558,-15.582414627075195,-0.31754153966903687,40597.0,40731.0,42451.0,42137.0,41479.4921875,-1.5009922981262207,-15.678009986877441,-0.2960815131664276
2.26,0.036411840468645096,-0.02194964326918125,0.5031997561454773,0.0,0.0,0.0,-1.4612231254577637,-15.745832443237305,-0.28061428666114807,41217.0,41495.0,41873.0,41307.0,41473.85546875,-1.418573260307312,-15.73598861694336,-0.2752397954463959
2.28,0.04088013619184494,-0.01971752941608429,0.5038098096847534,0.0,0.0,0.0,-1.3340175151824951,-15.665237426757812,-0.2523299753665924,39961.0,43261.0,43305.0,39269.0,41449.13671875,-1.2828668355941772,-15.61318302154541,-0.24497373402118683
2.3,0.0515252910554409,-0.014765609055757523,0.5043776035308838,0.0,0.0,0.0,-1.1934517621994019,-15.445357322692871,-0.2219521403312683,40405.0,44013.0,42679.0,38423.0,41380.2890625,-1.1175241470336914,-15.288084983825684,-0.20135484635829926
2.32,0.06086726859211922,-0.013617930933833122,0.5041975975036621,0.0,0.0,0.0,-0.9972699880599976,-15.024880409240723,-0.17134903371334076,40985.0,43615.0,42055.0,39005.0,41415.89453125,-0.8813344240188599,-14.779519081115723,-0.15405593812465668
2.34,0.07107920199632645,-0.013050546869635582,0.504923939704895,0.0,0.0,0.0,-0.7213144302368164,-14.423888206481934,-0.12603361904621124,41159.0,41449.0,41797.0,40719.0,41281.49609375,-0.6144838333129883,-14.121529579162598,-0.11926527321338654
2.36,0.08413591235876083,-0.010595785453915596,0.5057421326637268,0.0,0.0,0.0,-0.4790300130844116,-13.743266105651855,-0.09112977981567383,39202.0,44474.0,43266.0,37646.0,41147.23828125,-0.36644041538238525,-13.348444938659668,-0.08270388841629028
2.38,0.09498316049575806,-0.008660082705318928,0.5066819190979004,0.0,0.0,0.0,-0.23838871717453003,-12.778087615966797,-0.07244043052196503,38719.0,43363.0,43747.0,38375.0,41051.48828125,-0.06441677361726761,-12.168046951293945,-0.054339393973350525
2.4,0.1076093465089798,-0.007481337990611792,0.507756233215332,0.0,0.0,0.0,0.10184039175510406,-11.497136116027832,-0.041646089404821396,39360.0,43332.0,42798.0,38198.0,40922.07421875,0.27754417061805725,-10.904316902160645,-0.027556799352169037
2.42,0.12603992223739624,-0.005832120310515165,0.5100376605987549,0.0,0.0,0.0,0.42662903666496277,-10.22746467590332,-0.02159685455262661,39289.0,42913.0,42361.0,37813.0,40594.3515625,0.576579749584198,-9.529518127441406,-0.010273616760969162
2.44,0.1387234628200531,-0.005127518437802792,0.5113700032234192,0.0,0.0,0.0,0.7053567171096802,-8.86935043334961,-0.0047258795239031315,39909.0,42103.0,41715.0,37845.0,40393.08203125,0.8138228058815002,-8.144021987915039,0.005856730043888092
2.46,0.15061604976654053,-0.0035510514862835407,0.5136527419090271,0.0,0.0,0.0,0.915428876876831,-7.441895484924316,0.022107547149062157,38270.0,43824.0,42604.0,35482.0,40045.25,1.0181937217712402,-6.710112571716309,0.04364975914359093
2.48,0.1660480499267578,-0.0039780777879059315,0.5152592658996582,0.0,0.0,0.0,1.115010380744934,-5.9869513511657715,0.05402757227420807,39891.0,43437.0,40817.0,35331.0,39869.05859375,1.25873601436615,-5.192105770111084,0.07324263453483582
2.5,0.1717263162136078,-0.004251970909535885,0.5171634554862976,0.0,0.0,0.0,1.422974705696106,-4.489766597747803,0.08814467489719391,38585.0,42685.0,41905.0,35605.0,39695.80859375,1.5923864841461182,-3.797262191772461,0.11205931752920151
2.52,0.19224771857261658,-0.005136705469340086,0.5181372761726379,0.0,0.0,0.0,1.706817865371704,-3.103713035583496,0.12493640184402466,39659.0,41047.0,40843.0,37327.0,39719.421875,1.7457308769226074,-2.4214415550231934,0.1100209429860115
2.54,0.20897167921066284,0.0015675248578190804,0.5197941064834595,0.0,0.0,0.0,1.7945491075515747,-1.764718770980835,0.1211935505270958,39906.0,40924.0,40754.0,37020.0,39651.61328125,1.862371802330017,-1.127178430557251,0.1505349725484848
2.56,0.22287049889564514,-0.00012118482845835388,0.5215265154838562,0.0,0.0,0.0,1.924517273902893,-0.5407108664512634,0.17296911776065826,41288.0,42658.0,41104.0,36926.0,40494.56640625,1.9902032613754272,-0.013203602284193039,0.19746163487434387
2.58,0.23966573178768158,-0.0017338283360004425,0.5176441669464111,0.0,0.0,0.0,2.0409648418426514,0.5534217953681946,0.21730397641658783,39137.0,42195.0,43179.0,37221.0,40433.61328125,2.034181594848633,1.1548711061477661,0.2274237871170044
2.6,0.25522100925445557,-0.00024796585785225034,0.5187854170799255,0.0,0.0,0.0,1.985373854637146,1.74069082736969,0.2457648068666458,38564.0,43308.0,43814.0,36026.0,40428.75,1.899488925933838,2.371093511581421,0.2687969207763672
2.62,0.2703953981399536,0.0005329290288500488,0.5199213624000549,0.0,0.0,0.0,1.7811791896820068,2.9078528881073,0.2865501940250397,40173.0,41189.0,42089.0,38149.0,40400.7578125,1.637764573097229,3.4435811042785645,0.30635327100753784
2.64,0.276033490896225,0.0018127316143363714,0.5212210416793823,0.0,0.0,0.0,1.518297553062439,3.9878475666046143,0.3288741111755371,39012.0,42458.0,43210.0,36672.0,40338.47265625,1.3851866722106934,4.646143913269043,0.35027429461479187
2.66,0.2476286143064499,0.002888754243031144,0.5230537056922913,0.0,0.0,0.0,1.2715708017349243,5.197184085845947,0.3765679597854614,36029.0,44145.0,45597.0,35229.0,40250.34375,1.1800912618637085,5.701776504516602,0.39642202854156494
2.68,0.23965893685817719,0.008349788375198841,0.524477481842041,0.0,0.0,0.0,1.0744870901107788,6.201526641845703,0.39753130078315735,37273.0,43343.0,43927.0,36273.0,40204.48828125,1.0196406841278076,6.622389793395996,0.4053632616996765
2.7,0.2305501401424408,0.009110241197049618,0.5258385539054871,0.0,0.0,0.0,0.9796711802482605,6.902003288269043,0.409537672996521,38661.0,42977.0,42719.0,36359.0,40179.05859375,0.8974341154098511,7.120815753936768,0.4171590507030487
2.72,0.22071507573127747,0.013812071643769741,0.5258044004440308,0.0,0.0,0.0,0.8707770109176636,7.089029312133789,0.4271834194660187,39706.0,42932.0,41920.0,37078.0,40409.40625,0.8832756876945496,6.91075325012207,0.44046035408973694
2.74,0.22821691632270813,0.00996310357004404,0.5267326831817627,0.0,0.0,0.0,0.869279682636261,6.713160514831543,0.4432351291179657,40291.0,41609.0,41091.0,38757.0,40437.6328125,0.9050171971321106,6.4205322265625,0.444255530834198
2.76,0.23648127913475037,0.0031682439148426056,0.5275906920433044,0.0,0.0,0.0,0.9103794097900391,6.068883895874023,0.4351763129234314,39625.0,41061.0,40945.0,38525.0,40039.4140625,0.8434823155403137,5.870302677154541,0.4314585030078888
2.78,0.2221701592206955,0.011833605356514454,0.5313189625740051,0.0,0.0,0.0,0.8276932239532471,5.485470771789551,0.4236386716365814,37683.0,41519.0,42791.0,38159.0,40038.19921875,0.7455875277519226,5.13538932800293,0.40604668855667114
2.8,0.23059426248073578,0.01623057760298252,0.5323293209075928,0.0,0.0,0.0,0.6905176043510437,4.7801055908203125,0.3923286199569702,39013.0,39955.0,41511.0,39773.0,40063.81640625,0.6583806276321411,4.44978666305542,0.38455092906951904
2.82,0.23823615908622742,0.015285110101103783,0.5359560251235962,0.0,0.0,0.0,0.6105180978775024,4.073890209197998,0.3720627725124359,39840.0,40120.0,39966.0,38698.0,39656.1953125,0.6463169455528259,3.7179386615753174,0.36895766854286194
2.84,0.24902638792991638,0.008333832025527954,0.5370661616325378,0.0,0.0,0.0,0.6704416275024414,3.1945273876190186,0.3566088080406189,38694.0,41550.0,40884.0,37596.0,39681.3046875,0.6282452344894409,2.7901716232299805,0.34322884678840637
2.86,0.296184778213501,0.012738892808556557,0.543600857257843,0.0,0.0,0.0,0.6554232835769653,2.1426684856414795,0.31510698795318604,40537.0,37799.0,37515.0,39625.0,38869.81640625,0.6805058121681213,1.7575072050094604,0.3065807819366455
2.88,0.3044201135635376,0.007693314924836159,0.545051097869873,0.0,0.0,0.0,0.6558094620704651,1.4289166927337646,0.2965952754020691,37994.0,40696.0,39898.0,37016.0,38901.15625,0.6507008671760559,1.1542713642120361,0.2806253135204315
2.9,0.3186686336994171,0.0026496765203773975,0.5462926030158997,0.0,0.0,0.0,0.6730603575706482,0.9703153967857361,0.2591548562049866,37426.0,42284.0,40810.0,35540.0,39015.796875,0.6399759650230408,0.9381434917449951,0.24303489923477173
2.92,0.3225385546684265,-0.00032345368526875973,0.546670138835907,0.0,0.0,0.0,0.6295908689498901,1.0619287490844727,0.2299317717552185,37708.0,41910.0,41040.0,36414.0,39268.01171875,0.5908156037330627,1.1323543787002563,0.2191402167081833
2.94,0.33868706226348877,0.0009924906771630049,0.5475318431854248,0.0,0.0,0.0,0.5210133194923401,1.309157133102417,0.20612242817878723,39003.0,40193.0,40055.0,38553.0,39451.87890625,0.5095451474189758,1.4271280765533447,0.1838729828596115
2.96,0.35021138191223145,-0.0041048889979720116,0.5533263683319092,0.0,0.0,0.0,0.440727561712265,1.5721365213394165,0.16835282742977142,37061.0,39699.0,40641.0,38023.0,38856.76953125,0.34984177350997925,1.6612125635147095,0.14288203418254852
2.98,0.36245810985565186,-0.004366524517536163,0.5542871356010437,0.0,0.0,0.0,0.2531172037124634,1.7643940448760986,0.1205291673541069,36891.0,41025.0,40871.0,37305.0,39023.7734375,0.13191714882850647,1.8807377815246582,0.0987333431839943
3.0,0.36552712321281433,-0.003111298894509673,0.5551789999008179,0.0,0.0,0.0,0.02151595428586006,2.0737149715423584,0.07525166869163513,37781.0,40915.0,40489.0,37527.0,39178.01171875,-0.10695444792509079,2.171572685241699,0.05303233861923218
3.02,0.38028931617736816,-0.0024975338019430637,0.5579583048820496,0.0,0.0,0.0,-0.16086986660957336,2.389061689376831,0.034761492162942886,37027.0,41445.0,40571.0,36905.0,38987.29296875,-0.2230737954378128,2.5474979877471924,0.010410786606371403
3.04,0.3919624090194702,-0.0037323825526982546,0.558621883392334,0.0,0.0,0.0,-0.28820496797561646,2.7534239292144775,-0.012158851139247417,37912.0,40734.0,40090.0,37920.0,39164.1953125,-0.3205081522464752,2.89030385017395,-0.03829103708267212
3.06,0.4068804681301117,-0.007848353125154972,0.5590909719467163,0.0,0.0,0.0,-0.36792346835136414,3.080455780029297,-0.057646919041872025,38161.0,40917.0,39967.0,38315.0,39340.42578125,-0.39780014753341675,3.2651097774505615,-0.08403192460536957
3.08,0.4163109064102173,-0.008176697418093681,0.5594298839569092,0.0,0.0,0.0,-0.45095932483673096,3.395406723022461,-0.11020958423614502,37376.0,41832.0,41342.0,37630.0,39545.67578125,-0.5103223919868469,3.597485303878784,-0.12979085743427277
3.1,0.42774713039398193,-0.008152706548571587,0.5595743656158447,0.0,0.0,0.0,-0.5690405964851379,3.7714552879333496,-0.14798279106616974,37902.0,42068.0,41228.0,37790.0,39747.265625,-0.6316770315170288,4.005416393280029,-0.16210992634296417
3.12,0.4339095652103424,-0.00793683622032404,0.5578309297561646,0.0,0.0,0.0,-0.707616925239563,4.189816951751709,-0.17388585209846497,38646.0,41746.0,41278.0,39074.0,40186.67578125,-0.7630594372749329,4.377815246582031,-0.1864229291677475
3.14,0.4431963264942169,-0.007209170144051313,0.5575511455535889,0.0,0.0,0.0,-0.802141547203064,4.567017555236816,-0.1986091136932373,38385.0,41825.0,41885.0,39441.0,40384.17578125,-0.8261098265647888,4.75568962097168,-0.21273237466812134
3.16,0.45616891980171204,-0.006762962322682142,0.5571252107620239,0.0,0.0,0.0,-0.8540322184562683,4.874422073364258,-0.23026908934116364,39942.0,42406.0,40574.0,39278.0,40550.98046875,-0.8762075901031494,5.0337815284729,-0.24927887320518494
3.18,0.4648112654685974,-0.006539816036820412,0.5566168427467346,0.0,0.0,0.0,-0.8868017196655273,5.138002395629883,-0.26400068402290344,39111.0,42389.0,41885.0,39203.0,40647.28125,-0.8933091759681702,5.271539211273193,-0.275432825088501
3.2,0.4735093414783478,-0.0064866445027291775,0.5560939908027649,0.0,0.0,0.0,-0.896714448928833,5.43256139755249,-0.2791826128959656,38866.0,43082.0,42000.0,38888.0,40709.5390625,-0.9018831253051758,5.604220390319824,-0.2815101146697998
3.22,0.48098453879356384,-0.006660923361778259,0.5580316781997681,0.0,0.0,0.0,-0.8967851400375366,5.747698783874512,-0.2936931252479553,38246.0,42938.0,41598.0,38270.0,40263.5859375,-0.879470944404602,5.918929576873779,-0.30347201228141785
3.24,0.4861445724964142,-0.007342390716075897,0.5577825903892517,0.0,0.0,0.0,-0.8489795327186584,6.073274612426758,-0.3166790306568146,38607.0,43133.0,41501.0,37939.0,40295.1328125,-0.8686422109603882,6.195725917816162,-0.32168781757354736
3.26,0.4922492504119873,-0.0022402366157621145,0.5609498620033264,0.0,0.0,0.0,-0.8638317584991455,6.31865930557251,-0.32968592643737793,37777.0,41947.0,41169.0,37919.0,39703.1328125,-0.8341468572616577,6.425616264343262,-0.3336810767650604
3.28,0.4977249205112457,-0.001753076328895986,0.5610073208808899,0.0,0.0,0.0,-0.803183913230896,6.510560512542725,-0.3372510075569153,38708.0,42940.0,40418.0,37042.0,39777.29296875,-0.7565460205078125,6.574218273162842,-0.34255123138427734
3.3,0.5059735774993896,-0.0021914253011345863,0.5609991550445557,0.0,0.0,0.0,-0.7013818621635437,6.644887447357178,-0.34543535113334656,39245.0,41731.0,40279.0,38273.0,39882.390625,-0.6362003087997437,6.674039363861084,-0.3436649739742279
3.32,0.5150464773178101,-0.0017147754551842809,0.5712798833847046,0.0,0.0,0.0,-0.5551427602767944,6.7139787673950195,-0.3407961130142212,36765.0,40745.0,40207.0,36883.0,38650.4140625,-0.4971734583377838,6.743722915649414,-0.33935967087745667
3.34,0.5191848874092102,-0.0005259503377601504,0.5716895461082458,0.0,0.0,0.0,-0.4424826204776764,6.7607316970825195,-0.33778855204582214,36887.0,40675.0,40583.0,37139.0,38821.4921875,-0.3965888023376465,6.766082763671875,-0.32988524436950684
3.36,0.5260934233665466,0.0021023093722760677,0.5719138979911804,0.0,0.0,0.0,-0.33643248677253723,6.781696796417236,-0.3236079812049866,37979.0,41011.0,40703.0,37599.0,39323.8984375,-0.26751574873924255,6.817221164703369,-0.31696978211402893
3.38,0.5289927124977112,0.001894280081614852,0.5703142285346985,0.0,0.0,0.0,-0.2014508694410324,6.841916084289551,-0.3041141927242279,39179.0,41069.0,40203.0,38005.0,39614.8515625,-0.14490851759910583,6.850935935974121,-0.28846868872642517
3.4,0.5326889753341675,0.004566545132547617,0.5699145793914795,0.0,0.0,0.0,-0.07283636182546616,6.826167106628418,-0.284362256526947,39788.0,40646.0,40238.0,39060.0,39933.8828125,-0.014132596552371979,6.7681145668029785,-0.2791856527328491
3.42,0.5356665253639221,0.005886603146791458,0.5637314319610596,0.0,0.0,0.0,0.04551403596997261,6.677430152893066,-0.2733478248119354,38965.0,42757.0,43149.0,39137.0,41002.765625,0.10118827223777771,6.592325210571289,-0.2696076035499573
3.44,0.5394306778907776,0.00829929206520319,0.5625213980674744,0.0,0.0,0.0,0.13408809900283813,6.502040863037109,-0.2566860616207123,39825.0,43461.0,42783.0,39199.0,41317.2109375,0.16741648316383362,6.409677982330322,-0.2459154725074768
3.46,0.5420680642127991,0.009933589957654476,0.5611515641212463,0.0,0.0,0.0,0.22185243666172028,6.284506320953369,-0.24994440376758575,42016.0,42440.0,41960.0,41432.0,41962.45703125,0.2753322124481201,6.160449504852295,-0.2460864931344986
3.48,0.5414512753486633,0.009665473364293575,0.5569748878479004,0.0,0.0,0.0,0.34566622972488403,6.037664890289307,-0.24530409276485443,41909.0,43643.0,42587.0,40389.0,42132.69921875,0.39931342005729675,5.898601531982422,-0.23965217173099518
3.5,0.5446528196334839,0.011160677298903465,0.5552936792373657,0.0,0.0,0.0,0.45642656087875366,5.758021831512451,-0.22621983289718628,41588.0,42834.0,43480.0,40934.0,42209.703125,0.5069562196731567,5.621641159057617,-0.2089928388595581
3.52,0.5458020567893982,0.013113439083099365,0.5511264204978943,0.0,0.0,0.0,0.5451768636703491,5.493783950805664,-0.20211079716682434,42234.0,41886.0,43588.0,43044.0,42688.90625,0.5876247882843018,5.336390018463135,-0.1976279765367508
3.54,0.546237587928772,0.014922687783837318,0.5493022799491882,0.0,0.0,0.0,0.6045275926589966,5.138902187347412,-0.17772069573402405,41933.0,42491.0,44073.0,42079.0,42644.48828125,0.6631312370300293,4.940521717071533,-0.16833260655403137
3.56,0.5464984774589539,0.016310138627886772,0.5476470589637756,0.0,0.0,0.0,0.6931433081626892,4.76202917098999,-0.1506340503692627,42710.0,44070.0,43822.0,40278.0,42720.74609375,0.7545426487922668,4.606252670288086,-0.1364937126636505
3.58,0.5453039407730103,0.01497190073132515,0.5449225306510925,0.0,0.0,0.0,0.8176495432853699,4.441946029663086,-0.12369709461927414,42589.0,43759.0,43191.0,40601.0,42535.44921875,0.8554990887641907,4.239724636077881,-0.10818083584308624
3.6,0.5445933938026428,0.019626276567578316,0.5435949563980103,0.0,0.0,0.0,0.877526581287384,4.055774211883545,-0.08414792269468307,41882.0,42634.0,43380.0,41440.0,42334.41015625,0.9278135895729065,3.8889262676239014,-0.07233357429504395
3.62,0.5438371896743774,0.019267497584223747,0.5379967093467712,0.0,0.0,0.0,0.9784469604492188,3.7071781158447266,-0.06490834802389145,42326.0,43472.0,44104.0,41214.0,42779.07421875,1.014918327331543,3.5319485664367676,-0.04319007694721222
3.64,0.5418360233306885,0.02120061218738556,0.5367865562438965,0.0,0.0,0.0,1.0472972393035889,3.323726177215576,-0.03288082405924797,43553.0,42569.0,42433.0,41745.0,42575.6640625,1.078910231590271,3.1148486137390137,-0.024318668991327286
3.66,0.5444539785385132,0.020174702629446983,0.5347017645835876,0.0,0.0,0.0,1.1232722997665405,2.891420364379883,-0.013453030958771706,43357.0,43723.0,42719.0,40497.0,42574.9140625,1.159542202949524,2.7300827503204346,0.0076033673249185085
3.68,0.5385711193084717,0.024958496913313866,0.5337892770767212,0.0,0.0,0.0,1.1871062517166138,2.515334129333496,0.023603763431310654,41157.0,43017.0,44161.0,40953.0,42322.16796875,1.2150341272354126,2.293726921081543,0.026437846943736076
3.7,0.5369130969047546,0.02439022623002529,0.5332107543945312,0.0,0.0,0.0,1.2235217094421387,2.075169324874878,0.040120456367731094,42443.0,43213.0,42467.0,40089.0,42053.1875,1.251479983329773,1.9001437425613403,0.050964727997779846
3.72,0.5360169410705566,0.023531857877969742,0.5287759900093079,0.0,0.0,0.0,1.287348985671997,1.729676604270935,0.06037992238998413,42454.0,43788.0,43202.0,40268.0,42428.296875,1.3169934749603271,1.5203416347503662,0.07107800245285034
3.74,0.5316384434700012,0.0260568019002676,0.5283019542694092,0.0,0.0,0.0,1.320387601852417,1.354634404182434,0.08433093130588531,41289.0,43837.0,43843.0,39803.0,42193.0625,1.3390237092971802,1.1260725259780884,0.09163650125265121
3.76,0.5303444266319275,0.02622807025909424,0.5281033515930176,0.0,0.0,0.0,1.3397164344787598,0.9150487184524536,0.09813965111970901,41708.0,42030.0,42522.0,41604.0,41966.58984375,1.3321073055267334,0.7151082158088684,0.09574230760335922
3.78,0.5281172394752502,0.02659175731241703,0.5280898213386536,0.0,0.0,0.0,1.318585991859436,0.5471760630607605,0.10417445003986359,41217.0,42889.0,42889.0,39885.0,41720.015625,1.3142715692520142,0.37445640563964844,0.11056947708129883
3.8,0.5256032943725586,0.026247598230838776,0.5282847881317139,0.0,0.0,0.0,1.3346753120422363,0.21569767594337463,0.11204291135072708,40541.0,42383.0,42371.0,40589.0,41471.76953125,1.3457504510879517,0.05746256560087204,0.10707226395606995
3.82,0.5230665802955627,0.027882618829607964,0.5262367725372314,0.0,0.0,0.0,1.3255265951156616,-0.09271400421857834,0.10509788244962692,41096.0,43246.0,41894.0,40180.0,41604.2734375,1.311460256576538,-0.27301451563835144,0.0977303758263588
3.84,0.5220208168029785,0.02851122058928013,0.5266128182411194,0.0,0.0,0.0,1.2931864261627197,-0.4439077079296112,0.08925672620534897,41486.0,43012.0,41474.0,39756.0,41432.99609375,1.2630308866500854,-0.5989170074462891,0.0883011519908905
3.86,0.5177651643753052,0.02898266166448593,0.5282169580459595,0.0,0.0,0.0,1.2450501918792725,-0.7465198040008545,0.08558201789855957,40478.0,42128.0,41250.0,40312.0,41042.07421875,1.2339932918548584,-0.8766409754753113,0.07490390539169312
3.88,0.5164679884910583,0.02917620725929737,0.5289645791053772,0.0,0.0,0.0,1.2297366857528687,-0.9753329157829285,0.0657658502459526,40495.0,41423.0,41073.0,40501.0,40873.3515625,1.2273027896881104,-1.0834187269210815,0.060724835842847824
3.9,0.5154141187667847,0.029070118442177773,0.529822587966919,0.0,0.0,0.0,1.2203505039215088,-1.1937909126281738,0.04953523725271225,39982.0,41112.0,40978.0,40768.0,40710.85546875,1.2026938199996948,-1.3113796710968018,0.036839503794908524
3.92,0.514193058013916,0.027146151289343834,0.5268123149871826,0.0,0.0,0.0,1.1730782985687256,-1.4150259494781494,0.031325262039899826,39972.0,43100.0,42278.0,39638.0,41247.5703125,1.1440749168395996,-1.5223890542984009,0.024106862023472786
3.94,0.5140370726585388,0.025425836443901062,0.527431309223175,0.0,0.0,0.0,1.1115727424621582,-1.6114474534988403,0.01601461134850979,41652.0,43522.0,40782.0,38800.0,41189.55078125,1.079653263092041,-1.6909393072128296,0.0132144158706069
3.96,0.5096116662025452,0.024277811869978905,0.5275238156318665,0.0,0.0,0.0,1.0495775938034058,-1.7249252796173096,0.01226339116692543,39891.0,42207.0,42109.0,40633.0,41210.94921875,0.9943262934684753,-1.7617113590240479,0.004757039714604616
3.98,0.5081648826599121,0.02491624280810356,0.52817302942276,0.0,0.0,0.0,0.9106066226959229,-1.7978986501693726,-0.0025851281825453043,40217.0,41851.0,41823.0,40525.0,41104.0078125,0.8504238128662109,-1.8479344844818115,-0.012596238404512405
4.0,0.5065645575523376,0.022404829040169716,0.5288819670677185,0.0,0.0,0.0,0.7861434817314148,-1.8882622718811035,-0.013768506236374378,39650.0,42332.0,42658.0,39272.0,40978.63671875,0.7584279775619507,-1.9056694507598877,-0.014218720607459545
4.02,0.5028835535049438,0.01843559555709362,0.5275436043739319,0.0,0.0,0.0,0.7001884579658508,-1.9079945087432861,-0.010156652890145779,51358.0,52164.0,31492.0,29778.0,41198.12109375,0.6592438220977783,-1.9296858310699463,-0.014095957390964031
4.04,0.5051287412643433,0.014984249137341976,0.5282189249992371,0.0,0.0,0.0,0.496888130903244,-1.93452787399292,-0.00809894222766161,38403.0,40441.0,44349.0,41239.0,41108.40625,-0.04440320283174515,-1.9469417333602905,0.002158430637791753
4.06,0.5050606727600098,0.02196754701435566,0.5294004678726196,0.0,0.0,0.0,-1.0846772193908691,-1.9419527053833008,0.006746831815689802,34562.0,37590.0,46602.0,44930.0,40921.2421875,-2.5094106197357178,-1.9047744274139404,0.004535852000117302
4.08,0.5046061873435974,0.02371971309185028,0.5302475094795227,0.0,0.0,0.0,-3.968632459640503,-1.8809462785720825,-0.01168899517506361,37243.0,40669.0,44177.0,41111.0,40800.703125,-5.461695194244385,-1.8680572509765625,-0.012172216549515724
4.1,0.5051417350769043,0.02728099748492241,0.5311833024024963,0.0,0.0,0.0,-6.782590866088867,-1.8123643398284912,-0.017141232267022133,39877.0,41279.0,41117.0,39991.0,40566.88671875,-7.900554656982422,-1.7515772581100464,-0.02392541989684105
4.12,0.5042396783828735,0.02336626872420311,0.5337048172950745,0.0,0.0,0.0,-8.881563186645508,-1.7146605253219604,-0.021889183670282364,38809.0,41205.0,41659.0,38783.0,40114.3828125,-9.703782081604004,-1.6851502656936646,-0.022697007283568382
4.14,0.5074299573898315,0.009404558688402176,0.535062313079834,0.0,0.0,0.0,-10.407753944396973,-1.654248595237732,-0.025577737018465996,39949.0,40567.0,40505.0,39139.0,40040.99609375,-11.14511775970459,-1.6125600337982178,-0.021185405552387238
4.16,0.5083419680595398,0.003754011122509837,0.5363572835922241,0.0,0.0,0.0,-11.794084548950195,-1.5839519500732422,-0.015721086412668228,38779.0,39499.0,41331.0,39523.0,39783.1640625,-12.472997665405273,-1.531756043434143,-0.0031871169339865446
4.18,0.508212149143219,0.008057229220867157,0.5391623973846436,0.0,0.0,0.0,-13.06513500213623,-1.472135066986084,0.008655384182929993,39006.0,40768.0,41376.0,38458.0,39902.25390625,-13.633421897888184,-1.400514841079712,0.025697171688079834
4.2,0.51014643907547,0.011988844722509384,0.5402478575706482,0.0,0.0,0.0,-14.190049171447754,-1.3284885883331299,0.03499595820903778,39437.0,39611.0,40853.0,40407.0,40077.27734375,-14.68944263458252,-1.259266972541809,0.03966420516371727
4.22,0.5102565884590149,0.010511343367397785,0.5433713793754578,0.0,0.0,0.0,-15.139886856079102,-1.189754843711853,0.04259949177503586,38923.0,41735.0,41187.0,37655.0,39875.01171875,-15.570159912109375,-1.1498006582260132,0.04894412308931351
4.24,0.5125887989997864,0.012341241352260113,0.5443486571311951,0.0,0.0,0.0,-15.92614459991455,-1.078157901763916,0.05998728796839714,39779.0,41107.0,41395.0,38063.0,40086.3046875,-16.297975540161133,-1.0052145719528198,0.07807772606611252
4.26,0.5133341550827026,0.01987307518720627,0.5449855327606201,0.0,0.0,0.0,-16.630197525024414,-0.9283323884010315,0.10098806023597717,38841.0,40741.0,41389.0,37457.0,39607.28125,-16.88538360595703,-0.8662115335464478,0.1272958517074585
4.28,0.5174381732940674,0.024222269654273987,0.5499030351638794,0.0,0.0,0.0,-17.098493576049805,-0.7611929774284363,0.15126675367355347,39434.0,39598.0,41276.0,39272.0,39895.70703125,-17.264774322509766,-0.6779565215110779,0.17180432379245758
4.3,0.5207462310791016,0.03294233977794647,0.5504405498504639,0.0,0.0,0.0,-17.40804672241211,-0.6083621382713318,0.18543046712875366,39475.0,39177.0,41861.0,40359.0,40218.4140625,-17.44162940979004,-0.5332221984863281,0.19586479663848877
4.32,0.5229161977767944,0.04008914530277252,0.55345219373703,0.0,0.0,0.0,-17.364768981933594,-0.4814925491809845,0.21292544901371002,39107.0,40283.0,41563.0,39051.0,40001.9609375,-17.281309127807617,-0.38471558690071106,0.22452273964881897
4.34,0.523833155632019,0.05301797017455101,0.5537080764770508,0.0,0.0,0.0,-17.071929931640625,-0.2602044343948364,0.25616368651390076,40487.0,39369.0,41861.0,39515.0,40308.0078125,-16.822547912597656,-0.1599421501159668,0.2900562882423401
4.36,0.5266323685646057,0.060396458953619,0.5539432764053345,0.0,0.0,0.0,-16.52074432373047,-0.06617089360952377,0.3073095679283142,40064.0,40982.0,40504.0,38502.0,40013.02734375,-16.18750762939453,0.03778982162475586,0.3212227523326874
4.38,0.52925705909729,0.07329067587852478,0.5570864677429199,0.0,0.0,0.0,-15.79122257232666,0.13781407475471497,0.3328339159488678,40503.0,41043.0,40709.0,38809.0,40266.01953125,-15.316092491149902,0.2630479335784912,0.3386055529117584
4.4,0.5294527411460876,0.0877312496304512,0.5570319890975952,0.0,0.0,0.0,-14.879151344299316,0.35728025436401367,0.35164448618888855,40447.0,41487.0,41427.0,38663.0,40506.1953125,-14.370779991149902,0.46569138765335083,0.3574689030647278
4.42,0.530421793460846,0.10894693434238434,0.5578883290290833,0.0,0.0,0.0,-13.855264663696289,0.5615571737289429,0.38219842314720154,39261.0,41603.0,42663.0,38197.0,40431.8046875,-13.243745803833008,0.6866997480392456,0.3963802754878998
4.44,0.5324535965919495,0.12425228208303452,0.5577396750450134,0.0,0.0,0.0,-12.67772388458252,0.810236394405365,0.4221593737602234,41588.0,41408.0,40718.0,38666.0,40595.734375,-12.003551483154297,0.9480418562889099,0.43419957160949707
4.46,0.5323668122291565,0.14297574758529663,0.5588584542274475,0.0,0.0,0.0,-11.328100204467773,1.0557409524917603,0.44274628162384033,41039.0,42401.0,40299.0,38213.0,40488.12890625,-10.549020767211914,1.1710050106048584,0.4397203028202057
4.48,0.5338276028633118,0.16210168600082397,0.5585333108901978,0.0,0.0,0.0,-9.840306282043457,1.2563707828521729,0.4420129656791687,40729.0,41867.0,40607.0,39341.0,40636.40234375,-8.984257698059082,1.3487333059310913,0.4356098175048828
4.5,0.5367714762687683,0.1772281974554062,0.5583409667015076,0.0,0.0,0.0,-8.177570343017578,1.4283983707427979,0.43621155619621277,41122.0,42960.0,40394.0,38392.0,40717.828125,-7.302824020385742,1.4854810237884521,0.4349725842475891
4.52,0.5379082560539246,0.19763723015785217,0.5545104146003723,0.0,0.0,0.0,-6.5970988273620605,1.6435285806655884,0.4856175184249878,65535.0,7000.0,7000.0,7000.0,41686.26953125,-4.789764881134033,0.9642947912216187,1.1833490133285522
4.54,0.5635925531387329,0.20211723446846008,0.5534713268280029,0.0,0.0,0.0,-1.3527953624725342,-1.5117045640945435,1.8296221494674683,65535.0,7000.0,7000.0,7000.0,43190.7265625,1.8521777391433716,-3.766631841659546,2.3723020553588867
4.56,0.5815266966819763,0.19613909721374512,0.5471540689468384,0.0,0.0,0.0,4.292623043060303,-5.356553077697754,2.7805891036987305,49840.0,38030.0,59104.0,31974.0,44737.484375,5.803260326385498,-6.1284003257751465,3.0477497577667236
4.58,0.5842001438140869,0.21795226633548737,0.5436998009681702,0.0,0.0,0.0,6.460763931274414,-5.930922985076904,3.152304172515869,31979.0,44791.0,65535.0,32571.0,45589.86328125,6.392923355102539,-5.056854724884033,3.212780714035034
4.6,0.5926027894020081,0.22687283158302307,0.5402283668518066,0.0,0.0,0.0,5.989399433135986,-3.507751226425171,3.1001832485198975,48492.0,46398.0,53174.0,36088.0,46038.76953125,5.61234712600708,-2.1757309436798096,3.160160541534424
4.62,0.6255469918251038,0.2304774522781372,0.537295937538147,0.0,0.0,0.0,5.420346260070801,-0.7567417025566101,3.111659526824951,51897.0,44059.0,46091.0,41033.0,45770.4453125,5.3647637367248535,0.2838108539581299,3.1163933277130127
4.64,0.641712486743927,0.23187699913978577,0.5343629717826843,0.0,0.0,0.0,5.36772346496582,1.223914384841919,3.0752949714660645,46925.0,45223.0,49391.0,39737.0,45319.3515625,5.352067947387695,1.9728822708129883,3.0783450603485107
4.66,0.6567089557647705,0.23399600386619568,0.5326429605484009,0.0,0.0,0.0,5.2652387619018555,2.8588273525238037,3.013551950454712,43276.0,46506.0,48774.0,40024.0,44645.8203125,5.109041213989258,3.7347164154052734,2.9628307819366455
4.68,0.6660102605819702,0.2363893836736679,0.5309053659439087,0.0,0.0,0.0,4.920888900756836,4.72112512588501,2.8724007606506348,43077.0,47555.0,46701.0,38567.0,43975.125,4.70413875579834,5.634941101074219,2.808927297592163
4.7,0.6770905256271362,0.23987554013729095,0.529755175113678,0.0,0.0,0.0,4.479833602905273,6.585216522216797,2.719372510910034,41314.0,46788.0,44988.0,39726.0,43204.7265625,4.226165771484375,7.476500511169434,2.6253433227539062
4.72,0.6880727410316467,0.2425559014081955,0.5325259566307068,0.0,0.0,0.0,3.966125965118408,8.330253601074219,2.546463966369629,39396.0,44364.0,43738.0,39870.0,41842.84765625,3.713369607925415,9.066461563110352,2.4577083587646484
4.74,0.6987452507019043,0.24399758875370026,0.5329408645629883,0.0,0.0,0.0,3.4725608825683594,9.681610107421875,2.383249282836914,39652.0,43606.0,42378.0,39184.0,41205.80859375,3.192871570587158,10.260842323303223,2.304837703704834
4.76,0.712130069732666,0.2472171187400818,0.5385288000106812,0.0,0.0,0.0,2.9097890853881836,10.753883361816406,2.2216925621032715,37915.0,43391.0,40847.0,37027.0,39795.29296875,2.6311488151550293,11.266404151916504,2.1409146785736084
4.78,0.7225308418273926,0.24684832990169525,0.540165364742279,0.0,0.0,0.0,2.3768320083618164,11.682242393493652,2.079754590988159,37223.0,42611.0,40385.0,37537.0,39439.8671875,2.109144449234009,12.154545783996582,1.9984033107757568
4.8,0.7330070734024048,0.24557186663150787,0.5419370532035828,0.0,0.0,0.0,1.8371113538742065,12.485955238342285,1.9314147233963013,36929.0,42539.0,39567.0,38053.0,39272.54296875,1.592595100402832,12.849603652954102,1.8420711755752563
4.82,0.7409553527832031,0.24204330146312714,0.5452465415000916,0.0,0.0,0.0,1.3307327032089233,13.173179626464844,1.7465260028839111,36875.0,41127.0,39583.0,38283.0,38967.90234375,1.0454270839691162,13.453784942626953,1.6737686395645142
4.84,0.7519548535346985,0.2423151731491089,0.5470271110534668,0.0,0.0,0.0,0.7774181962013245,13.66110610961914,1.5987972021102905,36702.0,41666.0,39328.0,38488.0,39046.890625,0.49875035881996155,13.909395217895508,1.5196199417114258
4.86,0.7580879926681519,0.24287919700145721,0.548627495765686,0.0,0.0,0.0,0.19438621401786804,14.065095901489258,1.444303035736084,35120.0,41744.0,40032.0,37804.0,38675.765625,-0.11462708562612534,14.245769500732422,1.3437139987945557
4.88,0.7625744342803955,0.24045920372009277,0.5532426238059998,0.0,0.0,0.0,-0.39708298444747925,14.380839347839355,1.2509806156158447,37292.0,41802.0,41102.0,35512.0,38927.828125,-0.7429911494255066,14.491133689880371,1.1737545728683472
4.9,0.7696945071220398,0.24406185746192932,0.5546538829803467,0.0,0.0,0.0,-1.0328422784805298,14.521943092346191,1.0873490571975708,39041.0,40413.0,39887.0,37451.0,39198.3515625,-1.3322389125823975,14.538304328918457,1.0126259326934814
4.92,0.7742361426353455,0.24411235749721527,0.5558174848556519,0.0,0.0,0.0,-1.5826911926269531,14.533476829528809,0.9261723160743713,39410.0,41350.0,40150.0,37218.0,39532.4609375,-1.818770170211792,14.47282886505127,0.8336797952651978
4.94,0.7784335613250732,0.2447667121887207,0.5565612316131592,0.0,0.0,0.0,-2.0653326511383057,14.419483184814453,0.7641401290893555,38320.0,40742.0,41666.0,38764.0,39873.6171875,-2.3060574531555176,14.35035514831543,0.697950005531311
