time,x_kalman,y_kalman,z_kalman,x_lh,y_lh,z_lh,roll,pitch,yaw,motor.m1,motor.m2,motor.m3,motor.m4,stabilizer.thrust,stabilizer.roll,stabilizer.pitch,stabilizer.yaw
0.0,0.0007342879544012249,0.0005450079333968461,0.02455700747668743,0.0,0.0,0.0,-0.6552806496620178,0.1477498561143875,1.7965391874313354,55285.0,51301.0,55707.0,54599.0,54223.10546875,-0.6418754458427429,0.14174120128154755,1.8075575828552246
0.02,0.0011433326872065663,-0.0001049760976457037,0.024315517395734787,0.0,0.0,0.0,-0.6609971523284912,0.15541541576385498,1.8029471635818481,56885.0,53375.0,55025.0,53179.0,54616.5703125,-0.6144300699234009,0.22555425763130188,1.805580735206604
0.04,0.00030409940518438816,-0.000633422052487731,0.024307046085596085,0.0,0.0,0.0,-0.6061607003211975,0.260903924703598,1.8030529022216797,53984.0,54288.0,58518.0,53238.0,55007.65625,-0.6677888631820679,0.32712045311927795,1.7956278324127197
0.06,7.20110911061056e-05,-0.00032741038012318313,0.025172889232635498,0.0,0.0,0.0,-0.607082724571228,0.45944496989250183,1.7961262464523315,54206.0,59780.0,57644.0,47486.0,54779.5078125,-0.4858391582965851,0.6690304279327393,1.7883847951889038
0.08,-0.0006624735542573035,-0.0013735430547967553,0.026405254378914833,0.0,0.0,0.0,-0.31079840660095215,0.9676308035850525,1.7654353380203247,50911.0,51335.0,57281.0,52553.0,53020.58984375,-0.11115353554487228,1.1696207523345947,1.7682286500930786
0.1,-0.0070263538509607315,-0.010408354923129082,0.02151688002049923,0.0,0.0,0.0,-0.032703667879104614,1.5579224824905396,1.7549468278884888,52657.0,56021.0,53057.0,44937.0,51668.609375,0.034385278820991516,1.8908381462097168,1.7641849517822266
0.12,-0.021090447902679443,-0.01236212719231844,0.025578254833817482,0.0,0.0,0.0,0.20115788280963898,2.2397351264953613,1.747897982597351,43238.0,47628.0,55996.0,47498.0,48590.703125,0.30945706367492676,2.3704276084899902,1.7441331148147583
0.14,-0.027081375941634178,-0.011857924982905388,0.020771576091647148,0.0,0.0,0.0,0.019744375720620155,2.3369786739349365,1.73378586769104,47555.0,44293.0,50563.0,49041.0,47863.19140625,-0.3746987283229828,2.224057197570801,1.7378876209259033
0.16,-0.02597975917160511,-0.012006771750748158,0.029941949993371964,0.0,0.0,0.0,-0.4480151832103729,1.574455738067627,1.7126985788345337,46227.0,47373.0,46143.0,40449.0,45048.859375,-0.68393874168396,0.9276081323623657,1.695062518119812
0.18,-0.015829071402549744,-0.004224472679197788,0.03693784773349762,0.0,0.0,0.0,-0.7390137314796448,0.3464168310165405,1.6768358945846558,44326.0,41552.0,44526.0,42640.0,43261.39453125,-0.83486008644104,0.2166423201560974,1.6744623184204102
0.2,-0.020574821159243584,-0.0027166290674358606,0.04841327294707298,0.0,0.0,0.0,-0.6667695641517639,-0.1359301656484604,1.6494187116622925,39821.0,41945.0,44841.0,38345.0,41238.9375,-0.6055976748466492,-0.16175223886966705,1.6280995607376099
0.221,-0.02004624903202057,-0.005820539779961109,0.0615212619304657,0.0,0.0,0.0,-0.4829719364643097,-0.5482504367828369,1.605852484703064,42001.0,39615.0,38951.0,36517.0,39271.66796875,-0.3715338408946991,-0.6261974573135376,1.6129642724990845
0.241,-0.01778813824057579,-0.0057968199253082275,0.07703584432601929,-0.004259634297341108,0.0015661343932151794,0.08559323847293854,-0.32386747002601624,-0.9929671883583069,1.594414472579956,41439.0,36239.0,36661.0,37897.0,38059.31640625,-0.3294404149055481,-1.3010015487670898,1.576500654220581
0.26,-0.005213555414229631,0.0019387411884963512,0.09119356423616409,-0.004259634297341108,0.0015661343932151794,0.08559323847293854,-0.19753599166870117,-1.5844857692718506,1.5557861328125,37559.0,37857.0,39299.0,34765.0,37370.94921875,-0.0878894105553627,-1.8113107681274414,1.5514652729034424
0.28,-0.005706372670829296,0.002170746913179755,0.113804891705513,-0.004259634297341108,0.0015661343932151794,0.08559323847293854,-0.056761763989925385,-1.9398337602615356,1.5372077226638794,34514.0,35434.0,38438.0,33318.0,35426.9453125,-0.03144418075680733,-2.0729613304138184,1.5268635749816895
0.3,-0.005326675716787577,0.0026543536223471165,0.1282995641231537,-0.004259634297341108,0.0015661343932151794,0.08559323847293854,-0.014927352778613567,-2.012721538543701,1.5204871892929077,35143.0,37295.0,37451.0,30951.0,35210.59375,0.03697545826435089,-1.914788842201233,1.5090259313583374
0.32,-0.0065744961611926556,0.0015862088184803724,0.1457003802061081,-0.004259634297341108,0.0015661343932151794,0.08559323847293854,0.22143277525901794,-1.6313151121139526,1.4928643703460693,35146.0,36046.0,35928.0,31336.0,34614.796875,0.31155699491500854,-1.445956826210022,1.487988829612732
0.34,-0.007157550659030676,0.0010885074734687805,0.15963232517242432,-0.004259634297341108,0.0015661343932151794,0.08559323847293854,0.43587031960487366,-1.2504799365997314,1.4670782089233398,37150.0,36734.0,34156.0,31024.0,34766.20703125,0.5508219599723816,-1.1510132551193237,1.4563546180725098
0.36,-0.007670809514820576,0.0007113174651749432,0.1759926825761795,-0.004259634297341108,0.0015661343932151794,0.08559323847293854,0.6280133128166199,-0.9897856116294861,1.4217392206192017,33679.0,35447.0,37157.0,31809.0,34523.94921875,0.7028948068618774,-0.9011388421058655,1.395005464553833
0.38,-0.007937349379062653,0.0003242336097173393,0.18885546922683716,-0.004259634297341108,0.0015661343932151794,0.08559323847293854,0.7063082456588745,-0.8363028764724731,1.3695788383483887,33921.0,36207.0,37505.0,32127.0,34940.26953125,0.715691089630127,-0.8056982755661011,1.353628396987915
0.4,-0.008290805853903294,-0.00043315303628332913,0.2036857157945633,-0.004259634297341108,0.0015661343932151794,0.08559323847293854,0.6942443251609802,-0.8106715083122253,1.3201605081558228,34729.0,35155.0,36535.0,33241.0,34915.5234375,0.6458936333656311,-0.8104629516601562,1.2881437540054321
0.42,-0.009050292894244194,0.00027229980332776904,0.21532592177391052,-0.004259634297341108,0.0015661343932151794,0.08559323847293854,0.5295508503913879,-0.8508614301681519,1.257207989692688,35493.0,34247.0,36663.0,35033.0,35359.19921875,0.42498669028282166,-0.8955367803573608,1.237656831741333
0.44,-0.008875476196408272,0.0009846482425928116,0.2262117713689804,-0.004259634297341108,0.0015661343932151794,0.08559323847293854,0.3499417006969452,-0.9189467430114746,1.2063711881637573,37165.0,37541.0,35705.0,32481.0,35723.2890625,0.19678877294063568,-0.8213611245155334,1.1799277067184448
0.46,-0.011433972045779228,0.0032696675043553114,0.2371494024991989,-0.004259634297341108,0.0015661343932151794,0.08559323847293854,0.18537205457687378,-0.8245552182197571,1.1593722105026245,34468.0,36684.0,39782.0,33922.0,36214.3515625,0.18469727039337158,-0.8097184300422668,1.1591801643371582
0.48,-0.012036815285682678,0.0031910629477351904,0.24665698409080505,-0.004259634297341108,0.0015661343932151794,0.08559323847293854,0.1927463710308075,-0.8063620328903198,1.1430453062057495,37842.0,37662.0,37076.0,34296.0,36719.4765625,0.20777566730976105,-0.8123061656951904,1.1373299360275269
0.5,-0.012371709570288658,0.0038757992442697287,0.25647568702697754,-0.004259634297341108,0.0015661343932151794,0.08559323847293854,0.19536419212818146,-0.8304312825202942,1.1180236339569092,38337.0,36735.0,37733.0,35255.0,37015.5,0.34901684522628784,-0.905289888381958,1.1266404390335083
0.52,-0.010293994098901749,0.0006993922288529575,0.26481202244758606,-0.004259634297341108,0.0015661343932151794,0.08559323847293854,0.38862302899360657,-0.9345197677612305,1.1150972843170166,39388.0,36462.0,37104.0,36814.0,37442.57421875,0.43747374415397644,-0.9612289071083069,1.115161418914795
0.54,-0.010507721453905106,0.00021256673790048808,0.2739141583442688,-0.004259634297341108,0.0015661343932151794,0.08559323847293854,0.467475950717926,-0.9983007311820984,1.102237343788147,38888.0,37678.0,38118.0,35780.0,37616.4296875,0.4732833206653595,-1.0162361860275269,1.1071830987930298
0.56,-0.010850572027266026,-0.00034199058427475393,0.2812756597995758,-0.004259634297341108,0.0015661343932151794,0.08559323847293854,0.4423603117465973,-1.0093421936035156,1.098434329032898,37544.0,38430.0,40554.0,35412.0,37985.03515625,0.3855350613594055,-0.9899216890335083,1.1052663326263428
0.58,-0.010163564234972,-0.001182764070108533,0.2878475785255432,-0.004259634297341108,0.0015661343932151794,0.08559323847293854,0.3530980348587036,-0.9758177399635315,1.1029090881347656,38542.0,39694.0,39954.0,35274.0,38366.44140625,0.3521847426891327,-0.9433282613754272,1.1151901483535767
0.6,-0.011003217659890652,-0.002905810484662652,0.294294536113739,-0.004259634297341108,0.0015661343932151794,0.08559323847293854,0.3120291829109192,-0.8936405181884766,1.108735203742981,38438.0,40240.0,40458.0,35372.0,38627.6953125,0.29437151551246643,-0.8849247097969055,1.1180466413497925
0.62,-0.010850038379430771,-0.0036072335205972195,0.3025840222835541,-0.004259634297341108,0.0015661343932151794,0.08559323847293854,0.2491104006767273,-0.8607017397880554,1.1145907640457153,40259.0,38305.0,38451.0,36809.0,38456.2109375,0.17293019592761993,-0.8402911424636841,1.1286895275115967
0.64,-0.01065890584141016,-0.004618016537278891,0.3085803985595703,-0.004259634297341108,0.0015661343932151794,0.08559323847293854,0.09472233802080154,-0.8384820222854614,1.1222858428955078,40644.0,38910.0,38414.0,36648.0,38654.67578125,-0.016601376235485077,-0.8091975450515747,1.1312463283538818
0.66,-0.009957368485629559,-0.00522743770852685,0.31429266929626465,-0.004259634297341108,0.0015661343932151794,0.08559323847293854,-0.07986832410097122,-0.797305703163147,1.1233404874801636,39776.0,39360.0,39966.0,35906.0,38752.0625,-0.12411973625421524,-0.7761099934577942,1.1321556568145752
0.681,-0.00998438335955143,-0.005549699068069458,0.32005152106285095,-0.010239791125059128,-0.0007649088511243463,0.3263245224952698,-0.14733576774597168,-0.7657701373100281,1.1329913139343262,41192.0,38920.0,38688.0,36756.0,38889.8671875,-0.19799870252609253,-0.7336033582687378,1.148230791091919
0.7,-0.009847830981016159,-0.0034566237591207027,0.32549038529396057,-0.010239791125059128,-0.0007649088511243463,0.3263245224952698,-0.23551629483699799,-0.7131029963493347,1.1477956771850586,40873.0,38145.0,39011.0,38063.0,39023.53515625,-0.24519047141075134,-0.678141176700592,1.144404411315918
0.72,-0.009121897630393505,-0.005343916360288858,0.32949531078338623,-0.010239791125059128,-0.0007649088511243463,0.3263245224952698,-0.3035426735877991,-0.6585148572921753,1.1384161710739136,40226.0,39580.0,40636.0,36794.0,39309.171875,-0.3603430688381195,-0.6331186890602112,1.1395490169525146
0.74,-0.008726675063371658,-0.006014578510075808,0.3342415690422058,-0.010239791125059128,-0.0007649088511243463,0.3263245224952698,-0.4025334417819977,-0.6145627498626709,1.1560938358306885,36088.0,38802.0,44760.0,37958.0,39402.99609375,-0.4463602900505066,-0.596872866153717,1.1487122774124146
0.76,-0.008172739297151566,-0.006890419404953718,0.3389962911605835,-0.010239791125059128,-0.0007649088511243463,0.3263245224952698,-0.5136741995811462,-0.5634645819664001,1.1487486362457275,38918.0,38818.0,42176.0,37968.0,39470.19921875,-0.5597445964813232,-0.49141478538513184,1.1473214626312256
0.78,-0.007585616782307625,-0.007566434796899557,0.34343525767326355,-0.010239791125059128,-0.0007649088511243463,0.3263245224952698,-0.6131035089492798,-0.42561233043670654,1.1622240543365479,41872.0,39098.0,39236.0,37786.0,39498.2109375,-0.6687301397323608,-0.3857676088809967,1.1658025979995728
0.8,-0.007801517844200134,-0.005907731130719185,0.3488999009132385,-0.009117510169744492,-0.0028177800122648478,0.35506877303123474,-0.7146300673484802,-0.3489490747451782,1.170667290687561,39098.0,38982.0,41450.0,37642.0,39293.484375,-0.757192850112915,-0.32259321212768555,1.164686918258667
0.82,-0.007200518622994423,-0.0063975234515964985,0.35325533151626587,-0.009117510169744492,-0.0028177800122648478,0.35506877303123474,-0.7899911999702454,-0.2795349061489105,1.1687214374542236,39747.0,37379.0,41257.0,38933.0,39329.16015625,-0.816119909286499,-0.2130599021911621,1.172539234161377
0.84,-0.0066802725195884705,-0.006844403222203255,0.3585106432437897,-0.009117510169744492,-0.0028177800122648478,0.35506877303123474,-0.8430519700050354,-0.1797528713941574,1.191226601600647,41942.0,38796.0,38414.0,37548.0,39175.2421875,-0.8458307385444641,-0.14969219267368317,1.183152675628662
0.86,-0.006322153378278017,-0.006693764124065638,0.36274009943008423,-0.009117510169744492,-0.0028177800122648478,0.35506877303123474,-0.8645156621932983,-0.13432541489601135,1.1730300188064575,39374.0,37948.0,41448.0,37966.0,39184.60546875,-0.870235025882721,-0.10214559733867645,1.1681749820709229
0.88,-0.005186654627323151,-0.006825310178101063,0.3668767213821411,-0.009117510169744492,-0.0028177800122648478,0.35506877303123474,-0.9110889434814453,-0.09702443331480026,1.1873788833618164,40801.0,39547.0,40281.0,36987.0,39404.98046875,-0.9080342054367065,-0.03404020518064499,1.1944727897644043
0.9,-0.006202386226505041,-0.005026902072131634,0.36964061856269836,-0.009117510169744492,-0.0028177800122648478,0.35506877303123474,-0.950005829334259,0.02447652816772461,1.2107921838760376,40336.0,39564.0,40790.0,37030.0,39430.02734375,-0.8729004859924316,0.06441385298967361,1.2120628356933594
0.92,-0.004620256368070841,-0.008534684777259827,0.373456209897995,-0.009117510169744492,-0.0028177800122648478,0.35506877303123474,-0.8053417801856995,0.07683876901865005,1.2198575735092163,41091.0,39973.0,39925.0,36799.0,39447.50390625,-0.7295325398445129,0.13443009555339813,1.220712423324585
0.94,-0.005652557592839003,-0.01167735829949379,0.3743912875652313,-0.008110709488391876,-0.0036665955558419228,0.3824463188648224,-0.7002795338630676,0.13147129118442535,1.2128486633300781,41187.0,39619.0,41071.0,37847.0,39931.58203125,-0.729051411151886,0.1779983639717102,1.2262815237045288
0.96,-0.006449233274906874,-0.008858402259647846,0.3779923915863037,-0.007990658283233643,-0.003629240207374096,0.38610321283340454,-0.7223638892173767,0.19698256254196167,1.2315553426742554,40739.0,39819.0,41603.0,37559.0,39930.81640625,-0.7132875323295593,0.20326386392116547,1.231855034828186
0.98,-0.006565547082573175,-0.007748912554234266,0.38244345784187317,-0.008034706115722656,-0.0035264708567410707,0.38938695192337036,-0.7133235335350037,0.2021365761756897,1.2313463687896729,39893.0,39431.0,41957.0,37663.0,39736.8203125,-0.7780356407165527,0.21041838824748993,1.2285901308059692
1.0,-0.006620726548135281,-0.006737218238413334,0.38599345088005066,-0.008034706115722656,-0.0035264708567410707,0.38938695192337036,-0.8249408602714539,0.2003789246082306,1.2301713228225708,41018.0,39658.0,40644.0,37612.0,39733.56640625,-0.8541758060455322,0.19056172668933868,1.223602056503296
1.02,-0.006325577385723591,-0.006790334824472666,0.3886573612689972,-0.008034706115722656,-0.0035264708567410707,0.38938695192337036,-0.8350020051002502,0.17140264809131622,1.2236111164093018,41709.0,41443.0,40185.0,36011.0,39837.4921875,-0.8350020051002502,0.17140264809131622,1.2236111164093018
1.04,-0.006722700782120228,-0.0058714859187603,0.39210084080696106,-0.008565951138734818,-0.002402629004791379,0.39807945489883423,-0.7349163889884949,0.14260825514793396,1.154496669769287,39693.0,39649.0,41947.0,37731.0,39755.97265625,-0.7002233266830444,0.1417725831270218,1.155532717704773
1.06,-0.006727623287588358,-0.005411363206803799,0.39425477385520935,-0.008565951138734818,-0.002402629004791379,0.39807945489883423,-0.6657760739326477,0.1546616405248642,1.1740854978561401,41297.0,40185.0,41125.0,37261.0,39967.56640625,-0.6081633567810059,0.15271399915218353,1.17777419090271
1.08,-0.007028150837868452,-0.004584095906466246,0.3975182771682739,-0.008843622170388699,-0.002209105994552374,0.4056873917579651,-0.5811525583267212,0.14586447179317474,1.1982289552688599,39947.0,39065.0,42119.0,38561.0,39923.65625,-0.5742374658584595,0.13764265179634094,1.1969256401062012
1.1,-0.0068492884747684,-0.0044192164205014706,0.40051135420799255,-0.008843622170388699,-0.002209105994552374,0.4056873917579651,-0.5510693192481995,0.12080314755439758,1.1940357685089111,39850.0,41766.0,42226.0,35890.0,39933.7734375,-0.5183522701263428,0.06934254616498947,1.1811318397521973
1.12,-0.007165278773754835,-0.004410791210830212,0.4032696783542633,-0.008843622170388699,-0.002209105994552374,0.4056873917579651,-0.4404928386211395,0.060692109167575836,1.1852819919586182,40899.0,39679.0,41479.0,37451.0,39877.171875,-0.3724385201931,0.02048736996948719,1.1945703029632568
1.14,-0.006970890332013369,-0.004362733103334904,0.40619927644729614,-0.008843622170388699,-0.002209105994552374,0.4056873917579651,-0.32431140542030334,-0.024423109367489815,1.1995165348052979,40603.0,40169.0,41433.0,37223.0,39857.8828125,-0.3347693383693695,-0.02813417837023735,1.1995006799697876
1.16,-0.007430129684507847,-0.0031187674030661583,0.41008123755455017,-0.009962890297174454,-0.0001933899475261569,0.4170882999897003,-0.25976330041885376,-0.11714153736829758,1.1334867477416992,39819.0,39839.0,42145.0,36793.0,39649.109375,-0.23514974117279053,-0.11902715265750885,1.1477373838424683
1.18,-0.007954658009111881,-0.002603095956146717,0.4133419990539551,-0.010306808166205883,-0.00012166111264377832,0.42116960883140564,-0.1987248808145523,-0.10856081545352936,1.1872758865356445,41221.0,39963.0,40789.0,36183.0,39539.203125,-0.1656818389892578,-0.12446343898773193,1.2100725173950195
1.2,-0.006989242509007454,-0.0020953298080712557,0.4155985713005066,-0.010306808166205883,-0.00012166111264377832,0.42116960883140564,-0.10213988274335861,-0.17099995911121368,1.225032925605774,40582.0,39860.0,41486.0,36628.0,39639.90625,-0.045643001794815063,-0.1827438920736313,1.22895348072052
1.22,-0.00807245634496212,-0.0013140562223270535,0.4187459647655487,-0.011162696406245232,0.0007074731402099133,0.4271147847175598,0.015532494522631168,-0.22749541699886322,1.2527287006378174,41980.0,39704.0,40064.0,36520.0,39567.78125,0.05392121896147728,-0.2599840462207794,1.2682065963745117
1.24,-0.008286913856863976,-0.0011444019619375467,0.42115992307662964,-0.011162696406245232,0.0007074731402099133,0.4271147847175598,0.07713335752487183,-0.2853379249572754,1.2796728610992432,40118.0,40072.0,41644.0,36634.0,39617.28515625,0.08946730941534042,-0.32628872990608215,1.2764227390289307
1.26,-0.008207417093217373,-0.0007778728613629937,0.4239393174648285,-0.011162696406245232,0.0007074731402099133,0.4271147847175598,0.09659549593925476,-0.3438645601272583,1.303745150566101,39238.0,38018.0,43096.0,38116.0,39617.40625,0.12233663350343704,-0.3354622721672058,1.3191617727279663
1.28,-0.008197750896215439,-0.0007274900563061237,0.4269235134124756,-0.011162696406245232,0.0007074731402099133,0.4271147847175598,0.11408420652151108,-0.3197646141052246,1.328535795211792,41321.0,39925.0,40419.0,36619.0,39571.2109375,0.13108228147029877,-0.31961771845817566,1.3285760879516602
1.3,-0.008573864586651325,-0.00018503899627830833,0.4298911690711975,-0.01273450069129467,0.0028977817855775356,0.43757861852645874,0.23755180835723877,-0.326395720243454,1.265465259552002,39870.0,40196.0,42456.0,35578.0,39525.14453125,0.2553575932979584,-0.31606486439704895,1.2890245914459229
1.32,-0.009185781702399254,0.0009119245805777609,0.4328862130641937,-0.013178985565900803,0.0029545172583311796,0.4412875175476074,0.2548947036266327,-0.28871288895606995,1.3330703973770142,41264.0,39742.0,40722.0,36344.0,39518.1796875,0.2682587504386902,-0.3223315477371216,1.350051999092102
1.34,-0.010270063765347004,0.0013253394281491637,0.4354466199874878,-0.013570566661655903,0.0033420908730477095,0.4440056085586548,0.2726334035396576,-0.29803022742271423,1.3575019836425781,39594.0,38400.0,42250.0,37684.0,39482.375,0.2756310999393463,-0.31300655007362366,1.3568178415298462
1.36,-0.010326405987143517,0.0024683750234544277,0.4383431077003479,-0.014031869359314442,0.0035843132063746452,0.446582168340683,0.2720669209957123,-0.3222343623638153,1.388116717338562,40382.0,39068.0,41328.0,36970.0,39437.24609375,0.2735714614391327,-0.345369815826416,1.3895552158355713
1.38,-0.010348455980420113,0.002608041511848569,0.4403759837150574,-0.014031869359314442,0.0035843132063746452,0.446582168340683,0.2899894714355469,-0.34514907002449036,1.3998491764068604,41188.0,37176.0,41192.0,38492.0,39512.265625,0.3304157555103302,-0.3356395661830902,1.4157284498214722
1.4,-0.010271021164953709,0.0026219761930406094,0.442834734916687,-0.014031869359314442,0.0035843132063746452,0.446582168340683,0.3528558909893036,-0.33769991993904114,1.4354015588760376,41924.0,39814.0,40126.0,36264.0,39532.09765625,0.38689032196998596,-0.35007616877555847,1.4430516958236694
1.42,-0.01013264711946249,0.0029791323468089104,0.4440073072910309,-0.014031869359314442,0.0035843132063746452,0.446582168340683,0.41719523072242737,-0.34798872470855713,1.4670192003250122,41869.0,38963.0,40935.0,37205.0,39743.734375,0.4619576334953308,-0.3271065354347229,1.479483723640442
1.44,-0.009969491511583328,0.003242872189730406,0.4462360143661499,-0.014031869359314442,0.0035843132063746452,0.446582168340683,0.5012618899345398,-0.35894739627838135,1.4991949796676636,40075.0,37651.0,42585.0,38757.0,39767.34765625,0.5096734166145325,-0.37508127093315125,1.5016241073608398
1.46,-0.011432875879108906,0.003471081843599677,0.44904011487960815,-0.016380898654460907,0.0049790283665061,0.45821279287338257,0.49905845522880554,-0.3255338966846466,1.5261558294296265,40552.0,39712.0,42106.0,36370.0,39685.79296875,0.49905845522880554,-0.3255338966846466,1.5261558294296265
1.48,-0.011497308500111103,0.003709047567099333,0.45121699571609497,-0.016380898654460907,0.0049790283665061,0.45821279287338257,0.5218198895454407,-0.33928221464157104,1.5442569255828857,41233.0,38617.0,41497.0,37385.0,39683.828125,0.5218198895454407,-0.33928221464157104,1.5442569255828857
1.5,-0.011374731548130512,0.0034699193201959133,0.45362865924835205,-0.016380898654460907,0.0049790283665061,0.45821279287338257,0.5053807497024536,-0.34916913509368896,1.5550432205200195,43079.0,39069.0,39491.0,36953.0,39648.85546875,0.5115141272544861,-0.34975767135620117,1.4701241254806519
1.52,-0.012416668236255646,0.003723948262631893,0.45604103803634644,-0.017576491460204124,0.006098303012549877,0.4641863703727722,0.5524044036865234,-0.3866223692893982,1.4791978597640991,41010.0,38934.0,41534.0,36886.0,39591.46484375,0.549584150314331,-0.4247729778289795,1.496412992477417
1.54,-0.012716303579509258,0.004200352821499109,0.45849886536598206,-0.01814744621515274,0.005716842599213123,0.4666973948478699,0.5287841558456421,-0.45427143573760986,1.5135021209716797,40586.0,39234.0,41776.0,36336.0,39483.65625,0.5012720227241516,-0.61545729637146,1.5178568363189697
1.56,-0.0080985426902771,0.004063345026224852,0.4608117640018463,-0.01814744621515274,0.005716842599213123,0.4666973948478699,0.49907299876213074,-0.6427188515663147,1.5241848230361938,40741.0,37429.0,41407.0,38403.0,39495.6796875,0.4920433759689331,-0.6530882120132446,1.5226138830184937
1.58,-0.007498633116483688,0.004036154132336378,0.4628768861293793,-0.01814744621515274,0.005716842599213123,0.4666973948478699,0.4822549819946289,-0.6415464282035828,1.5376362800598145,41047.0,39349.0,41217.0,36523.0,39534.06640625,0.4813133776187897,-0.6015479564666748,1.5368763208389282
1.6,-0.006922121625393629,0.0038315874990075827,0.4640691876411438,-0.01814744621515274,0.005716842599213123,0.4666973948478699,0.46081432700157166,-0.5838007926940918,1.5361461639404297,40863.0,39045.0,41723.0,37301.0,39733.73828125,0.4343000054359436,-0.5237462520599365,1.534307837486267
1.62,-0.009468062780797482,0.0042413100600242615,0.4662184715270996,-0.019985340535640717,0.005906139500439167,0.47433093190193176,0.3887409269809723,-0.3985702097415924,1.5367966890335083,41539.0,39033.0,41287.0,37009.0,39717.4765625,0.37710797786712646,-0.28628742694854736,1.5343772172927856
1.64,-0.008993302471935749,0.003974958322942257,0.46587714552879333,-0.019985340535640717,0.005906139500439167,0.47433093190193176,0.360226571559906,-0.2273441106081009,1.5288223028182983,42286.0,36624.0,41150.0,40452.0,40128.50390625,0.3520767390727997,-0.1914251297712326,1.4301643371582031
1.66,-0.011085906997323036,0.0043359920382499695,0.46777477860450745,-0.02069331333041191,0.006185405887663364,0.4772299528121948,0.2505878210067749,-0.15679998695850372,1.4440491199493408,40854.0,41298.0,42288.0,35808.0,40062.1640625,0.2505878210067749,-0.15679998695850372,1.4440491199493408
1.68,-0.010719205252826214,0.0039512417279183865,0.46872133016586304,-0.02069331333041191,0.006185405887663364,0.4772299528121948,0.1915891468524933,-0.15334099531173706,1.4477660655975342,42261.0,40241.0,41443.0,36743.0,40172.9921875,0.1915891468524933,-0.15334099531173706,1.4477660655975342
1.7,-0.012813779525458813,0.004185780417174101,0.470579594373703,-0.021832570433616638,0.0056622764095664024,0.481012225151062,0.15201888978481293,-0.10688706487417221,1.4714999198913574,39666.0,40632.0,43368.0,36542.0,40052.86328125,0.15201888978481293,-0.10688706487417221,1.4714999198913574
1.72,-0.012501709163188934,0.004029915668070316,0.4717036485671997,-0.021832570433616638,0.0056622764095664024,0.481012225151062,0.09458232671022415,-0.1195797473192215,1.4470057487487793,40152.0,41038.0,42858.0,36208.0,40064.01953125,0.09458232671022415,-0.1195797473192215,1.4470057487487793
1.74,-0.012591156177222729,0.0038311451207846403,0.47326192259788513,-0.021832570433616638,0.0056622764095664024,0.481012225151062,0.07659468799829483,-0.11220459640026093,1.4292246103286743,41274.0,38582.0,42038.0,38114.0,40002.69921875,0.07659468799829483,-0.11220459640026093,1.4292246103286743
1.76,-0.012145022861659527,0.0037572518922388554,0.4748394787311554,-0.021832570433616638,0.0056622764095664024,0.481012225151062,0.011491775512695312,-0.11805137991905212,1.4298979043960571,41018.0,38732.0,41400.0,38070.0,39805.05859375,0.01615467667579651,-0.11207858473062515,1.429898977279663
1.78,-0.012056217528879642,0.0034023106563836336,0.4773392081260681,-0.021832570433616638,0.0056622764095664024,0.481012225151062,-0.004861896391957998,-0.15391023457050323,1.3956819772720337,41601.0,40415.0,40777.0,36219.0,39753.328125,-0.004861896391957998,-0.15391023457050323,1.3956819772720337
1.8,-0.01174820214509964,0.003223621053621173,0.47902026772499084,-0.021832570433616638,0.0056622764095664024,0.481012225151062,0.006160874385386705,-0.15330123901367188,1.412764072418213,38652.0,40462.0,43956.0,35830.0,39725.90234375,0.006160874385386705,-0.15330123901367188,1.412764072418213
1.82,-0.011706084944307804,0.003124814946204424,0.4798400402069092,-0.021832570433616638,0.0056622764095664024,0.481012225151062,-0.05210603028535843,-0.18089601397514343,1.4158262014389038,42632.0,38190.0,40020.0,38690.0,39883.62109375,-0.05293038487434387,-0.16805604100227356,1.4158241748809814
1.84,-0.011948321014642715,0.0027499953284859657,0.48138463497161865,-0.021832570433616638,0.0056622764095664024,0.481012225151062,-0.058761827647686005,-0.21550685167312622,1.4102144241333008,42967.0,41355.0,39445.0,35661.0,39857.8359375,-0.058761827647686005,-0.21550685167312622,1.4102144241333008
1.86,-0.011655683629214764,0.0025688938330858946,0.48367103934288025,-0.021832570433616638,0.0056622764095664024,0.481012225151062,-0.0633508637547493,-0.2572261095046997,1.4111683368682861,38990.0,39244.0,43506.0,37208.0,39737.08984375,-0.0633508637547493,-0.2572261095046997,1.4111683368682861
1.88,-0.011351103894412518,0.0023930626921355724,0.4852299094200134,-0.021832570433616638,0.0056622764095664024,0.481012225151062,-0.09249015897512436,-0.25251325964927673,1.422432541847229,39957.0,39649.0,42405.0,37017.0,39757.96484375,-0.09249015897512436,-0.25251325964927673,1.422432541847229
1.9,-0.011424044147133827,0.0022119623608887196,0.4867453873157501,-0.021832570433616638,0.0056622764095664024,0.481012225151062,-0.1034698560833931,-0.2544645667076111,1.4203472137451172,39999.0,39557.0,42271.0,37237.0,39766.03515625,-0.1034698560833931,-0.2544645667076111,1.4203472137451172
1.92,-0.01139895524829626,0.0020195371471345425,0.48823079466819763,-0.021832570433616638,0.0056622764095664024,0.481012225151062,-0.09530845284461975,-0.3045111298561096,1.4076226949691772,40684.0,38766.0,41934.0,37676.0,39765.08984375,-0.08286195248365402,-0.2884344756603241,1.407653570175171
1.94,-0.011126800440251827,0.002038730075582862,0.48968735337257385,-0.021832570433616638,0.0056622764095664024,0.481012225151062,-0.13308636844158173,-0.31093013286590576,1.408517599105835,41070.0,42130.0,42388.0,34556.0,40036.76171875,-0.13464300334453583,-0.3013428747653961,1.4085230827331543
1.96,-0.011794905178248882,0.001873864559456706,0.48949217796325684,-0.021832570433616638,0.0056622764095664024,0.481012225151062,-0.11505897343158722,-0.2730613648891449,1.4192248582839966,40341.0,39341.0,42631.0,37975.0,40072.9140625,-0.11505897343158722,-0.2730613648891449,1.4192248582839966
1.98,-0.012474472634494305,0.0017585974419489503,0.49071115255355835,-0.021832570433616638,0.0056622764095664024,0.481012225151062,-0.1177954226732254,-0.2981465458869934,1.4062060117721558,39745.0,40293.0,43721.0,36821.0,40145.94140625,-0.09335920214653015,-0.29903605580329895,1.4062466621398926
2.0,-0.012486585415899754,0.000245633942540735,0.491609126329422,-0.021832570433616638,0.0056622764095664024,0.481012225151062,-0.09929021447896957,-0.33550167083740234,1.38904869556427,30540.0,48824.0,52818.0,28394.0,40144.171875,-0.09929021447896957,-0.33550167083740234,1.38904869556427
2.02,-0.011752900667488575,0.00161509751342237,0.492788165807724,-0.021832570433616638,0.0056622764095664024,0.481012225151062,-0.11930285394191742,-0.5868436694145203,1.375758171081543,41518.0,38494.0,41686.0,38514.0,40053.046875,-0.11196102946996689,-0.6093335151672363,1.3757725954055786
2.04,-0.010388963855803013,0.0005347952246665955,0.4945770502090454,-0.021832570433616638,0.0056622764095664024,0.481012225151062,-0.1024312973022461,-2.348680019378662,1.3477612733840942,44336.0,35294.0,38346.0,41140.0,39779.71484375,-0.09936514496803284,-2.3689541816711426,1.3478091955184937
2.06,-0.012453584000468254,5.2342715207487345e-05,0.4960262179374695,-0.021832570433616638,0.0056622764095664024,0.481012225151062,-0.021268226206302643,-5.1053147315979,1.3318408727645874,39410.0,38232.0,43094.0,37848.0,39646.2890625,-0.02250577136874199,-5.134535312652588,1.3317874670028687
2.08,-0.013926506042480469,-3.107366865151562e-05,0.49764809012413025,-0.021832570433616638,0.0056622764095664024,0.481012225151062,-0.03553691506385803,-7.633274078369141,1.3158814907073975,41052.0,39388.0,40570.0,36926.0,39484.99609375,-0.037940606474876404,-7.659807205200195,1.315717101097107
2.1,-0.01333539467304945,0.00011410242586862296,0.4992164075374603,-0.021832570433616638,0.0056622764095664024,0.481012225151062,-0.07956553995609283,-9.543391227722168,1.276566982269287,40829.0,39435.0,41297.0,36279.0,39460.29296875,-0.07956553995609283,-9.543391227722168,1.276566982269287
2.12,-0.010673529468476772,-0.0001314496184932068,0.5048441886901855,-0.021832570433616638,0.0056622764095664024,0.481012225151062,-0.039466530084609985,-11.077973365783691,1.2695140838623047,39452.0,38936.0,41108.0,35664.0,38790.6640625,-0.03742770105600357,-11.046073913574219,1.2697221040725708
2.14,-0.009484006091952324,-0.0004709382774308324,0.5066558718681335,-0.021832570433616638,0.0056622764095664024,0.481012225151062,0.02215857245028019,-12.438827514648438,1.2566322088241577,41140.0,39284.0,39438.0,35770.0,38908.21875,0.0147127415984869,-12.407357215881348,1.2557711601257324
2.16,-0.008270961232483387,-0.00031864512129686773,0.5083066821098328,-0.021832570433616638,0.0056622764095664024,0.481012225151062,0.09793423861265182,-13.631081581115723,1.2269203662872314,38754.0,38098.0,41702.0,36486.0,38760.44921875,0.08903947472572327,-13.607061386108398,1.2257705926895142
2.18,-0.006110155023634434,0.0002525607997085899,0.5118052363395691,-0.021832570433616638,0.0056622764095664024,0.481012225151062,0.08489813655614853,-14.648784637451172,1.2104146480560303,38238.0,38262.0,42828.0,36712.0,39010.6875,0.08478182554244995,-14.632755279541016,1.2103849649429321
2.2,-0.0027749089058488607,-0.0005561943398788571,0.5131520628929138,-0.021832570433616638,0.0056622764095664024,0.481012225151062,0.10730353742837906,-15.51732349395752,1.194801926612854,40712.0,38594.0,40666.0,37284.0,39314.96484375,0.10889627784490585,-15.50864028930664,1.195013165473938
2.22,0.0026736988220363855,-0.0007223670254461467,0.5174741148948669,-0.021832570433616638,0.0056622764095664024,0.481012225151062,0.14024722576141357,-16.26919174194336,1.1725941896438599,40179.0,36761.0,40551.0,38737.0,39057.08984375,0.14024722576141357,-16.26919174194336,1.1725941896438599
2.24,0.0012250246945768595,0.0020379102788865566,0.5186237096786499,-0.005976678337901831,0.0038596477825194597,0.5192821025848389,0.12394467741250992,-16.77109146118164,1.2126924991607666,37753.0,39885.0,43761.0,36033.0,39358.359375,0.1167249083518982,-16.97751808166504,1.1985656023025513
2.26,0.007227305322885513,0.00297020492143929,0.5210751295089722,0.0012620599009096622,0.003877633949741721,0.5196154117584229,0.11351821571588516,-17.061906814575195,1.2092454433441162,40113.0,39041.0,41611.0,36883.0,39412.77734375,0.13364863395690918,-17.074832916259766,1.1905653476715088
2.28,0.015023068524897099,0.0031295137014240026,0.5217500329017639,0.009628233499825,0.003844107035547495,0.5196566581726074,0.15006649494171143,-17.022865295410156,1.2394139766693115,40432.0,37688.0,41702.0,39066.0,39722.98828125,0.13752785325050354,-16.955242156982422,1.2287174463272095
2.3,0.0246261153370142,0.0034028387162834406,0.5224400758743286,0.018862547352910042,0.0039491597563028336,0.5195484757423401,0.14771012961864471,-16.880678176879883,1.2460529804229736,38760.0,40132.0,43718.0,37206.0,39954.08984375,0.1697668880224228,-16.746240615844727,1.2225823402404785
2.32,0.03557518497109413,0.0034988895058631897,0.5227057337760925,0.031132955104112625,0.0018191367853432894,0.5127821564674377,0.18373951315879822,-16.524578094482422,1.2003543376922607,40309.0,39327.0,43031.0,38405.0,40268.0234375,0.15954607725143433,-16.209556579589844,1.0588147640228271
2.34,0.046592824161052704,0.0033478299155831337,0.5218790769577026,0.031132955104112625,0.0018191367853432894,0.5127821564674377,0.18177466094493866,-15.889418601989746,1.0474141836166382,41050.0,38904.0,43278.0,39120.0,40588.3125,0.20175842940807343,-15.495621681213379,1.0504767894744873
2.36,0.05983617529273033,0.0035807376261800528,0.5216162800788879,0.05312979221343994,0.0039037771057337523,0.5179346203804016,0.19728514552116394,-15.091992378234863,1.1078108549118042,40409.0,41133.0,44025.0,37553.0,40780.61328125,0.1542896181344986,-14.595949172973633,1.106684684753418
2.38,0.07393692433834076,0.003822817001491785,0.5212295055389404,0.06640467047691345,0.003837753552943468,0.5169987678527832,0.13081513345241547,-14.100530624389648,1.1144307851791382,41933.0,40571.0,43517.0,39019.0,41260.08984375,0.12733595073223114,-14.097857475280762,1.1139754056930542
2.4,0.08902563154697418,0.004018529783934355,0.5188996195793152,0.08058105409145355,0.003816279349848628,0.5160693526268005,0.19421158730983734,-12.993947982788086,1.1306753158569336,40848.0,40330.0,45162.0,38996.0,41334.05078125,0.20179636776447296,-12.349990844726562,1.1353448629379272
2.42,0.10487723350524902,0.00418591545894742,0.5183531641960144,0.0956348180770874,0.0037942305207252502,0.5151146650314331,0.19109724462032318,-11.720766067504883,1.1541152000427246,40911.0,40983.0,44647.0,38715.0,41314.87109375,0.19011713564395905,-11.725561141967773,1.1540249586105347
2.44,0.12140480428934097,0.004409273155033588,0.5145494937896729,0.11453799903392792,0.0005508668255060911,0.5051632523536682,0.15456794202327728,-10.349750518798828,1.1356428861618042,42395.0,43911.0,44137.0,37073.0,41879.15625,0.1442321091890335,-10.314168930053711,1.012122392654419
2.46,0.13689908385276794,0.003968150354921818,0.5138928294181824,0.11453799903392792,0.0005508668255060911,0.5051632523536682,0.1599743813276291,-8.829108238220215,1.0401276350021362,43991.0,43369.0,42907.0,36593.0,41715.9296875,0.15903352200984955,-8.854418754577637,1.0400824546813965
2.48,0.1545255333185196,0.004117757081985474,0.5093393921852112,0.1449047327041626,0.0035890645813196898,0.5131874084472656,0.12820535898208618,-7.272109031677246,1.075022578239441,40454.0,42988.0,47008.0,38530.0,42245.55078125,0.12631087005138397,-7.2900800704956055,1.074914574623108
2.5,0.1727498471736908,0.004348393063992262,0.5088872313499451,0.1449047327041626,0.0035890645813196898,0.5131874084472656,0.08427628874778748,-5.624042510986328,1.0634297132492065,43349.0,42891.0,43357.0,38123.0,41930.38671875,0.08471088111400604,-5.64775276184082,1.0634629726409912
2.52,0.1910303682088852,0.00449955090880394,0.5025694370269775,0.1449047327041626,0.0035890645813196898,0.5131874084472656,0.11780917644500732,-4.074875831604004,1.0439231395721436,44485.0,42461.0,44131.0,39747.0,42706.3984375,0.11888609081506729,-4.093184947967529,1.043974757194519
2.54,0.20949786901474,0.0044176774099469185,0.5024349093437195,0.19779391586780548,0.003192129312083125,0.5129871964454651,0.15599443018436432,-2.4760522842407227,1.0493978261947632,41153.0,42205.0,46081.0,39713.0,42288.72265625,0.1562587171792984,-2.493156909942627,1.0494242906570435
2.56,0.22824271023273468,0.004538889974355698,0.49882474541664124,0.19779391586780548,0.003192129312083125,0.5129871964454651,0.18610209226608276,-0.9061299562454224,1.0214059352874756,42529.0,44143.0,45457.0,37711.0,42460.9921875,0.1873304545879364,-0.941597580909729,1.0214710235595703
2.58,0.24770192801952362,0.004676260519772768,0.49880319833755493,0.19779391586780548,0.003192129312083125,0.5129871964454651,0.20575186610221863,0.6195477843284607,1.0007761716842651,41895.0,42477.0,45125.0,38535.0,42008.68359375,0.20534023642539978,0.5943127274513245,1.0008200407028198
2.6,0.26682165265083313,0.004851553589105606,0.4992084503173828,0.19779391586780548,0.003192129312083125,0.5129871964454651,0.21270456910133362,2.153879165649414,0.9946429133415222,42069.0,43351.0,44251.0,37073.0,41686.23046875,0.2117561399936676,2.118260383605957,0.9947183728218079
2.62,0.2859392762184143,0.005070554092526436,0.4990572929382324,0.19779391586780548,0.003192129312083125,0.5129871964454651,0.22216705977916718,3.5599958896636963,1.0034935474395752,41763.0,42705.0,43389.0,36727.0,41146.625,0.2218456268310547,3.5993216037750244,1.0034312009811401
2.64,0.3045118451118469,0.005111836362630129,0.500164270401001,0.19779391586780548,0.003192129312083125,0.5129871964454651,0.29621636867523193,4.956723213195801,0.9923365712165833,39705.0,42941.0,44923.0,35251.0,40705.12890625,0.2968752682209015,4.994994163513184,0.9922173619270325
2.66,0.3231356143951416,0.00520532438531518,0.5031810402870178,0.19779391586780548,0.003192129312083125,0.5129871964454651,0.34715789556503296,6.227572917938232,0.9953356385231018,38700.0,40250.0,44056.0,37066.0,40018.5546875,0.3465058207511902,6.257333278656006,0.9952783584594727
2.68,0.33727318048477173,0.004512077197432518,0.5056462287902832,0.3187043070793152,0.002019946463406086,0.5236932039260864,0.34516453742980957,7.446507453918457,0.9833679795265198,37565.0,40955.0,44637.0,35139.0,39574.08203125,0.34461456537246704,7.471198558807373,0.9833197593688965
2.7,0.3546730875968933,0.004478538408875465,0.5111135840415955,0.3187043070793152,0.002019946463406086,0.5236932039260864,0.3250488042831421,8.578120231628418,0.9988587498664856,41391.0,40121.0,39129.0,34087.0,38682.8828125,0.32544752955436707,8.602278709411621,0.998762309551239
2.72,0.37107154726982117,0.004342934582382441,0.5136153101921082,0.3517126142978668,-0.0010747290216386318,0.5220627784729004,0.38447222113609314,9.538667678833008,0.9960403442382812,38709.0,39967.0,40739.0,34525.0,38485.8828125,0.43121030926704407,9.635478973388672,0.8832269906997681
2.74,0.3822450637817383,0.002522566821426153,0.5211715698242188,0.3517126142978668,-0.0010747290216386318,0.5220627784729004,0.4371267557144165,10.434308052062988,0.8970230221748352,36432.0,38490.0,42024.0,33294.0,37560.578125,0.434740275144577,10.450057983398438,0.8971002697944641
2.76,0.39375045895576477,0.0021394204813987017,0.5243773460388184,0.3756488263607025,0.0009588641114532948,0.5338500142097473,0.36531463265419006,11.122282028198242,0.9256421327590942,38990.0,39736.0,38982.0,32600.0,37577.56640625,0.36365988850593567,11.135555267333984,0.9256850481033325
2.78,0.40801480412483215,0.0020815918687731028,0.5289615988731384,0.3756488263607025,0.0009588641114532948,0.5338500142097473,0.3326157033443451,11.604707717895508,0.9370484352111816,36503.0,37779.0,41371.0,34003.0,37414.2421875,0.33055275678634644,11.625333786010742,0.9371044635772705
2.8,0.4203553795814514,0.0019773717503994703,0.531558096408844,0.3756488263607025,0.0009588641114532948,0.5338500142097473,0.2733300030231476,12.05000114440918,0.9397609829902649,35884.0,37792.0,42152.0,34868.0,37674.21484375,0.2734837234020233,12.03962230682373,0.9397795796394348
2.82,0.43288570642471313,0.0017319157486781478,0.533797562122345,0.3756488263607025,0.0009588641114532948,0.5338500142097473,0.18165293335914612,12.320813179016113,0.909873366355896,37816.0,38478.0,40798.0,34328.0,37855.59765625,0.18165293335914612,12.320813179016113,0.909873366355896
2.84,0.43934962153434753,0.0009386094752699137,0.536759614944458,0.4197250008583069,-0.0004379583988338709,0.5408583879470825,0.1503187119960785,12.526897430419922,0.9219478368759155,37589.0,39157.0,41653.0,34441.0,38210.9296875,0.14861541986465454,12.51768684387207,0.9220582246780396
2.86,0.4498588740825653,0.0006519485032185912,0.5383462905883789,0.4197250008583069,-0.0004379583988338709,0.5408583879470825,0.1107485294342041,12.531556129455566,0.935784637928009,38761.0,39001.0,41001.0,35517.0,38570.171875,0.1107485294342041,12.531556129455566,0.935784637928009
2.88,0.4596758484840393,0.00032389676198363304,0.5410359501838684,0.4197250008583069,-0.0004379583988338709,0.5408583879470825,0.050130922347307205,12.416029930114746,0.9323442578315735,39189.0,39797.0,40769.0,35013.0,38692.0390625,0.050130922347307205,12.416029930114746,0.9323442578315735
2.9,0.46850964426994324,5.987894837744534e-06,0.5420712828636169,0.4197250008583069,-0.0004379583988338709,0.5408583879470825,-0.045994289219379425,12.166943550109863,0.8975841403007507,40332.0,40108.0,40350.0,35370.0,39040.55078125,-0.045994289219379425,12.166943550109863,0.8975841403007507
2.92,0.47711125016212463,-0.00042671727715060115,0.5430951118469238,0.4197250008583069,-0.0004379583988338709,0.5408583879470825,-0.0933167040348053,11.867774963378906,0.8584100008010864,39292.0,39824.0,41958.0,36250.0,39331.11328125,-0.0933167040348053,11.867774963378906,0.8584100008010864
2.94,0.4845024645328522,-0.0009591380367055535,0.5435833930969238,0.4197250008583069,-0.0004379583988338709,0.5408583879470825,-0.1335132122039795,11.528170585632324,0.8245949745178223,39569.0,39679.0,42321.0,36807.0,39594.25,-0.1335132122039795,11.528170585632324,0.8245949745178223
2.96,0.49141862988471985,-0.001134970923885703,0.5418725609779358,0.4197250008583069,-0.0004379583988338709,0.5408583879470825,-0.25511953234672546,11.156012535095215,0.8070480227470398,40368.0,40394.0,42428.0,37670.0,40215.6796875,-0.24749304354190826,11.160843849182129,0.806641161441803
2.98,0.49730417132377625,-0.0018191345734521747,0.5417585372924805,0.4197250008583069,-0.0004379583988338709,0.5408583879470825,-0.31103676557540894,10.697929382324219,0.7671492695808411,38886.0,41384.0,44472.0,36886.0,40407.33203125,-0.31103676557540894,10.697929382324219,0.7671492695808411
3.0,0.502504289150238,-0.0021566639188677073,0.5401884913444519,0.4197250008583069,-0.0004379583988338709,0.5408583879470825,-0.31553351879119873,10.223100662231445,0.7067787647247314,40771.0,41677.0,42969.0,37855.0,40818.83203125,-0.31902721524238586,10.229954719543457,0.7069549560546875
3.02,0.493376225233078,-0.0034050876274704933,0.5396166443824768,0.47029903531074524,-0.004377851262688637,0.5369372963905334,-0.3905174434185028,9.876481056213379,0.6693913340568542,41692.0,43206.0,42650.0,36380.0,40982.8359375,-0.3905174434185028,9.876481056213379,0.6693913340568542
3.042,0.489182710647583,-0.004405222367495298,0.5361549258232117,0.47289127111434937,-0.005559326149523258,0.5341238975524902,-0.44168296456336975,9.443509101867676,0.5251397490501404,42295.0,43681.0,42571.0,37881.0,41607.734375,-0.44168296456336975,9.443509101867676,0.5251397490501404
3.06,0.4916359782218933,-0.0048297010362148285,0.5353248119354248,0.47289127111434937,-0.005559326149523258,0.5341238975524902,-0.46090349555015564,8.719762802124023,0.5114786624908447,42761.0,41553.0,42353.0,39777.0,41611.984375,-0.46090349555015564,8.719762802124023,0.5114786624908447
3.08,0.4880247414112091,-0.005281177815049887,0.5344973802566528,0.4742045998573303,-0.00568417739123106,0.5332458019256592,-0.49739691615104675,7.94541597366333,0.48994192481040955,42441.0,41855.0,42491.0,39497.0,41571.64453125,-0.49452877044677734,7.969682216644287,0.49003738164901733
3.1,0.485470175743103,-0.005657282657921314,0.5299897193908691,0.47426530718803406,-0.006065026856958866,0.5320918560028076,-0.5472663640975952,7.05558443069458,0.45026472210884094,43147.0,41473.0,43081.0,40779.0,42120.57421875,-0.5472663640975952,7.05558443069458,0.45026472210884094
3.12,0.4831452965736389,-0.006111528258770704,0.5291951894760132,0.47395628690719604,-0.006417158991098404,0.5311960577964783,-0.6019578576087952,6.075492858886719,0.4069029688835144,41696.0,41820.0,43996.0,40216.0,41932.78125,-0.6019578576087952,6.075492858886719,0.4069029688835144
3.14,0.4808810353279114,-0.0065234643407166,0.5263091921806335,0.4731925129890442,-0.006764359772205353,0.5305127501487732,-0.6536064147949219,5.182058334350586,0.3836907148361206,39898.0,40904.0,46122.0,41520.0,42111.0703125,-0.6536064147949219,5.182058334350586,0.3836907148361206
3.16,0.4802165925502777,-0.006762707605957985,0.5257149934768677,0.4731925129890442,-0.006764359772205353,0.5305127501487732,-0.6589186191558838,4.188683986663818,0.33616599440574646,41375.0,40291.0,43943.0,41759.0,41842.60546875,-0.6599726676940918,4.202449798583984,0.3362407088279724
3.181,0.47860363125801086,-0.006978467106819153,0.5236143469810486,0.4701674282550812,-0.007148074917495251,0.530809223651886,-0.6397602558135986,3.1855292320251465,0.2675688862800598,40293.0,40865.0,44973.0,41233.0,41841.1875,-0.6419758200645447,3.2162606716156006,0.16223375499248505
3.2,0.4754336476325989,-0.007171317003667355,0.5235805511474609,0.4701674282550812,-0.007148074917495251,0.530809223651886,-0.6956973671913147,2.2632651329040527,0.14836052060127258,43451.0,42365.0,41461.0,38799.0,41519.08203125,-0.6969955563545227,2.27058744430542,0.14837011694908142
3.22,0.4736576974391937,-0.0072658006101846695,0.5222932696342468,0.4701674282550812,-0.007148074917495251,0.530809223651886,-0.710107684135437,1.4405330419540405,0.1433393359184265,44601.0,42719.0,39473.0,38879.0,41418.7421875,-0.7093560099601746,1.4478727579116821,0.14342647790908813
3.24,0.4703534245491028,-0.007470114156603813,0.5227628350257874,0.4655175805091858,-0.00797256175428629,0.5314181447029114,-0.6800364851951599,0.6301756501197815,0.108740895986557,40630.0,43174.0,43060.0,37516.0,41095.64453125,-0.6798888444900513,0.6423707604408264,0.10884087532758713
3.26,0.4682309627532959,-0.007539711892604828,0.5231947898864746,0.4655175805091858,-0.00797256175428629,0.5314181447029114,-0.6476454734802246,-0.1134011298418045,0.0940462127327919,41696.0,41298.0,41318.0,39236.0,40887.78125,-0.6485156416893005,-0.10269299149513245,0.09408393502235413
3.28,0.4651716649532318,-0.007660419214516878,0.5240073204040527,0.46189725399017334,-0.008107073605060577,0.5338446497917175,-0.6395518779754639,-0.807333767414093,0.06333977729082108,39967.0,41649.0,42579.0,38253.0,40612.484375,-0.6395518779754639,-0.807333767414093,0.06333977729082108
3.301,0.4630569815635681,-0.0076113431714475155,0.524773120880127,0.45930472016334534,-0.007699195295572281,0.5368303060531616,-0.6382867097854614,-1.4585741758346558,0.016014153137803078,40161.0,40245.0,42239.0,39423.0,40517.14453125,-0.6483447551727295,-1.448879361152649,-0.08074598014354706
3.32,0.4603853225708008,-0.007508386392146349,0.5252370238304138,0.45930472016334534,-0.007699195295572281,0.5368303060531616,-0.6175295114517212,-2.0371954441070557,-0.07849584519863129,40505.0,41487.0,41667.0,37829.0,40372.7421875,-0.6175295114517212,-2.0371954441070557,-0.07849584519863129
3.34,0.45853191614151,-0.007495675701647997,0.5261493921279907,0.45930472016334534,-0.007699195295572281,0.5368303060531616,-0.5300701856613159,-2.5460410118103027,-0.1144925206899643,41720.0,41306.0,39958.0,37992.0,40244.953125,-0.5300701856613159,-2.5460410118103027,-0.1144925206899643
3.361,0.4567835330963135,-0.007233521435409784,0.5268568992614746,0.4554096758365631,-0.007790835108608007,0.5418487787246704,-0.4892306327819824,-3.013274908065796,-0.15543723106384277,39189.0,39697.0,42173.0,39545.0,40151.91796875,-0.5005424618721008,-3.0156126022338867,-0.2592442035675049
3.38,0.45581087470054626,-0.007100758142769337,0.5277465581893921,0.4554096758365631,-0.007790835108608007,0.5418487787246704,-0.5040457844734192,-3.211794376373291,-0.2812575399875641,41566.0,40368.0,39714.0,38656.0,40076.79296875,-0.5218448042869568,-3.3810184001922607,-0.29726260900497437
3.4,0.4543946087360382,-0.006954079959541559,0.529953122138977,0.4554096758365631,-0.007790835108608007,0.5418487787246704,-0.4924498498439789,-3.5299715995788574,-0.3102380037307739,38698.0,40272.0,42102.0,38036.0,39777.49609375,-0.46290087699890137,-3.683335065841675,-0.3250584006309509
3.42,0.4533239006996155,-0.006973298732191324,0.5315452218055725,0.45415446162223816,-0.008139479905366898,0.5463407635688782,-0.44212067127227783,-3.801678419113159,-0.2903051972389221,40945.0,41929.0,39219.0,36435.0,39632.76953125,-0.4086757004261017,-3.885427951812744,-0.29723280668258667
3.44,0.4524683952331543,-0.006781142204999924,0.5346359014511108,0.45415446162223816,-0.008139479905366898,0.5463407635688782,-0.36750274896621704,-3.987208127975464,-0.3123491108417511,40834.0,40796.0,38542.0,36872.0,39261.0078125,-0.30751073360443115,-4.075022220611572,-0.3332778215408325
3.46,0.45185285806655884,-0.006438559386879206,0.536014974117279,0.45415446162223816,-0.008139479905366898,0.5463407635688782,-0.2823801040649414,-4.12227201461792,-0.35126030445098877,38809.0,40247.0,41001.0,37099.0,39289.3828125,-0.24893967807292938,-4.138060569763184,-0.35837551951408386
3.48,0.452413946390152,-0.006528889294713736,0.5378158092498779,0.4550156593322754,-0.008063597604632378,0.5519778728485107,-0.2089819759130478,-4.166988849639893,-0.304423987865448,40186.0,39568.0,38570.0,37816.0,39035.234375,-0.19172464311122894,-4.165287971496582,-0.3103006184101105
3.5,0.45240309834480286,-0.006285946816205978,0.540105938911438,0.4550156593322754,-0.008063597604632378,0.5519778728485107,-0.16990816593170166,-4.143161773681641,-0.27813664078712463,39180.0,40466.0,39800.0,36926.0,39093.8359375,-0.1381256878376007,-4.12227725982666,-0.30132806301116943
3.521,0.45278897881507874,-0.005914301611483097,0.541387677192688,0.4572605490684509,-0.008212078362703323,0.5548917055130005,-0.08331796526908875,-4.0945844650268555,-0.32493144273757935,39472.0,41690.0,39666.0,36000.0,39207.6015625,-0.07259608805179596,-4.073225498199463,-0.44989413022994995
3.54,0.45442402362823486,-0.006135857198387384,0.5424689054489136,0.4572605490684509,-0.008212078362703323,0.5548917055130005,-0.05828133225440979,-3.999565601348877,-0.41465234756469727,40129.0,41583.0,39473.0,36167.0,39338.046875,-0.02598694898188114,-3.908332109451294,-0.418051540851593
3.561,0.4554017186164856,-0.005901482421904802,0.5434622168540955,0.46087023615837097,-0.008581290021538734,0.5570986270904541,-0.004852729849517345,-3.818908929824829,-0.42260971665382385,39499.0,40597.0,40001.0,37315.0,39353.265625,-0.0033241466153413057,-3.7299818992614746,-0.5323436260223389
3.58,0.4575853645801544,-0.006210241932421923,0.545411229133606,0.46087023615837097,-0.008581290021538734,0.5570986270904541,0.030082913115620613,-3.5901832580566406,-0.5448512434959412,38316.0,39938.0,41592.0,37858.0,39426.44921875,0.040915582329034805,-3.468235731124878,-0.549088716506958
3.6,0.4603970944881439,-0.0065137604251503944,0.5466296672821045,0.46500733494758606,-0.008424891158938408,0.5600689649581909,0.05314948409795761,-3.362003803253174,-0.5117959976196289,39573.0,40375.0,39961.0,38023.0,39483.41796875,0.05074596777558327,-3.217946767807007,-0.5196169018745422
3.62,0.4631296396255493,-0.006730418186634779,0.5486193895339966,0.46771806478500366,-0.008578110486268997,0.5608521103858948,0.06238449737429619,-3.0830135345458984,-0.5030146241188049,39868.0,41144.0,39604.0,36936.0,39388.140625,0.0488012470304966,-2.914719581604004,-0.5146856904029846
3.64,0.4655535817146301,-0.00668962812051177,0.5493090152740479,0.46771806478500366,-0.008578110486268997,0.5608521103858948,0.05096665024757385,-2.7473859786987305,-0.49524104595184326,40116.0,39960.0,39910.0,37938.0,39481.0390625,0.036204226315021515,-2.59303879737854,-0.5088028907775879
3.661,0.4678698778152466,-0.006533111445605755,0.5492034554481506,0.47462114691734314,-0.01004611887037754,0.5603472590446472,0.02120191603899002,-2.410275936126709,-0.514843225479126,40372.0,38798.0,39662.0,39748.0,39645.46875,0.02495037391781807,-2.2173941135406494,-0.6257124543190002
3.68,0.4715147316455841,-0.006988214794546366,0.54990553855896,0.47462114691734314,-0.01004611887037754,0.5603472590446472,0.0020071459002792835,-2.018979787826538,-0.635645866394043,40302.0,40056.0,40334.0,38352.0,39761.9609375,-0.026127496734261513,-1.800992488861084,-0.6425288915634155
3.7,0.4753918945789337,-0.007372967898845673,0.550678551197052,0.48050957918167114,-0.009765519760549068,0.5630505681037903,-0.03908907249569893,-1.6212226152420044,-0.602379560470581,40309.0,40141.0,39951.0,38659.0,39765.50390625,-0.048910658806562424,-1.4009697437286377,-0.5999022722244263
3.72,0.4783462584018707,-0.007523161359131336,0.551037073135376,0.48050957918167114,-0.009765519760549068,0.5630505681037903,-0.050487540662288666,-1.2300097942352295,-0.5730459690093994,39232.0,39736.0,41282.0,39082.0,39833.5390625,-0.05240386724472046,-1.0112013816833496,-0.5808299779891968
3.74,0.4827517569065094,-0.00812938716262579,0.5516748428344727,0.4877699613571167,-0.010581734590232372,0.5632821321487427,-0.05677533894777298,-0.8170710206031799,-0.5438207387924194,40478.0,42714.0,40320.0,36484.0,39999.265625,-0.06792770326137543,-0.5998981595039368,-0.5605151057243347
3.76,0.48697882890701294,-0.008545424789190292,0.5511184930801392,0.4914429187774658,-0.011015120893716812,0.5633904933929443,-0.07019571959972382,-0.41435131430625916,-0.5366204380989075,39099.0,42045.0,41463.0,37321.0,39982.7578125,-0.07921595126390457,-0.20453202724456787,-0.5459896326065063
3.78,0.49028831720352173,-0.00847796630114317,0.5512261390686035,0.4963812232017517,-0.012670477852225304,0.5609299540519714,-0.09753795713186264,0.007980507798492908,-0.5639898180961609,39427.0,41465.0,41215.0,37721.0,39957.91796875,-0.12078700959682465,0.22324497997760773,-0.690412163734436
3.8,0.49458280205726624,-0.009134174324572086,0.5514212846755981,0.4963812232017517,-0.012670477852225304,0.5609299540519714,-0.15376390516757965,0.40232595801353455,-0.700504720211029,39998.0,40718.0,40932.0,38280.0,39982.8203125,-0.16481797397136688,0.6149213910102844,-0.6950969696044922
3.82,0.4990977346897125,-0.009622721001505852,0.5518612861633301,0.5027709007263184,-0.012445004656910896,0.5632057189941406,-0.19042813777923584,0.7829392552375793,-0.6277205944061279,40595.0,40843.0,39865.0,38393.0,39924.40234375,-0.19292086362838745,0.9655941128730774,-0.5960534811019897
3.84,0.502362847328186,-0.009702428244054317,0.5504404902458191,0.5027709007263184,-0.012445004656910896,0.5632057189941406,-0.20763269066810608,1.136884331703186,-0.6040064096450806,41860.0,40432.0,39360.0,39408.0,40265.8125,-0.23312605917453766,1.3281569480895996,-0.6170178651809692
3.86,0.5063753128051758,-0.010266251862049103,0.5507136583328247,0.5104417204856873,-0.013386125676333904,0.5630888342857361,-0.25969094038009644,1.5396124124526978,-0.6046284437179565,41036.0,41426.0,40124.0,38286.0,40218.58984375,-0.2565760016441345,1.713067889213562,-0.6185993552207947
3.88,0.5095707774162292,-0.010272634215652943,0.5492861270904541,0.5104417204856873,-0.013386125676333904,0.5630888342857361,-0.25377458333969116,1.8692628145217896,-0.5948089361190796,38689.0,39575.0,42641.0,39911.0,40459.78515625,-0.2511620819568634,2.02372145652771,-0.6047521233558655
3.9,0.5127909183502197,-0.010279343463480473,0.5490928292274475,0.5104417204856873,-0.013386125676333904,0.5630888342857361,-0.2953931391239166,2.1783640384674072,-0.6097961664199829,40746.0,41312.0,40590.0,39152.0,40450.1875,-0.3557637333869934,2.3254177570343018,-0.6234695315361023
3.921,0.5170641541481018,-0.011548333801329136,0.5493391752243042,0.5221401453018188,-0.016098402440547943,0.5605405569076538,-0.36684417724609375,2.421689748764038,-0.7622125148773193,40395.0,41911.0,41171.0,38247.0,40583.55078125,-0.35713836550712585,2.558478593826294,-0.7718247771263123
3.94,0.5200691223144531,-0.011559451930224895,0.5478962063789368,0.5221401453018188,-0.016098402440547943,0.5605405569076538,-0.35858863592147827,2.6776552200317383,-0.7435964941978455,40663.0,39091.0,41303.0,41179.0,40538.1015625,-0.35832205414772034,2.7956700325012207,-0.7378156781196594
3.96,0.5239107608795166,-0.012601152062416077,0.5481598377227783,0.5272859930992126,-0.016095208004117012,0.5622506141662598,-0.36011257767677307,2.883155345916748,-0.7043022513389587,39198.0,43264.0,42358.0,36992.0,40719.33203125,-0.3684364855289459,2.970048189163208,-0.7134750485420227
3.98,0.5265970230102539,-0.012602370232343674,0.5464447736740112,0.5272859930992126,-0.016095208004117012,0.5622506141662598,-0.37798887491226196,3.056612968444824,-0.7218537926673889,39484.0,42988.0,42430.0,37878.0,40669.74609375,-0.3916047513484955,3.1456785202026367,-0.7283820509910583
4.0,0.5289415717124939,-0.012571102939546108,0.5462193489074707,0.5272859930992126,-0.016095208004117012,0.5622506141662598,-0.41381412744522095,3.2528302669525146,-0.7352964282035828,40778.0,42244.0,40996.0,38610.0,40628.11328125,-0.41311347484588623,3.356538772583008,-0.7395127415657043
4.02,0.5321068167686462,-0.013780264183878899,0.5478976964950562,0.5355669260025024,-0.017596419900655746,0.5623580813407898,-0.41865596175193787,3.402035713195801,-0.7145516872406006,45425.0,45319.0,35785.0,34471.0,40201.15234375,-0.4412182569503784,3.446301221847534,-0.7208839058876038
4.04,0.5341294407844543,-0.013298033736646175,0.547991931438446,0.5355669260025024,-0.017596419900655746,0.5623580813407898,-0.6904990673065186,3.4861721992492676,-0.7078830003738403,34261.0,39371.0,46931.0,40005.0,40093.30859375,-1.3821462392807007,3.526047706604004,-0.7075856328010559
4.06,0.5360046625137329,-0.013154320418834686,0.5488740801811218,0.5406495332717896,-0.01887195184826851,0.5616123676300049,-2.4618208408355713,3.582974910736084,-0.7040470242500305,36259.0,38161.0,43865.0,41383.0,39811.45703125,-3.801222801208496,3.6593706607818604,-0.8265289068222046
4.08,0.538446843624115,-0.0151195814833045,0.5495454668998718,0.5406495332717896,-0.01887195184826851,0.5616123676300049,-5.196810722351074,3.725170850753784,-0.8160682916641235,38420.0,40094.0,41636.0,38802.0,39659.53515625,-6.584203720092773,3.819755792617798,-0.8073746562004089
4.1,0.5404572486877441,-0.015764964744448662,0.5538748502731323,0.5436234474182129,-0.018374115228652954,0.5633201599121094,-7.7582926750183105,3.8679375648498535,-0.7832126617431641,40424.0,40702.0,39318.0,37572.0,38837.06640625,-8.766114234924316,3.9269654750823975,-0.7739006280899048
