time,x_kalman,y_kalman,z_kalman,x_lh,y_lh,z_lh,roll,pitch,yaw,motor.m1,motor.m2,motor.m3,motor.m4,stabilizer.thrust,stabilizer.roll,stabilizer.pitch,stabilizer.yaw
0.0,0.0006450354121625423,-0.0014098798856139183,0.014820086769759655,0.0,0.0,0.0,-1.7824954986572266,0.8674437999725342,0.02908818982541561,53987.0,54971.0,55291.0,54247.0,54830.1640625,-1.7833539247512817,0.8649085760116577,0.03124457783997059
0.02,0.00034959582262672484,-0.0012056357227265835,0.014865637756884098,0.0,0.0,0.0,-1.7873154878616333,0.8838786482810974,0.04033065587282181,54231.0,55663.0,56601.0,53549.0,55061.90234375,-1.7747938632965088,0.8382054567337036,0.04927706718444824
0.04,0.0004168727027717978,-0.0006716307252645493,0.0158116202801466,0.0,0.0,0.0,-1.7787870168685913,0.8803629875183105,0.06513883918523788,53798.0,56322.0,57540.0,53352.0,55428.0234375,-1.7724223136901855,0.9469049572944641,0.08231579512357712
0.06,-0.00040259980596601963,0.0005170702934265137,0.0160006582736969,0.0,0.0,0.0,-1.7851225137710571,1.0426472425460815,0.08147349953651428,51817.0,64227.0,57847.0,47857.0,54847.671875,-1.7220078706741333,1.1174449920654297,0.06535163521766663
0.08,-0.002024017507210374,0.002866561058908701,0.01792605221271515,0.0,0.0,0.0,-1.4912267923355103,1.3858206272125244,0.0392235666513443,53207.0,56345.0,52481.0,54379.0,53054.5625,-1.2587995529174805,1.5234357118606567,0.004257767926901579
0.1,-0.0028420404996722937,0.005211986135691404,0.020500855520367622,0.0,0.0,0.0,-0.986160397529602,1.6203055381774902,-0.04657337814569473,45852.0,58990.0,55488.0,46574.0,50340.91015625,-0.7455815076828003,2.042670726776123,-0.1361244022846222
0.12,-0.015795869752764702,0.004342146683484316,0.016284946352243423,0.0,0.0,0.0,-0.6193200349807739,2.348947763442993,-0.21921208500862122,44094.0,56668.0,54068.0,46958.0,49190.1171875,-0.24719110131263733,2.8002171516418457,-0.3234129548072815
0.14,-0.024126878008246422,-0.002495123539119959,0.022012006491422653,0.0,0.0,0.0,-0.06531248986721039,2.9366133213043213,-0.42443016171455383,43518.0,50970.0,45138.0,51518.0,46391.06640625,0.02847430296242237,2.888822078704834,-0.5181382298469543
0.16,-0.02140534296631813,-0.0036519085988402367,0.02036910131573677,0.0,0.0,0.0,0.2368471473455429,2.3580269813537598,-0.6213207840919495,42400.0,48550.0,44744.0,51906.0,45690.93359375,0.1964140683412552,1.865378975868225,-0.7075129747390747
0.18,-0.024277696385979652,-0.002227844437584281,0.02958967164158821,0.0,0.0,0.0,0.042978428304195404,1.4785821437835693,-0.7815052270889282,41362.0,48322.0,44710.0,43986.0,43384.91015625,-0.32410281896591187,1.0210964679718018,-0.838674008846283
0.2,-0.02172880992293358,0.003503213869407773,0.0377810113132,0.0,0.0,0.0,-0.3078729212284088,0.6845552325248718,-0.9272064566612244,39720.0,45938.0,42882.0,43240.0,42029.2734375,-0.33342692255973816,0.43407830595970154,-1.0072485208511353
0.22,-0.02154494635760784,0.0034632403403520584,0.049866460263729095,0.0,0.0,0.0,-0.17805489897727966,0.15566378831863403,-1.0935379266738892,37475.0,45761.0,37951.0,43449.0,40412.78125,-0.08913310617208481,-0.17254173755645752,-1.1757776737213135
0.24,-0.01682806946337223,0.004502749070525169,0.06313005834817886,0.0,0.0,0.0,0.0032384356018155813,-0.5823913216590881,-1.2546098232269287,36383.0,43853.0,36379.0,42361.0,38423.796875,0.08931992948055267,-1.0943801403045654,-1.3356791734695435
0.26,-0.011581913568079472,0.006983867846429348,0.08106715977191925,0.0,0.0,0.0,0.1977814882993698,-1.3264373540878296,-1.3906747102737427,34364.0,42074.0,35034.0,40444.0,37630.23828125,0.3576113283634186,-1.6990015506744385,-1.4581996202468872
0.28,-0.008699414320290089,0.006504594348371029,0.09509430825710297,0.0,0.0,0.0,0.46300452947616577,-1.8482149839401245,-1.5195828676223755,35179.0,42281.0,35491.0,36489.0,36145.3046875,0.6234816908836365,-2.0487780570983887,-1.58832585811615
0.3,-0.0067693316377699375,0.004556521773338318,0.11477763205766678,0.0,0.0,0.0,0.7497121095657349,-2.045588731765747,-1.6532493829727173,33332.0,38526.0,34466.0,37604.0,35889.20703125,0.9040250182151794,-1.9551985263824463,-1.7140270471572876
0.32,-0.010806604288518429,0.00907002855092287,0.1299268901348114,-0.010918445885181427,0.008964136242866516,0.12712392210960388,0.9773702621459961,-1.813684105873108,-1.879902958869934,31839.0,39827.0,35731.0,35879.0,35856.2578125,0.9603341221809387,-1.7130029201507568,-1.9341410398483276
0.34,-0.01078888401389122,0.00930641870945692,0.14587414264678955,-0.011146792210638523,0.009172819554805756,0.14242646098136902,0.9958093762397766,-1.4598119258880615,-1.9777923822402954,31370.0,39312.0,35682.0,35692.0,35600.0390625,0.9547708630561829,-1.3401439189910889,-2.022848606109619
0.36,-0.010158393532037735,0.009618892334401608,0.15930350124835968,-0.011146792210638523,0.009172819554805756,0.14242646098136902,0.9070902466773987,-1.1550137996673584,-2.0634336471557617,31279.0,40027.0,36209.0,35361.0,35854.8046875,0.9501903653144836,-0.9714621305465698,-2.1009626388549805
0.38,-0.009775659069418907,0.009251696057617664,0.1728798896074295,-0.011146792210638523,0.009172819554805756,0.14242646098136902,0.9322952628135681,-0.8033316135406494,-2.1351985931396484,31042.0,40422.0,36746.0,35314.0,36060.60546875,0.9248552918434143,-0.6598307490348816,-2.166330337524414
0.4,-0.010282844305038452,0.009061131626367569,0.18527807295322418,-0.011381898075342178,0.009296819567680359,0.18388177454471588,0.949234127998352,-0.5149030089378357,-2.1925878524780273,32956.0,39850.0,35578.0,36564.0,36455.06640625,0.9719713926315308,-0.34848472476005554,-2.2138049602508545
0.42,-0.009817243553698063,0.008977812714874744,0.1973656713962555,-0.011335923336446285,0.009239859879016876,0.1963478922843933,0.9413195252418518,-0.4046858549118042,-2.2349748611450195,34319.0,40499.0,34163.0,37307.0,36806.625,1.016026258468628,-0.3475053012371063,-2.2508466243743896
0.44,-0.009864665567874908,0.008208613842725754,0.20838439464569092,-0.011175045743584633,0.009229600429534912,0.20833957195281982,1.0140429735183716,-0.3223891258239746,-2.2518460750579834,33172.0,41162.0,36180.0,37518.0,37008.37109375,1.0084991455078125,-0.3100878596305847,-2.2682416439056396
0.46,-0.009427754208445549,0.007689116057008505,0.218587264418602,-0.011175045743584633,0.009229600429534912,0.20833957195281982,0.9926865100860596,-0.2587885558605194,-2.2853755950927734,34489.0,40829.0,36375.0,38155.0,37462.70703125,0.9591591358184814,-0.20919282734394073,-2.3010127544403076
0.48,-0.009329996071755886,0.0070463428273797035,0.2303219586610794,-0.011175045743584633,0.009229600429534912,0.20833957195281982,0.9176169633865356,-0.14881013333797455,-2.317352294921875,34010.0,41530.0,36118.0,38414.0,37737.796875,0.8396662473678589,-0.11029960960149765,-2.3355908393859863
0.5,-0.00933742057532072,0.008571524173021317,0.23966185748577118,-0.010855814442038536,0.008842840790748596,0.23960377275943756,0.6286740303039551,-0.08237747848033905,-2.3319692611694336,35362.0,41660.0,35660.0,38990.0,38052.44921875,0.548011302947998,-0.05840599909424782,-2.346806526184082
0.52,-0.009225418791174889,0.008318590931594372,0.2487361878156662,-0.010664248839020729,0.008694730699062347,0.2488386183977127,0.49012309312820435,-0.040843263268470764,-2.3362302780151367,33713.0,42289.0,37833.0,39021.0,38394.04296875,0.43095648288726807,-0.033941373229026794,-2.3516347408294678
0.54,-0.009091546759009361,0.007932528853416443,0.25696614384651184,-0.01044822670519352,0.00843026489019394,0.2575291097164154,0.3897891640663147,-0.005280866287648678,-2.407170057296753,35121.0,41855.0,36737.0,40443.0,38539.5859375,0.3657061755657196,0.010020383633673191,-2.4279909133911133
0.56,-0.008714929223060608,0.0074438732117414474,0.26618692278862,-0.01044822670519352,0.00843026489019394,0.2575291097164154,0.3442389667034149,0.019816715270280838,-2.444556951522827,34903.0,43847.0,37265.0,38229.0,38561.5390625,0.32357150316238403,0.05280938744544983,-2.459343671798706
0.58,-0.008523838594555855,0.005854198709130287,0.27353769540786743,-0.01044822670519352,0.00843026489019394,0.2575291097164154,0.39518243074417114,0.07564115524291992,-2.4842264652252197,35861.0,42645.0,37329.0,39493.0,38832.09765625,0.3825276494026184,0.06423578411340714,-2.495030164718628
0.6,-0.008274196647107601,0.00539250485599041,0.28000354766845703,-0.00862603448331356,0.006215736269950867,0.2839406728744507,0.3558005094528198,0.05699858069419861,-2.089609146118164,35098.0,42034.0,39076.0,40576.0,39196.41796875,0.33441948890686035,0.03309659659862518,-2.1591849327087402
0.62,-0.00794768612831831,0.00476041017100215,0.2865171432495117,-0.00862603448331356,0.006215736269950867,0.2839406728744507,0.3005835711956024,0.010958690196275711,-2.1981258392333984,34899.0,43403.0,37025.0,42429.0,39439.28125,0.30172544717788696,0.01889166608452797,-2.254833221435547
0.64,-0.007984989322721958,0.004081888124346733,0.29471415281295776,-0.008581896312534809,0.006056256592273712,0.29677170515060425,0.24988864362239838,0.03361358493566513,-1.9500380754470825,35494.0,42290.0,37658.0,41634.0,39269.37109375,0.2050447016954422,0.04281274229288101,-1.9779475927352905
0.66,-0.007918731309473515,0.0036891696508973837,0.300816148519516,-0.008581896312534809,0.006056256592273712,0.29677170515060425,0.11820533126592636,0.05263461917638779,-2.025867223739624,36418.0,42142.0,35462.0,43718.0,39435.53515625,-0.023720290511846542,0.08194006979465485,-2.080594539642334
0.68,-0.00796966627240181,0.0048816632479429245,0.30672362446784973,-0.009626789018511772,0.007286332547664642,0.30572834610939026,-0.0985809862613678,0.08420969545841217,-2.1941235065460205,35510.0,43444.0,37288.0,41950.0,39548.75390625,-0.2245284765958786,0.06516192108392715,-2.234618663787842
0.7,-0.007967662997543812,0.00618082145228982,0.3124581575393677,-0.009626789018511772,0.007286332547664642,0.30572834610939026,-0.26055383682250977,0.04906057193875313,-2.270015001296997,36151.0,42643.0,37095.0,42595.0,39621.6171875,-0.27761825919151306,0.05007217824459076,-2.3583080768585205
0.72,-0.00800062995404005,0.0060905287973582745,0.3179264962673187,-0.009371234104037285,0.0070300474762916565,0.316675066947937,-0.276323527097702,0.03741760924458504,-2.3910341262817383,36559.0,42709.0,37093.0,42535.0,39724.85546875,-0.2747202515602112,0.05466781556606293,-2.416929006576538
0.74,-0.007927843369543552,0.005906030535697937,0.32334429025650024,-0.008261838927865028,0.005834735929965973,0.32422253489494324,-0.2612108886241913,0.05249074473977089,-2.1839241981506348,33592.0,44834.0,39994.0,40704.0,39781.0390625,-0.2258133739233017,0.03886657953262329,-2.21747088432312
0.76,-0.007807717192918062,0.005735697690397501,0.3284218907356262,-0.008099017664790154,0.005852751433849335,0.32908010482788086,-0.2076764553785324,0.046422328799963,-2.0562613010406494,33725.0,46271.0,38923.0,40521.0,39860.67578125,-0.1895393580198288,0.016146613284945488,-2.1852238178253174
0.78,-0.007651184685528278,0.005567509680986404,0.3322237730026245,-0.008099017664790154,0.005852751433849335,0.32908010482788086,-0.16496147215366364,0.029126165434718132,-2.2395739555358887,35741.0,44909.0,36887.0,42971.0,40127.796875,-0.17452196776866913,0.026858042925596237,-2.29650616645813
0.8,-0.007437537424266338,0.006118396762758493,0.3368430435657501,-0.008099017664790154,0.005852751433849335,0.32908010482788086,-0.1440190225839615,0.01512205135077238,-2.34566068649292,35809.0,44479.0,37565.0,42923.0,40194.28125,-0.1175280436873436,0.022415267303586006,-2.390087366104126
0.82,-0.007270348258316517,0.006039384286850691,0.34204724431037903,-0.008099017664790154,0.005852751433849335,0.32908010482788086,-0.09800580888986588,0.006617471110075712,-2.4319026470184326,34670.0,46404.0,38394.0,40892.0,40090.40234375,-0.0008799755596555769,-0.04244374483823776,-2.4748666286468506
0.84,-0.00699254497885704,0.007189319934695959,0.3465101420879364,-0.008099017664790154,0.005852751433849335,0.32908010482788086,-0.07422325015068054,-0.04905654862523079,-2.51839017868042,36026.0,43608.0,37050.0,43704.0,40097.69140625,0.09306734055280685,-0.025404034182429314,-2.5567123889923096
0.86,-0.0070703173987567425,0.004143171943724155,0.3501488268375397,-0.008099017664790154,0.005852751433849335,0.32908010482788086,0.053653232753276825,-0.035108134150505066,-2.597590923309326,34896.0,45470.0,38196.0,42502.0,40266.3515625,0.07338684797286987,-0.04602465406060219,-2.6408276557922363
0.88,-0.007312131579965353,0.0032006970141083,0.35431039333343506,-0.008099017664790154,0.005852751433849335,0.32908010482788086,0.10097416490316391,-0.01588294841349125,-2.682084560394287,36011.0,44963.0,36907.0,43283.0,40291.22265625,0.07971708476543427,-0.008789400570094585,-2.8027403354644775
0.9,-0.007698747329413891,0.007462823763489723,0.35839349031448364,-0.00834120623767376,0.007696256041526794,0.35694313049316406,-0.03450031578540802,-0.023675672709941864,-2.847151279449463,34148.0,45030.0,39594.0,42472.0,40311.40625,-0.1287546306848526,-0.02534150891005993,-2.8781490325927734
0.92,-0.007696566171944141,0.01056537963449955,0.36220240592956543,-0.00834120623767376,0.007696256041526794,0.35694313049316406,-0.13373368978500366,-0.0010696586687117815,-2.8999152183532715,36677.0,44225.0,38355.0,42111.0,40342.4296875,-0.134321391582489,-0.009576714597642422,-2.9227726459503174
0.94,-0.007744173984974623,0.010366735979914665,0.3662976324558258,-0.00827181339263916,0.008125647902488708,0.3645796775817871,-0.09105967730283737,-0.028135115280747414,-3.0018603801727295,35477.0,45899.0,38465.0,41411.0,40313.64453125,-0.02221112698316574,-0.036334794014692307,-3.087855815887451
0.96,-0.007707183249294758,0.010431300848722458,0.36884427070617676,-0.008175281807780266,0.008177526295185089,0.36827749013900757,0.05347118526697159,-0.043833669275045395,-3.1062557697296143,37140.0,45192.0,37594.0,42122.0,40512.90234375,0.1474001258611679,-0.08843252807855606,-3.169403553009033
0.98,-0.0076897721737623215,0.010356664657592773,0.3725292682647705,-0.008028535172343254,0.008396685123443604,0.37180519104003906,0.2212999314069748,-0.1334892213344574,-3.177567481994629,35817.0,44971.0,39409.0,41771.0,40492.0,0.2780945599079132,-0.15683762729167938,-3.220322608947754
1.0,-0.00789608247578144,0.010758081451058388,0.3744426667690277,-0.008028535172343254,0.008396685123443604,0.37180519104003906,0.3435665965080261,-0.1764575093984604,-3.229053020477295,35549.0,45403.0,40147.0,42045.0,40786.49609375,0.4088971018791199,-0.17864836752414703,-3.2326366901397705
1.02,-0.007842017337679863,0.011068833991885185,0.3778159022331238,-0.008028535172343254,0.008396685123443604,0.37180519104003906,0.4689803421497345,-0.1905655413866043,-3.2368147373199463,36154.0,44872.0,39612.0,42426.0,40766.1875,0.515970766544342,-0.19108639657497406,-3.237739086151123
1.04,-0.00776230962947011,0.011432798579335213,0.3794015347957611,-0.008028535172343254,0.008396685123443604,0.37180519104003906,0.5484846234321594,-0.1995769739151001,-3.238260269165039,37019.0,45733.0,39255.0,42181.0,41047.6484375,0.5877611041069031,-0.22016359865665436,-3.2747859954833984
1.06,-0.007992866449058056,0.011092462576925755,0.38269907236099243,-0.007557716686278582,0.009312741458415985,0.38598448038101196,0.6316272616386414,-0.23044617474079132,-3.2763426303863525,36937.0,45023.0,38839.0,43045.0,40961.04296875,0.6669816970825195,-0.23654256761074066,-3.280240774154663
1.08,-0.00749328313395381,0.010768355801701546,0.3860364258289337,-0.00661228783428669,0.00860326737165451,0.3909849226474762,0.6952099800109863,-0.2667252719402313,-3.0481159687042236,36452.0,46382.0,38958.0,41656.0,40862.734375,0.713127076625824,-0.30557265877723694,-3.102877616882324
1.1,-0.007527731359004974,0.010816977359354496,0.3892309367656708,-0.00661228783428669,0.00860326737165451,0.3909849226474762,0.7398883700370789,-0.3138314485549927,-3.132155179977417,36122.0,44456.0,38412.0,44070.0,40765.7890625,0.7537969946861267,-0.32159411907196045,-3.203779697418213
1.12,-0.007398977875709534,0.010840175673365593,0.3924523591995239,-0.00661228783428669,0.00860326737165451,0.3909849226474762,0.7561413049697876,-0.33136603236198425,-3.2127163410186768,36273.0,44935.0,38985.0,42471.0,40666.015625,0.740027666091919,-0.32820630073547363,-3.2178609371185303
1.14,-0.007543428335338831,0.010829134844243526,0.3963426351547241,-0.00661228783428669,0.00860326737165451,0.3909849226474762,0.7497133612632751,-0.30841466784477234,-3.2209973335266113,36308.0,45094.0,37942.0,42468.0,40453.7265625,0.7352389097213745,-0.3041343092918396,-3.2332494258880615
1.16,-0.00710988650098443,0.010130897164344788,0.39985203742980957,-0.005893416702747345,0.008730009198188782,0.40504926443099976,0.7205819487571716,-0.322329044342041,-3.0176374912261963,36386.0,42612.0,37808.0,44534.0,40335.0078125,0.7574553489685059,-0.30257657170295715,-3.027115821838379
1.18,-0.006874719634652138,0.01306366827338934,0.4033893644809723,-0.005893416702747345,0.008730009198188782,0.40504926443099976,0.6251659989356995,-0.3011161983013153,-3.0542263984680176,36821.0,44197.0,36359.0,43551.0,40232.97265625,0.6283553242683411,-0.26198118925094604,-3.0788521766662598
1.2,-0.00675572082400322,0.013062792830169201,0.40671417117118835,-0.005893416702747345,0.008730009198188782,0.40504926443099976,0.6414166688919067,-0.27783751487731934,-3.103463649749756,34450.0,45170.0,38852.0,42260.0,40183.58984375,0.6397700905799866,-0.28631705045700073,-3.125810384750366
1.22,-0.006551586091518402,0.013057156465947628,0.41025903820991516,-0.005893416702747345,0.008730009198188782,0.40504926443099976,0.6284068822860718,-0.26413050293922424,-3.1382436752319336,36524.0,43646.0,37018.0,43204.0,40098.44921875,0.6425355076789856,-0.25651994347572327,-3.1502060890197754
1.24,-0.006418292410671711,0.012741469778120518,0.4135313332080841,-0.005893416702747345,0.008730009198188782,0.40504926443099976,0.6611031293869019,-0.2780742347240448,-3.1617555618286133,36059.0,44983.0,37367.0,41883.0,40073.66796875,0.6899842023849487,-0.24691380560398102,-3.1714911460876465
1.26,-0.0061736642383039,0.012620706111192703,0.41526493430137634,-0.005893416702747345,0.008730009198188782,0.40504926443099976,0.6959176063537598,-0.2833158075809479,-3.1853959560394287,34879.0,45177.0,39701.0,41603.0,40340.234375,0.6754306554794312,-0.32193025946617126,-3.2810137271881104
1.28,-0.005636068060994148,0.011461582034826279,0.418449729681015,-0.005064936820417643,0.009030528366565704,0.42364662885665894,0.652053713798523,-0.34396350383758545,-3.2889022827148438,35553.0,44861.0,38647.0,42195.0,40314.84375,0.6673041582107544,-0.3443511128425598,-3.294497013092041
1.3,-0.005644622724503279,0.011255201883614063,0.4223695397377014,-0.005064936820417643,0.009030528366565704,0.42364662885665894,0.6675494313240051,-0.3252536654472351,-3.29276442527771,36746.0,44198.0,37506.0,42066.0,40129.27734375,0.6547835469245911,-0.306428998708725,-3.342127799987793
1.32,-0.0051450845785439014,0.010154440999031067,0.4255368411540985,-0.004403607454150915,0.008426092565059662,0.4300503134727478,0.6411539912223816,-0.3003306984901428,-3.3378608226776123,35186.0,45018.0,38898.0,41226.0,40082.015625,0.6352840662002563,-0.297086626291275,-3.3352811336517334
1.34,-0.00472522247582674,0.009817764163017273,0.4284924864768982,-0.004403607454150915,0.008426092565059662,0.4300503134727478,0.6317039132118225,-0.2843131721019745,-3.333853244781494,35100.0,44834.0,38676.0,41738.0,40087.19921875,0.6062890291213989,-0.27691563963890076,-3.3344709873199463
1.36,-0.004449096042662859,0.009088411927223206,0.43277740478515625,-0.004403607454150915,0.008426092565059662,0.4300503134727478,0.5641741752624512,-0.2917015552520752,-3.3380126953125,34644.0,45530.0,38558.0,40740.0,39868.6640625,0.5350674390792847,-0.30849963426589966,-3.3838818073272705
1.38,-0.0037233808543533087,0.008209167048335075,0.4358783960342407,-0.003162542823702097,0.007387802004814148,0.43915027379989624,0.5113386511802673,-0.29116514325141907,-3.3875067234039307,32291.0,46051.0,41257.0,39749.0,39837.3359375,0.4894576370716095,-0.2546030282974243,-3.4320781230926514
1.4,-0.0031179352663457394,0.007546103559434414,0.43953225016593933,-0.002808334305882454,0.007053457200527191,0.44202595949172974,0.4482995867729187,-0.17112120985984802,-3.4230475425720215,36030.0,43028.0,37246.0,42552.0,39714.53515625,0.40453416109085083,-0.1627035140991211,-3.41636061668396
1.42,-0.0027101661544293165,0.006966208107769489,0.4424046277999878,-0.002808334305882454,0.007053457200527191,0.44202595949172974,0.35142984986305237,-0.1445588320493698,-3.4121387004852295,35600.0,44478.0,37464.0,41482.0,39756.48828125,0.29127413034439087,-0.11474866420030594,-3.4875600337982178
1.44,-0.002085160231217742,0.0065100109204649925,0.4457247853279114,-0.001978057436645031,0.006213650107383728,0.4475785493850708,0.25771620869636536,-0.11171664297580719,-3.4853742122650146,35462.0,46370.0,38006.0,38910.0,39687.85546875,0.22548136115074158,-0.14956335723400116,-3.473853349685669
1.46,-0.0016479259356856346,0.005902061704546213,0.448468416929245,-0.001978057436645031,0.006213650107383728,0.4475785493850708,0.2172347605228424,-0.14448049664497375,-3.462709665298462,34446.0,44868.0,39330.0,40244.0,39722.36328125,0.19823908805847168,-0.1302889883518219,-3.44934344291687
1.48,-0.001188714406453073,0.005366527009755373,0.450418621301651,-0.001978057436645031,0.006213650107383728,0.4475785493850708,0.17465919256210327,-0.06271420419216156,-3.4336678981781006,36079.0,42325.0,37823.0,43473.0,39925.40625,0.12867794930934906,-0.005581941921263933,-3.419816017150879
1.5,-0.0007365366909652948,0.004738030955195427,0.45284998416900635,-0.001978057436645031,0.006213650107383728,0.4475785493850708,0.07486943155527115,0.011314772069454193,-3.410219430923462,33066.0,46672.0,40586.0,39784.0,40027.140625,-0.017079662531614304,0.014865073375403881,-3.461481809616089
1.52,-0.0002155951369786635,0.004491523373872042,0.45403024554252625,0.0001471485011279583,0.004361778497695923,0.45722270011901855,-0.031454868614673615,0.050432682037353516,-3.4498071670532227,34030.0,46576.0,40158.0,40540.0,40326.56640625,0.0236915722489357,0.05015357583761215,-3.4742989540100098
1.54,0.00020033851615153253,0.001343504642136395,0.4562128782272339,0.0006854943931102753,0.0039062276482582092,0.4594370722770691,0.004124782979488373,0.09296786040067673,-3.4584994316101074,35392.0,46838.0,39020.0,40350.0,40400.42578125,-0.0129473228007555,0.13480769097805023,-3.4647297859191895
1.56,0.0007041174103505909,0.0008988978806883097,0.45843708515167236,0.0011633438989520073,0.003543250262737274,0.46147239208221436,-0.01953599974513054,0.19191797077655792,-3.449017286300659,34981.0,45589.0,39405.0,41757.0,40433.24609375,-0.07537082582712173,0.19118790328502655,-3.4721686840057373
1.58,0.0013469832483679056,0.0005433289334177971,0.4598848521709442,0.0016325963661074638,0.003185957670211792,0.4634270966053009,-0.14306193590164185,0.1911861151456833,-3.46085524559021,34736.0,45402.0,40504.0,41686.0,40582.72265625,-0.21600864827632904,0.2048529088497162,-3.4469504356384277
1.6,0.0017393541056662798,-0.0002616783604025841,0.46168801188468933,0.0016325963661074638,0.003185957670211792,0.4634270966053009,-0.27321523427963257,0.22124281525611877,-3.431361675262451,35335.0,45783.0,40081.0,41201.0,40600.37109375,-0.30098772048950195,0.2595442831516266,-3.414242744445801
1.62,0.0021583058405667543,-0.0009918910218402743,0.4636315405368805,0.0016325963661074638,0.003185957670211792,0.4634270966053009,-0.33162957429885864,0.2924562692642212,-3.3988733291625977,35518.0,46184.0,38928.0,41662.0,40573.34765625,-0.36708274483680725,0.3000004291534424,-3.4063258171081543
1.64,0.0026883333921432495,-0.0011330224806442857,0.46555230021476746,0.0029054651968181133,0.0022058263421058655,0.46886196732521057,-0.396658718585968,0.3362146019935608,-3.3837478160858154,35580.0,44598.0,38536.0,43414.0,40532.75390625,-0.4540904760360718,0.3594387471675873,-3.3994245529174805
1.66,0.0029994091019034386,-0.0018461050931364298,0.4659489691257477,0.0029054651968181133,0.0022058263421058655,0.46886196732521057,-0.5108526945114136,0.3608945310115814,-3.378528594970703,38039.0,44609.0,38301.0,42179.0,40782.890625,-0.5504128336906433,0.38230785727500916,-3.3511695861816406
1.68,0.0035962609108537436,-0.0018325559794902802,0.4677332639694214,0.0045300680212676525,0.0011838525533676147,0.4733757972717285,-0.5746598839759827,0.3637787103652954,-3.0506808757781982,37347.0,46223.0,38191.0,40239.0,40739.87890625,-0.5795746445655823,0.359186053276062,-3.028674602508545
1.7,0.004008305724710226,-0.0022903482895344496,0.468357652425766,0.0045300680212676525,0.0011838525533676147,0.4733757972717285,-0.5868239998817444,0.37610769271850586,-3.0317461490631104,37575.0,44567.0,37695.0,43751.0,40897.0703125,-0.6141816973686218,0.40564215183258057,-3.0899274349212646
1.72,0.0045393649488687515,-0.0020841353107243776,0.47007596492767334,0.0047524599358439445,0.0013110488653182983,0.47584447264671326,-0.621338427066803,0.427229106426239,-3.087785243988037,36391.0,45765.0,39039.0,42133.0,40832.875,-0.6230500936508179,0.42961904406547546,-3.0714235305786133
1.74,0.004999302793294191,-0.002022750675678253,0.4719211161136627,0.005806704517453909,0.0007367059588432312,0.4783852696418762,-0.627981960773468,0.44108888506889343,-2.807756185531616,35465.0,46651.0,40283.0,40553.0,40738.59375,-0.6298685669898987,0.4689047932624817,-2.7827537059783936
1.76,0.00529089942574501,-0.0023949379101395607,0.47351083159446716,0.005806704517453909,0.0007367059588432312,0.4783852696418762,-0.6270812153816223,0.4848117530345917,-2.784637451171875,36642.0,45730.0,38380.0,41972.0,40681.01953125,-0.6280947923660278,0.45697852969169617,-2.8461618423461914
1.78,0.0056432387791574,-0.0020890787709504366,0.4753478169441223,0.005840772297233343,0.0011991336941719055,0.48071014881134033,-0.6000103950500488,0.42787739634513855,-2.847484827041626,36089.0,47001.0,39059.0,40243.0,40598.09765625,-0.5906227231025696,0.4390715956687927,-2.835993766784668
1.8,0.006028142757713795,-0.0023400092031806707,0.47766366600990295,0.005840772297233343,0.0011991336941719055,0.48071014881134033,-0.574167788028717,0.4421970546245575,-2.8226912021636963,35883.0,44111.0,39127.0,42551.0,40418.2265625,-0.5611811280250549,0.4419068396091461,-2.806891918182373
1.82,0.006132128648459911,-0.0023502821568399668,0.4793916344642639,0.006904296576976776,0.001484513282775879,0.48606425523757935,-0.5733780860900879,0.42789679765701294,-2.7924633026123047,35912.0,45470.0,38796.0,41294.0,40368.3515625,-0.5726291537284851,0.426215261220932,-2.8326783180236816
1.84,0.006464291363954544,-0.0017382728401571512,0.4815729260444641,0.006904296576976776,0.001484513282775879,0.48606425523757935,-0.5335196256637573,0.44504523277282715,-2.8238234519958496,36587.0,44751.0,37917.0,41813.0,40267.09765625,-0.4969370663166046,0.495459645986557,-2.8090198040008545
1.86,0.006911208853125572,-0.0012239491334185004,0.4835037887096405,0.007760840002447367,0.0014492049813270569,0.48873233795166016,-0.4925476312637329,0.48913100361824036,-2.532392978668213,34760.0,46360.0,36790.0,43022.0,40233.34375,-0.488994300365448,0.4684947729110718,-2.591914415359497
1.88,0.007054849993437529,-0.0012323253322392702,0.48508477210998535,0.007818886078894138,0.0022670477628707886,0.49112972617149353,-0.4538213312625885,0.44534823298454285,-2.603133201599121,37202.0,46558.0,37302.0,39938.0,40250.83984375,-0.43294450640678406,0.3919488489627838,-2.66556453704834
1.9,0.007207125891000032,-0.000507691758684814,0.4869253933429718,0.007818886078894138,0.0022670477628707886,0.49112972617149353,-0.37608346343040466,0.38566187024116516,-2.6548421382904053,37393.0,44873.0,37431.0,41235.0,40233.91796875,-0.33206960558891296,0.4075019359588623,-2.630911350250244
1.92,0.007299574092030525,-0.00041003755177371204,0.4878973066806793,0.007818886078894138,0.0022670477628707886,0.49112972617149353,-0.2931177020072937,0.3987095355987549,-2.615434408187866,36934.0,43736.0,38016.0,42870.0,40389.27734375,-0.2597797214984894,0.38931360840797424,-2.6031222343444824
1.94,0.007377658039331436,-0.00017239057342521846,0.48940151929855347,0.007818886078894138,0.0022670477628707886,0.49112972617149353,-0.22808577120304108,0.35907769203186035,-2.594106435775757,37041.0,44351.0,38029.0,42283.0,40426.73046875,-0.20010511577129364,0.32899218797683716,-2.581105947494507
1.96,0.007177898194640875,-0.0001560559612698853,0.4901359975337982,0.007818886078894138,0.0022670477628707886,0.49112972617149353,-0.15040360391139984,0.2823307514190674,-2.565570831298828,35376.0,46286.0,40160.0,40594.0,40604.22265625,-0.13940218091011047,0.25350967049598694,-2.5473010540008545
1.98,0.00767931854352355,0.0011674345005303621,0.4916348457336426,0.00927596166729927,0.0033186450600624084,0.4975399672985077,-0.12135250121355057,0.2645532786846161,-2.301482915878296,36357.0,45135.0,38987.0,41917.0,40599.27734375,-0.07468916475772858,0.2655373811721802,-2.29677152633667
2.0,0.007702860049903393,0.0015089854132384062,0.4929267466068268,0.009493456222116947,0.0043932124972343445,0.49959325790405273,-0.06447762995958328,0.2708762586116791,-2.3115553855895996,35052.0,46134.0,40356.0,40978.0,40630.25,-0.0694606751203537,0.2686796486377716,-2.4141409397125244
2.02,0.008229976519942284,0.0025007366202771664,0.4927816092967987,0.009699534624814987,0.00482584536075592,0.5007689595222473,-0.04183175787329674,0.275945246219635,-2.418057918548584,36431.0,45767.0,39487.0,41803.0,40872.25,-0.02053520828485489,0.2656461298465729,-2.4840755462646484
2.04,0.008669680915772915,0.0035961235407739878,0.4941532015800476,0.009699534624814987,0.00482584536075592,0.5007689595222473,0.022674711421132088,0.24827399849891663,-2.480123281478882,34899.0,46333.0,40747.0,41173.0,40788.0546875,0.08306007087230682,0.24727670848369598,-2.4716429710388184
2.06,0.008688950911164284,0.003751585492864251,0.49583399295806885,0.009699534624814987,0.00482584536075592,0.5007689595222473,0.13612718880176544,0.2549326717853546,-2.466726303100586,35938.0,44926.0,39292.0,42408.0,40641.890625,0.18080314993858337,0.260219931602478,-2.465059757232666
2.08,0.008690781891345978,0.004079640842974186,0.4970802962779999,0.009699534624814987,0.00482584536075592,0.5007689595222473,0.20710887014865875,0.26758265495300293,-2.4638562202453613,35878.0,45976.0,39322.0,41264.0,40610.8671875,0.2323179394006729,0.27247703075408936,-2.4598753452301025
2.1,0.00867165345698595,0.004392450675368309,0.4996241629123688,0.009699534624814987,0.00482584536075592,0.5007689595222473,0.26129674911499023,0.26160353422164917,-2.4572341442108154,37598.0,44274.0,36992.0,42492.0,40339.9453125,0.2832801342010498,0.23681817948818207,-2.4551470279693604
2.12,0.008478300645947456,0.004629409406334162,0.5010042786598206,0.010896972380578518,0.006724841892719269,0.5068881511688232,0.31898584961891174,0.2142125517129898,-2.4509189128875732,36157.0,44503.0,38361.0,42299.0,40330.5859375,0.35294926166534424,0.22261333465576172,-2.5266289710998535
2.14,0.009122084826231003,0.0059061977081000805,0.502614438533783,0.01097594853490591,0.006989143788814545,0.5080973505973816,0.36040112376213074,0.19430138170719147,-2.5236897468566895,35395.0,45087.0,38987.0,41639.0,40277.203125,0.39046457409858704,0.15833425521850586,-2.567854166030884
2.16,0.009557189419865608,0.007097013294696808,0.504112958908081,0.01097594853490591,0.006989143788814545,0.5080973505973816,0.3829227685928345,0.16822561621665955,-2.564979314804077,37212.0,42582.0,37082.0,44204.0,40270.9375,0.4346121549606323,0.18770615756511688,-2.563750743865967
2.18,0.009573046118021011,0.00817593652755022,0.5049142241477966,0.01150304265320301,0.007553815841674805,0.5103917717933655,0.4003673791885376,0.16764983534812927,-2.5597500801086426,36106.0,43550.0,38476.0,43548.0,40420.515625,0.43049392104148865,0.16542986035346985,-2.606419563293457
2.2,0.009961835108697414,0.008508293889462948,0.5062440037727356,0.01150304265320301,0.007553815841674805,0.5103917717933655,0.45356273651123047,0.1755097210407257,-2.6008870601654053,37256.0,45350.0,37370.0,41740.0,40429.81640625,0.4680796265602112,0.18172194063663483,-2.5865859985351562
2.22,0.009938022121787071,0.009002023376524448,0.5073992609977722,0.011992160230875015,0.007970459759235382,0.5125005841255188,0.5081260204315186,0.19873221218585968,-2.580893039703369,35252.0,47028.0,36370.0,43158.0,40452.00390625,0.5644505620002747,0.21565011143684387,-2.6454837322235107
2.24,0.010343490168452263,0.009126116521656513,0.508076012134552,0.011992160230875015,0.007970459759235382,0.5125005841255188,0.6087747812271118,0.18979772925376892,-2.645005702972412,34519.0,47695.0,38417.0,41577.0,40552.671875,0.6144225001335144,0.14044256508350372,-2.674307346343994
2.26,0.01036780420690775,0.009538456797599792,0.5091156959533691,0.012363282032310963,0.008207947015762329,0.5143558979034424,0.6444627046585083,0.12691612541675568,-2.666820526123047,33741.0,47329.0,38995.0,42195.0,40565.3828125,0.6773118376731873,0.11430039256811142,-2.7029664516448975
2.28,0.010715737007558346,0.009645426645874977,0.5100029706954956,0.012585325166583061,0.008202500641345978,0.5152286291122437,0.6848027110099792,0.15588174760341644,-2.6878678798675537,36362.0,45152.0,36634.0,44192.0,40585.70703125,0.6979376673698425,0.20882810652256012,-2.713606357574463
2.3,0.01104733906686306,0.00958032626658678,0.5111518502235413,0.012760395184159279,0.008141033351421356,0.516150712966919,0.7174412608146667,0.22465728223323822,-2.7055604457855225,34166.0,46190.0,38752.0,43064.0,40543.9375,0.7480594515800476,0.20033180713653564,-2.7323155403137207
2.32,0.01132987905293703,0.009419377893209457,0.5112454891204834,0.012760395184159279,0.008141033351421356,0.516150712966919,0.755729079246521,0.20503538846969604,-2.7249209880828857,35256.0,47770.0,38016.0,41718.0,40690.80859375,0.7727769017219543,0.1975083202123642,-2.7517521381378174
2.34,0.01130656711757183,0.009499055333435535,0.5121588706970215,0.012760395184159279,0.008141033351421356,0.516150712966919,0.7999676465988159,0.19531674683094025,-2.737217903137207,36406.0,44540.0,38556.0,43146.0,40662.48046875,0.7972599864006042,0.21945452690124512,-2.7178542613983154
2.36,0.011262433603405952,0.009525504894554615,0.513235867023468,0.012760395184159279,0.008141033351421356,0.516150712966919,0.7921509146690369,0.23601679503917694,-2.699737548828125,34506.0,45888.0,40082.0,41912.0,40597.20703125,0.7811949253082275,0.24898405373096466,-2.6893675327301025
2.38,0.011331114917993546,0.0095145795494318,0.514192521572113,0.012760395184159279,0.008141033351421356,0.516150712966919,0.7646523714065552,0.28979766368865967,-2.7137057781219482,36046.0,43682.0,38710.0,43830.0,40567.68359375,0.7538666129112244,0.3227769136428833,-2.7020506858825684
2.4,0.011267277412116528,0.009437419474124908,0.5143057107925415,0.012760395184159279,0.008141033351421356,0.516150712966919,0.7300080060958862,0.3056907057762146,-2.724287271499634,36326.0,45582.0,38552.0,42336.0,40699.92578125,0.7034465670585632,0.29224053025245667,-2.7063586711883545
2.42,0.01138144452124834,0.009165780618786812,0.5151785612106323,0.012760395184159279,0.008141033351421356,0.516150712966919,0.6887258291244507,0.2932083308696747,-2.685929536819458,35237.0,45631.0,39787.0,42041.0,40674.71484375,0.6845341920852661,0.27117422223091125,-2.6631546020507812
2.44,0.011286098510026932,0.00897925067692995,0.5160568356513977,0.012760395184159279,0.008141033351421356,0.516150712966919,0.655584454536438,0.2743968665599823,-2.679596424102783,36130.0,46064.0,38664.0,41754.0,40653.82421875,0.6240125298500061,0.2784503996372223,-2.6627228260040283
2.46,0.011168200522661209,0.008752015419304371,0.5156469345092773,0.012760395184159279,0.008141033351421356,0.516150712966919,0.6127848029136658,0.28987574577331543,-2.6482067108154297,36550.0,46466.0,38504.0,41900.0,40855.875,0.5950816869735718,0.27518123388290405,-2.636592388153076
2.48,0.011280021630227566,0.008374293334782124,0.5164065957069397,0.012760395184159279,0.008141033351421356,0.516150712966919,0.5747658014297485,0.28579115867614746,-2.623119354248047,36780.0,46580.0,38336.0,41656.0,40838.046875,0.531861424446106,0.2807190418243408,-2.607374668121338
2.5,0.011117394082248211,0.007921927608549595,0.5160061120986938,0.012760395184159279,0.008141033351421356,0.516150712966919,0.4988407492637634,0.2924147844314575,-2.6232004165649414,36596.0,45336.0,39094.0,43038.0,41016.0546875,0.4615393280982971,0.2856263816356659,-2.602933406829834
2.52,0.01089243870228529,0.007436090148985386,0.5166798233985901,0.012760395184159279,0.008141033351421356,0.516150712966919,0.41401785612106323,0.3021381199359894,-2.6043059825897217,36153.0,45613.0,39237.0,42913.0,40979.37109375,0.3759154677391052,0.31592580676078796,-2.5890042781829834
2.54,0.010719173587858677,0.0068573541939258575,0.5173670053482056,0.012760395184159279,0.008141033351421356,0.516150712966919,0.347234308719635,0.3152655065059662,-2.6110992431640625,35884.0,45704.0,39318.0,42846.0,40938.01171875,0.3135213851928711,0.29698053002357483,-2.6016151905059814
2.56,0.010620149783790112,0.006247325334697962,0.5180982351303101,0.012760395184159279,0.008141033351421356,0.516150712966919,0.27434176206588745,0.26819223165512085,-2.589797258377075,35403.0,45631.0,39719.0,42771.0,40881.90234375,0.2364347279071808,0.23129794001579285,-2.579106569290161
2.58,0.010242235846817493,0.005812798161059618,0.5202471017837524,0.012760395184159279,0.008141033351421356,0.516150712966919,0.1842460334300995,0.21916039288043976,-2.565659999847412,35766.0,45340.0,38750.0,42400.0,40564.6640625,0.12759914994239807,0.22024069726467133,-2.5512771606445312
2.6,0.010009268298745155,0.005212795455008745,0.5211985111236572,0.012760395184159279,0.008141033351421356,0.516150712966919,0.07127948850393295,0.20865771174430847,-2.541595220565796,35528.0,46624.0,38662.0,41178.0,40498.84765625,0.02281741425395012,0.21830004453659058,-2.536938428878784
2.62,0.010122984647750854,0.004570236429572105,0.5224987864494324,0.012760395184159279,0.008141033351421356,0.516150712966919,-0.015525169670581818,0.22638988494873047,-2.5378735065460205,34532.0,44454.0,39336.0,43198.0,40380.25390625,-0.03713487833738327,0.22200873494148254,-2.5369553565979004
2.64,0.009921587072312832,0.0037670196034014225,0.523527204990387,0.012760395184159279,0.008141033351421356,0.516150712966919,-0.06692298501729965,0.23106539249420166,-2.531153678894043,35777.0,44701.0,38007.0,42863.0,40337.65234375,-0.10023558884859085,0.21606355905532837,-2.5256335735321045
2.66,0.009758440777659416,0.002988804131746292,0.524560809135437,0.012760395184159279,0.008141033351421356,0.516150712966919,-0.1334133744239807,0.16196155548095703,-2.5244791507720947,35014.0,46892.0,38642.0,40644.0,40298.3828125,-0.1590772122144699,0.11800885200500488,-2.5226683616638184
2.68,0.00921792071312666,0.002203782554715872,0.5270329117774963,0.012760395184159279,0.008141033351421356,0.516150712966919,-0.17456649243831635,0.12576007843017578,-2.520188808441162,35143.0,44711.0,37987.0,42207.0,40012.51171875,-0.20439840853214264,0.12449878454208374,-2.517116069793701
2.7,0.00895019993185997,0.0009316207142546773,0.5281861424446106,0.012760395184159279,0.008141033351421356,0.516150712966919,-0.238498717546463,0.12000063061714172,-2.5160601139068604,36312.0,43174.0,36538.0,44052.0,40019.87109375,-0.2813809812068939,0.08609160035848618,-2.5219240188598633
2.72,0.009039263240993023,-1.967931166291237e-05,0.5277303457260132,0.012760395184159279,0.008141033351421356,0.516150712966919,-0.3359396755695343,0.04739109054207802,-2.522071123123169,35864.0,45260.0,37678.0,42530.0,40333.5,-0.3811575174331665,0.03534907475113869,-2.5221431255340576
2.74,0.009030596353113651,-0.0008842996321618557,0.5286122560501099,0.012760395184159279,0.008141033351421356,0.516150712966919,-0.40997087955474854,-0.0050208247266709805,-2.5265607833862305,34086.0,46078.0,39662.0,41662.0,40372.3125,-0.44234004616737366,-0.019681338220834732,-2.5219638347625732
2.76,0.008035504259169102,-0.0010822685435414314,0.5294309854507446,0.012760395184159279,0.008141033351421356,0.516150712966919,-0.4765058159828186,0.019740350544452667,-2.520686626434326,33929.0,44761.0,39835.0,43099.0,40406.75390625,-0.4925785958766937,0.004957227502018213,-2.5219459533691406
2.78,0.007897496223449707,-0.002605891553685069,0.5302192568778992,0.012760395184159279,0.008141033351421356,0.516150712966919,-0.5369148254394531,-0.008827843703329563,-2.5186455249786377,35157.0,44717.0,38553.0,43289.0,40429.78125,-0.5905865430831909,-0.019665773957967758,-2.5189473628997803
2.8,0.0076809292659163475,-0.0033439728431403637,0.5315251350402832,0.012760395184159279,0.008141033351421356,0.516150712966919,-0.6432788372039795,-0.029087616130709648,-2.52237606048584,35018.0,44518.0,38240.0,43552.0,40332.24609375,-0.6717994809150696,-0.04873755946755409,-2.531547784805298
2.82,0.007541567552834749,-0.004224610980600119,0.532315731048584,0.012760395184159279,0.008141033351421356,0.516150712966919,-0.6969553828239441,-0.07356124371290207,-2.5431907176971436,35273.0,44245.0,37781.0,44081.0,40345.13671875,-0.6965619921684265,-0.07760823518037796,-2.5599846839904785
2.84,0.006562409922480583,-0.00596100278198719,0.5334658026695251,0.012760395184159279,0.008141033351421356,0.516150712966919,-0.7331436276435852,-0.08671914041042328,-2.5692522525787354,35275.0,46199.0,37845.0,41813.0,40283.54296875,-0.7547579407691956,-0.07894188165664673,-2.5763375759124756
2.86,0.007058735936880112,-0.006091804709285498,0.5342391133308411,0.012760395184159279,0.008141033351421356,0.516150712966919,-0.766730546951294,-0.06759002804756165,-2.5874946117401123,35150.0,44982.0,37764.0,43252.0,40287.54296875,-0.7844794988632202,-0.06482873857021332,-2.6028518676757812
2.88,0.006798326037824154,-0.006477129179984331,0.5349796414375305,0.012760395184159279,0.008141033351421356,0.516150712966919,-0.8072099089622498,-0.06562861800193787,-2.616590738296509,34571.0,44677.0,38391.0,43625.0,40316.25390625,-0.8530375957489014,-0.06546368449926376,-2.6253395080566406
2.9,0.006544537842273712,-0.006813869811594486,0.5348291993141174,0.012760395184159279,0.008141033351421356,0.516150712966919,-0.8842551708221436,-0.07748942077159882,-2.6403839588165283,36098.0,46642.0,36912.0,42324.0,40494.08203125,-0.8933810591697693,-0.12049935013055801,-2.6584181785583496
2.92,0.006252470426261425,-0.007649396080523729,0.535398542881012,0.012760395184159279,0.008141033351421356,0.516150712966919,-0.8846966624259949,-0.17658847570419312,-2.674837112426758,35839.0,45869.0,37303.0,43105.0,40529.85546875,-0.876105785369873,-0.2041633427143097,-2.6906614303588867
2.94,0.01042231172323227,-0.004963696002960205,0.5349926948547363,0.012272480875253677,-0.003710933029651642,0.5423533916473389,-0.8943777680397034,-0.2259642332792282,-2.7432782649993896,34685.0,45971.0,38811.0,42934.0,40736.9609375,-0.8943777680397034,-0.2259642332792282,-2.7432782649993896
2.96,0.011146336793899536,-0.004459528252482414,0.535631000995636,0.012189619243144989,-0.0036913082003593445,0.5427018404006958,-0.8926339745521545,-0.18144021928310394,-2.7888879776000977,35316.0,45930.0,38050.0,43584.0,40720.12890625,-0.8926339745521545,-0.18144021928310394,-2.7888879776000977
2.98,0.011540280655026436,-0.004203950986266136,0.5355033874511719,0.012052636593580246,-0.0036198273301124573,0.5430908799171448,-0.9046905040740967,-0.15806731581687927,-2.8361387252807617,35311.0,45983.0,38237.0,43761.0,40823.84375,-0.9046905040740967,-0.15806731581687927,-2.8361387252807617
3.002,0.011557296849787235,-0.004130456130951643,0.5358617901802063,0.011984068900346756,-0.00342443585395813,0.5435346364974976,-0.8636490702629089,-0.08496075123548508,-2.858619451522827,30834.0,52116.0,56430.0,23788.0,40792.55078125,-0.8648018836975098,-0.09088817983865738,-2.5363564491271973
3.02,0.01172851212322712,-0.003811829024925828,0.5348756909370422,0.011984068900346756,-0.00342443585395813,0.5435346364974976,-0.7934653162956238,-0.025435252115130424,-2.585380792617798,29283.0,51323.0,43661.0,39837.0,41026.05078125,-0.7934653162956238,-0.025435252115130424,-2.585380792617798
3.04,0.012477940879762173,-0.0034906077198684216,0.5351515412330627,0.011984068900346756,-0.00342443585395813,0.5435346364974976,-0.8277849555015564,-0.9471586346626282,-2.716014862060547,38097.0,41831.0,35139.0,48569.0,40909.1484375,-0.8308628797531128,-0.9723293781280518,-2.716226816177368
3.06,0.013082664459943771,-0.003231628565117717,0.534945011138916,0.011984068900346756,-0.00342443585395813,0.5435346364974976,-0.9949671626091003,-3.426429271697998,-2.816110610961914,40078.0,42600.0,32830.0,48000.0,40877.3515625,-0.9949579834938049,-3.443018674850464,-2.8162550926208496
3.08,0.012980079278349876,-0.0030107125639915466,0.5353875756263733,0.011984068900346756,-0.00342443585395813,0.5435346364974976,-0.9533608555793762,-6.339612007141113,-2.9450430870056152,37558.0,46586.0,34538.0,44274.0,40739.92578125,-0.9467489123344421,-6.361471176147461,-2.9448459148406982
3.1,0.013796886429190636,-0.0027764695696532726,0.5359189510345459,0.011984068900346756,-0.00342443585395813,0.5435346364974976,-0.7006891369819641,-8.723525047302246,-3.0778346061706543,33089.0,47617.0,38765.0,42993.0,40616.8671875,-0.6959679126739502,-8.73208999633789,-3.077507257461548
3.12,0.015142856165766716,-0.002665718086063862,0.5406623482704163,0.011984068900346756,-0.00342443585395813,0.5435346364974976,-0.5869633555412292,-10.521753311157227,-3.1721506118774414,31553.0,47099.0,38777.0,41895.0,39831.35546875,-0.5869633555412292,-10.521753311157227,-3.1721506118774414
3.14,0.01697823777794838,-0.0019987260457128286,0.5416651368141174,0.011984068900346756,-0.00342443585395813,0.5435346364974976,-0.6980811953544617,-11.884245872497559,-3.248581647872925,32419.0,45847.0,37485.0,43537.0,39822.28515625,-0.6980811953544617,-11.884245872497559,-3.248581647872925
3.16,0.019519677385687828,-0.0013771944213658571,0.5479457974433899,0.011984068900346756,-0.00342443585395813,0.5435346364974976,-0.8872212171554565,-13.018780708312988,-3.3515613079071045,32769.0,44685.0,34999.0,43287.0,38935.32421875,-0.8872212171554565,-13.018780708312988,-3.3515613079071045
3.18,0.0232249666005373,-0.0009746048017404974,0.5492865443229675,0.011984068900346756,-0.00342443585395813,0.5435346364974976,-0.9736007452011108,-14.073864936828613,-3.465134620666504,34185.0,45599.0,33675.0,42813.0,39068.109375,-0.9704239368438721,-14.083662986755371,-3.464768648147583
3.2,0.027724577113986015,-0.00011629503569565713,0.5534803867340088,0.02517927624285221,0.0005039200186729431,0.5498495101928711,-0.9057295918464661,-15.067387580871582,-3.6123647689819336,33788.0,45082.0,33280.0,42958.0,38777.85546875,-0.9057295918464661,-15.067387580871582,-3.6123647689819336
3.22,0.033427294343709946,0.0002916571102105081,0.5546252131462097,0.02517927624285221,0.0005039200186729431,0.5498495101928711,-0.7478672862052917,-15.89547348022461,-3.7073495388031006,33673.0,45973.0,34115.0,42579.0,39085.6328125,-0.7411105036735535,-15.892049789428711,-3.706272602081299
3.24,0.03955529257655144,0.0009981523035094142,0.557413637638092,0.035771243274211884,0.0015152394771575928,0.5503683686256409,-0.5509304404258728,-16.38896369934082,-3.8430428504943848,33063.0,45729.0,34299.0,43373.0,39116.99609375,-0.5499783158302307,-16.382427215576172,-3.842865228652954
3.26,0.04671884700655937,0.0014053202467039227,0.5581260323524475,0.035771243274211884,0.0015152394771575928,0.5503683686256409,-0.4053427577018738,-16.57708168029785,-3.921218156814575,33719.0,46733.0,34447.0,43157.0,39514.24609375,-0.4053427577018738,-16.57708168029785,-3.921218156814575
3.28,0.05490441620349884,0.0018396819941699505,0.558483362197876,0.035771243274211884,0.0015152394771575928,0.5503683686256409,-0.32240280508995056,-16.445589065551758,-4.002857208251953,32528.0,47882.0,36336.0,42846.0,39898.98828125,-0.32855460047721863,-16.451684951782227,-4.003891468048096
3.3,0.0645095482468605,0.002393910428509116,0.558427631855011,0.058858342468738556,0.0025974810123443604,0.5488460063934326,-0.27023887634277344,-16.03795051574707,-4.091509819030762,32753.0,48565.0,37105.0,43125.0,40387.95703125,-0.2668379843235016,-16.04387092590332,-4.090973377227783
3.32,0.07501397281885147,0.0024507634807378054,0.5580816268920898,0.058858342468738556,0.0025974810123443604,0.5488460063934326,-0.20381882786750793,-15.371983528137207,-4.1417555809021,32945.0,48453.0,37647.0,44075.0,40780.25390625,-0.2089707851409912,-15.38446044921875,-4.142582893371582
3.34,0.08671330660581589,0.002706879749894142,0.5572850108146667,0.058858342468738556,0.0025974810123443604,0.5488460063934326,-0.1304653435945511,-14.603271484375,-4.228140354156494,35175.0,49807.0,35973.0,43625.0,41145.53515625,-0.1304653435945511,-14.603271484375,-4.228140354156494
3.36,0.0991148129105568,0.0027081354055553675,0.556456446647644,0.058858342468738556,0.0025974810123443604,0.5488460063934326,-0.024891886860132217,-13.637925148010254,-4.278284072875977,35810.0,48582.0,35742.0,45462.0,41399.05078125,-0.025698669254779816,-13.617759704589844,-4.278390407562256
3.38,0.1117497980594635,0.002864743350073695,0.5532203316688538,0.058858342468738556,0.0025974810123443604,0.5488460063934326,0.08178205788135529,-12.52854061126709,-4.3574113845825195,34663.0,49101.0,38227.0,46061.0,42013.13671875,0.0816367045044899,-12.509590148925781,-4.357441425323486
3.4,0.12579932808876038,0.002625532215461135,0.5519610643386841,0.058858342468738556,0.0025974810123443604,0.5488460063934326,0.20205095410346985,-11.32253360748291,-4.418662071228027,36250.0,50578.0,36940.0,44688.0,42114.9453125,0.19642716646194458,-11.294597625732422,-4.41926383972168
3.42,0.1392182558774948,0.002735298592597246,0.5464581251144409,0.12889674305915833,0.0031992346048355103,0.5389370322227478,0.3207594156265259,-10.046884536743164,-4.451662063598633,35230.0,51206.0,39898.0,45330.0,42916.578125,0.3155086636543274,-10.031230926513672,-4.4522385597229
3.44,0.15533000230789185,0.0025481022894382477,0.5448160767555237,0.12889674305915833,0.0031992346048355103,0.5389370322227478,0.42927226424217224,-8.680705070495605,-4.425162315368652,38458.0,50052.0,36814.0,46156.0,42870.38671875,0.4327984154224396,-8.644659996032715,-4.425025463104248
3.46,0.17181478440761566,0.002247979398816824,0.5382786393165588,0.12889674305915833,0.0031992346048355103,0.5389370322227478,0.5165044069290161,-7.255800247192383,-4.3966383934021,36453.0,52935.0,40293.0,44747.0,43607.14453125,0.5150427222251892,-7.237082004547119,-4.3968377113342285
3.48,0.1878165304660797,0.0023096182849258184,0.5366274118423462,0.12889674305915833,0.0031992346048355103,0.5389370322227478,0.5928177833557129,-5.778691291809082,-4.352673053741455,35802.0,51960.0,40750.0,44884.0,43349.9375,0.5963621139526367,-5.758747100830078,-4.352596759796143
3.5,0.20463106036186218,0.001686986768618226,0.5353027582168579,0.20153477787971497,0.0013188645243644714,0.5363950729370117,0.6349064707756042,-4.384626388549805,-4.286466121673584,37322.0,51700.0,41148.0,45646.0,43954.68359375,0.646511971950531,-4.374271869659424,-4.04838228225708
3.52,0.2188425064086914,0.0016172451432794333,0.5287936329841614,0.20153477787971497,0.0013188645243644714,0.5363950729370117,0.6601977348327637,-2.9625375270843506,-3.969669818878174,37445.0,50839.0,40009.0,45771.0,43516.921875,0.661831796169281,-2.968966245651245,-3.9695472717285156
3.54,0.23587721586227417,0.0012566368095576763,0.5277770161628723,0.20153477787971497,0.0013188645243644714,0.5363950729370117,0.6562499403953552,-1.5578784942626953,-3.894726514816284,36189.0,51411.0,40673.0,43711.0,42996.50390625,0.6630182862281799,-1.5956419706344604,-3.8943631649017334
3.56,0.25054606795310974,-8.173436799552292e-05,0.5232944488525391,0.23715965449810028,-0.0009248480200767517,0.5302268266677856,0.6605506539344788,-0.12260396778583527,-3.8311595916748047,37238.0,50856.0,40278.0,44232.0,43151.2578125,0.6610019207000732,-0.13561268150806427,-3.8310370445251465
3.58,0.26620423793792725,-0.0012486809864640236,0.5231000185012817,0.25330060720443726,-0.0021266713738441467,0.5305271744728088,0.6429693102836609,1.2041796445846558,-3.765458822250366,36915.0,50069.0,39927.0,43301.0,42553.6484375,0.6423708200454712,1.1906391382217407,-3.765360116958618
3.6,0.2829510271549225,-0.0019054838921874762,0.5223044157028198,0.25330060720443726,-0.0021266713738441467,0.5305271744728088,0.5758964419364929,2.490224838256836,-3.6027112007141113,36266.0,49286.0,40126.0,42990.0,42167.34765625,0.5804557204246521,2.470827102661133,-3.6024909019470215
3.62,0.3002162277698517,-0.0027936003170907497,0.5226621627807617,0.297149658203125,-0.00527673214673996,0.5378187298774719,0.5123563408851624,3.700596332550049,-3.429361581802368,35593.0,47997.0,40329.0,42341.0,41565.08203125,0.49427738785743713,3.7018167972564697,-3.1635963916778564
3.64,0.3159060478210449,-0.0036651950795203447,0.5245656371116638,0.312133252620697,-0.0067061930894851685,0.5395930409431458,0.4228525757789612,4.792942047119141,-2.994915723800659,35517.0,47279.0,39241.0,41679.0,40929.15234375,0.406117707490921,4.783191204071045,-2.762186050415039
3.66,0.3317730724811554,-0.004968846216797829,0.5261362195014954,0.312133252620697,-0.0067061930894851685,0.5395930409431458,0.355582058429718,5.787232398986816,-2.697065591812134,34836.0,48044.0,39398.0,40014.0,40573.01953125,0.35410282015800476,5.77988862991333,-2.697023391723633
3.68,0.3473603129386902,-0.005785095039755106,0.5302961468696594,0.3407078683376312,-0.009710393846035004,0.543432891368866,0.2675195634365082,6.770446300506592,-2.5270533561706543,34197.0,45113.0,39403.0,40303.0,39754.25,0.24158556759357452,6.811967849731445,-2.3111956119537354
3.7,0.3609279692173004,-0.006962095852941275,0.5324610471725464,0.3407078683376312,-0.009710393846035004,0.543432891368866,0.10267024487257004,7.6144490242004395,-2.117898464202881,34137.0,46235.0,39111.0,38797.0,39570.21484375,0.10428477823734283,7.6392316818237305,-2.117993116378784
3.72,0.3731984794139862,-0.008683611638844013,0.5346283912658691,0.3564169406890869,-0.011630535125732422,0.5422388911247253,-0.02223224751651287,8.41738510131836,-2.0173275470733643,34201.0,44741.0,38799.0,38435.0,39044.5625,-0.024366404861211777,8.448080062866211,-2.0173070430755615
3.74,0.3869107961654663,-0.009611316956579685,0.5387011170387268,0.3564169406890869,-0.011630535125732422,0.5422388911247253,-0.1315726637840271,9.048050880432129,-1.7728745937347412,34759.0,43527.0,38613.0,39117.0,39004.57421875,-0.12490034103393555,9.06805419921875,-1.7730625867843628
3.76,0.4000203609466553,-0.010775526985526085,0.5406613945960999,0.3564169406890869,-0.011630535125732422,0.5422388911247253,-0.2752430737018585,9.503143310546875,-1.5180939435958862,36672.0,44788.0,37054.0,37862.0,39094.578125,-0.28045669198036194,9.527182579040527,-1.5178531408309937
3.78,0.4128972589969635,-0.0116707943379879,0.5461252927780151,0.3564169406890869,-0.011630535125732422,0.5422388911247253,-0.4224522113800049,9.841008186340332,-1.2783411741256714,34886.0,42636.0,37936.0,38962.0,38605.71484375,-0.4257134199142456,9.864705085754395,-1.2781295776367188
3.8,0.4209832549095154,-0.013880479149520397,0.5481389164924622,0.4024003744125366,-0.01791229099035263,0.5506193041801453,-0.5441954731941223,10.167396545410156,-1.1433976888656616,34510.0,43020.0,38984.0,38590.0,38776.71484375,-0.5471622943878174,10.17770767211914,-1.143244743347168
3.82,0.4319104254245758,-0.014757782220840454,0.551551342010498,0.4024003744125366,-0.01791229099035263,0.5506193041801453,-0.7000354528427124,10.391179084777832,-0.9052054286003113,34999.0,43177.0,38705.0,37919.0,38700.58203125,-0.6984841227531433,10.40771198272705,-0.9051758646965027
3.84,0.4421653151512146,-0.015590853989124298,0.5531011819839478,0.4024003744125366,-0.01791229099035263,0.5506193041801453,-0.8479714393615723,10.512890815734863,-0.6691295504570007,36862.0,41408.0,37524.0,40034.0,38957.72265625,-0.8504334092140198,10.5269136428833,-0.668904721736908
3.86,0.4471897482872009,-0.018026288598775864,0.5564532279968262,0.4290492534637451,-0.02248099446296692,0.5543222427368164,-0.9101638793945312,10.584968566894531,-0.547178328037262,37268.0,43476.0,37180.0,37540.0,38866.20703125,-0.9035930037498474,10.582947731018066,-0.5474504828453064
3.88,0.45285874605178833,-0.020351042971014977,0.5575766563415527,0.43651023507118225,-0.024049825966358185,0.5549913644790649,-0.942382276058197,10.510637283325195,-0.4108308255672455,36128.0,43258.0,39192.0,37946.0,39131.31640625,-0.942382276058197,10.510637283325195,-0.4108308255672455
3.9,0.4608401954174042,-0.02120034396648407,0.5581904053688049,0.43651023507118225,-0.024049825966358185,0.5549913644790649,-1.0533971786499023,10.317591667175293,-0.17665986716747284,37772.0,42312.0,38452.0,39268.0,39451.2421875,-1.0533971786499023,10.317591667175293,-0.17665986716747284
3.92,0.46503183245658875,-0.02314147911965847,0.5587416887283325,0.44945186376571655,-0.027169033885002136,0.555590033531189,-1.1731420755386353,10.053068161010742,-0.04948631301522255,36449.0,43403.0,40375.0,38629.0,39714.90625,-1.1731420755386353,10.053068161010742,-0.04948631301522255
3.94,0.4714292287826538,-0.024032197892665863,0.5591483116149902,0.44945186376571655,-0.027169033885002136,0.555590033531189,-1.3300750255584717,9.661016464233398,0.15721186995506287,38160.0,42742.0,39960.0,40234.0,40274.8046875,-1.3300750255584717,9.661016464233398,0.15721186995506287
3.96,0.47408410906791687,-0.026135887950658798,0.5573784708976746,0.45945122838020325,-0.02989427000284195,0.5552093982696533,-1.436501145362854,9.303447723388672,0.25987550616264343,39223.0,43519.0,39633.0,39605.0,40495.73828125,-1.436501145362854,9.303447723388672,0.25987550616264343
3.98,0.479102224111557,-0.026898233219981194,0.5572478175163269,0.45945122838020325,-0.02989427000284195,0.5552093982696533,-1.5358072519302368,8.842480659484863,0.4590117335319519,39323.0,43717.0,39757.0,39795.0,40648.55078125,-1.53524649143219,8.84826946258545,0.45912545919418335
4.0,0.4835678040981293,-0.02755608595907688,0.55522620677948,0.45945122838020325,-0.02989427000284195,0.5552093982696533,-1.6513174772262573,8.303874969482422,0.6264540553092957,39423.0,44145.0,40391.0,40321.0,41070.703125,-1.6540156602859497,8.309711456298828,0.6266022324562073
4.02,0.48729056119918823,-0.0281797107309103,0.5547637939453125,0.45945122838020325,-0.02989427000284195,0.5552093982696533,-1.7380247116088867,7.703151702880859,0.7733525633811951,38976.0,44218.0,41304.0,40062.0,41140.375,-1.7380247116088867,7.703151702880859,0.7733525633811951
4.04,0.4902673065662384,-0.028775766491889954,0.5532493591308594,0.45945122838020325,-0.02989427000284195,0.5552093982696533,-1.8018465042114258,7.155070781707764,0.919232964515686,38207.0,44507.0,42585.0,40057.0,41339.6875,-1.8018465042114258,7.155070781707764,0.919232964515686
4.06,0.49292904138565063,-0.029271354898810387,0.552712082862854,0.45945122838020325,-0.02989427000284195,0.5552093982696533,-1.875214695930481,6.61950159072876,1.0525423288345337,39752.0,44210.0,40608.0,40602.0,41293.85546875,-1.875214695930481,6.61950159072876,1.0525423288345337
4.08,0.49498051404953003,-0.02938256226480007,0.5500370860099792,0.45945122838020325,-0.02989427000284195,0.5552093982696533,-1.9155473709106445,6.004980087280273,1.1556484699249268,39278.0,44858.0,41754.0,40474.0,41591.85546875,-1.9098975658416748,6.012029647827148,1.1557148694992065
4.1,0.4962223470211029,-0.029885556548833847,0.549470067024231,0.45945122838020325,-0.02989427000284195,0.5552093982696533,-1.9042235612869263,5.435680866241455,1.248093605041504,39989.0,44465.0,40907.0,40507.0,41467.93359375,-1.9042235612869263,5.435680866241455,1.248093605041504
4.12,0.4974994659423828,-0.030188431963324547,0.5469751358032227,0.45945122838020325,-0.02989427000284195,0.5552093982696533,-1.8660671710968018,4.892856121063232,1.33445405960083,39661.0,44407.0,41679.0,40953.0,41675.8125,-1.8659083843231201,4.887000560760498,1.3343552350997925
