time,x_kalman,y_kalman,z_kalman,x_lh,y_lh,z_lh,roll,pitch,yaw,target.x,target.y,target.z,target.vx,target.vy,target.vz,target.ax,target.ay,target.az,target.roll,target.pitch,target.yaw,motor.m1,motor.m2,motor.m3,motor.m4,rpm.m1,rpm.m2,rpm.m3,rpm.m4,controller.cmd_thrust,controller.cmd_roll,controller.cmd_pitch,controller.cmd_yaw
0.0,-0.00018227595137432218,-0.0013544480316340923,0.019480181857943535,0.0,0.0,0.0,-1.3625448942184448,-0.4038506746292114,-0.07164662331342697,0.0,0.0,0.0,0.0,0.0,0.0,0.0,0.0,0.0,0.0,0.0,0.0,28308.0,27506.0,28674.0,30364.0,0,0,0,0,28694.205078125,1987.0,531.0,-28.0
0.02,-0.00021436373936012387,-0.0014152174117043614,0.021051965653896332,0.0,0.0,0.0,-1.362604022026062,-0.403632789850235,-0.07329794019460678,0.0,0.0,0.0,0.0,0.0,0.0,0.0,0.0,0.0,0.0,0.0,0.0,27416.0,27964.0,29448.0,29828.0,0,0,0,0,28889.705078125,2298.0,1944.0,-217.0
0.04,-0.0002495107473805547,-0.0015107443323358893,0.021236538887023926,0.0,0.0,0.0,-1.3448843955993652,-0.3882618248462677,-0.08251889795064926,0.0,0.0,0.0,0.0,0.0,0.0,0.0,0.0,0.0,0.0,0.0,0.0,27817.0,27759.0,29307.0,30617.0,0,0,0,0,28873.65625,3167.0,-18.0,-307.0
0.06,-0.00018006535538006574,0.0008703188505023718,0.020053381100296974,0.0,0.0,0.0,-1.3882360458374023,-0.3753235638141632,-0.09996496886014938,0.0,0.0,0.0,0.0,0.0,0.0,0.0,0.0,0.0,0.0,0.0,0.0,28355.0,28021.0,28887.0,30109.0,0,0,0,0,28847.7109375,4072.0,1882.0,-223.0
0.08,0.0008279091562144458,0.0005801340448670089,0.020108114928007126,0.0,0.0,0.0,-1.3772246837615967,-0.39148062467575073,-0.13197359442710876,0.0,0.0,0.0,0.0,0.0,0.0,0.0,0.0,0.0,0.0,0.0,0.0,28640.0,27836.0,28378.0,29886.0,0,0,0,0,31214.1171875,2963.0,-424.0,-370.0
0.1,0.00205861940048635,-0.0002908248279709369,0.0209429319947958,0.0,0.0,0.0,-1.3354521989822388,-0.37872275710105896,-0.1477068066596985,0.0,0.0,0.05000000074505806,0.0,0.0,0.0,0.0,0.0,0.0,0.0,0.0,0.0,31852.0,31068.0,29070.0,32862.0,0,0,0,0,31230.828125,2506.0,1147.0,-852.0
0.12,0.0038954783231019974,-0.00018878142873290926,0.02106523886322975,0.0,0.0,0.0,-1.3329839706420898,-0.4157053828239441,-0.17554259300231934,0.0,0.0,0.05000000074505806,0.0,0.0,0.0,0.0,0.0,0.0,0.0,0.0,0.0,29632.0,31852.0,31726.0,32366.0,0,0,0,0,31424.732421875,2094.0,1354.0,-658.0
0.14,0.0019024291541427374,0.001015056623145938,0.020335616543889046,0.0,0.0,0.0,-1.3449058532714844,-0.3549935519695282,-0.2843480408191681,0.0,0.0,0.05000000074505806,0.0,0.0,0.0,0.0,0.0,0.0,0.0,0.0,0.0,28969.0,33101.0,31967.0,31715.0,0,0,0,0,31447.8359375,3926.0,4133.0,-621.0
0.16,0.0015997829614207149,0.0025392556563019753,0.020343970507383347,0.0,0.0,0.0,-1.3594669103622437,-0.3444231450557709,-0.3710371255874634,0.0,0.0,0.05000000074505806,0.0,0.0,0.0,0.0,0.0,0.0,0.0,0.0,0.0,30305.0,31075.0,31569.0,33139.0,0,0,0,0,31508.330078125,2568.0,-815.0,-562.0
0.18,0.0018322222167626023,0.002113061724230647,0.020223500207066536,0.0,0.0,0.0,-1.324763298034668,-0.3354121744632721,-0.4575675129890442,0.0,0.0,0.05000000074505806,0.0,0.0,0.0,0.0,0.0,0.0,0.0,0.0,0.0,29360.0,30914.0,32770.0,33248.0,0,0,0,0,34074.484375,6390.0,2698.0,-556.0
0.2,0.00246689235791564,0.003778622252866626,0.020184656605124474,0.0,0.0,0.0,-1.3455232381820679,-0.327619731426239,-0.49161675572395325,0.0,0.0,0.10000000149011612,0.0,0.0,0.0,0.0,0.0,0.0,0.0,0.0,0.0,33845.0,31931.0,33079.0,37713.0,0,0,0,0,34397.11328125,-1210.0,3347.0,-666.0
0.22,0.0028610655572265387,0.004135109018534422,0.01891992799937725,0.0,0.0,0.0,-1.3656350374221802,-0.3679087460041046,-0.521594762802124,0.0,0.0,0.10000000149011612,0.0,0.0,0.0,0.0,0.0,0.0,0.0,0.0,0.0,35574.0,36706.0,31318.0,33858.0,0,0,0,0,34289.68359375,-676.0,3385.0,-887.0
0.24,0.003286939114332199,0.002419046126306057,0.01886005513370037,0.0,0.0,0.0,-1.1990702152252197,-0.35521993041038513,-0.5654367804527283,0.0,0.0,0.10000000149011612,0.0,0.0,0.0,0.0,0.0,0.0,0.0,0.0,0.0,35743.0,34415.0,30469.0,36037.0,0,0,0,0,33783.57421875,-3799.0,-2022.0,-1185.0
0.26,0.007455979473888874,0.004842705558985472,0.018885847181081772,0.0,0.0,0.0,-0.8269089460372925,-0.4240350127220154,-0.6328516602516174,0.0,0.0,0.10000000149011612,0.0,0.0,0.0,0.0,0.0,0.0,0.0,0.0,0.0,31015.0,37519.0,33509.0,32757.0,0,0,0,0,33599.7109375,-3268.0,-5635.0,-1506.0
0.28,0.008771880529820919,0.007471636403352022,0.0208599753677845,0.0,0.0,0.0,-0.23445969820022583,-0.3710661232471466,-0.732932448387146,0.0,0.0,0.10000000149011612,0.0,0.0,0.0,0.0,0.0,0.0,0.0,0.0,0.0,28153.0,40157.0,35617.0,30037.0,0,0,0,0,35881.71875,93.0,-5287.0,-1640.0
0.3,0.010358077473938465,0.010102549567818642,0.02145208977162838,0.0,0.0,0.0,0.3494659960269928,0.03397063910961151,-0.8819584250450134,0.0,0.0,0.10000000149011612,0.0,0.0,0.0,0.0,0.0,0.0,0.0,0.0,0.0,30818.0,41488.0,37712.0,33330.0,0,0,0,0,35861.609375,-1789.0,-9564.0,-1674.0
0.32,0.016152072697877884,0.011069735512137413,0.022234447300434113,0.0,0.0,0.0,0.8624932169914246,0.6782068014144897,-1.0411354303359985,0.0,0.0,0.15000000596046448,0.0,0.0,0.0,0.0,0.0,0.0,0.0,0.0,0.0,30741.0,40021.0,37641.0,35009.0,0,0,0,0,35773.9765625,1281.0,-2795.0,-1703.0
0.34,0.018518712371587753,0.008185015060007572,0.023137344047427177,0.0,0.0,0.0,1.2868415117263794,1.5199108123779297,-1.190578579902649,0.0,0.0,0.15000000596046448,0.0,0.0,0.0,0.0,0.0,0.0,0.0,0.0,0.0,32571.0,41189.0,38775.0,36953.0,0,0,0,0,37331.48046875,-2358.0,-4641.0,-1686.0
0.36,0.019313374534249306,0.00341199804097414,0.014675639569759369,0.0,0.0,0.0,1.5782934427261353,2.244932174682617,-1.3395137786865234,0.0,0.0,0.15000000596046448,0.0,0.0,0.0,0.0,0.0,0.0,0.0,0.0,0.0,34977.0,44429.0,36211.0,33763.0,0,0,0,0,37302.75390625,-6158.0,-6304.0,-1782.0
0.38,0.021409867331385612,-0.0025703581050038338,0.014663438312709332,0.0,0.0,0.0,1.7276005744934082,2.6497933864593506,-1.4791706800460815,0.0,0.0,0.15000000596046448,0.0,0.0,0.0,0.0,0.0,0.0,0.0,0.0,0.0,34633.0,42703.0,38259.0,37133.0,0,0,0,0,40543.25390625,-1656.0,-7068.0,-1704.0
0.4,0.020096268504858017,-0.008449445478618145,0.009036844596266747,0.0,0.0,0.0,2.0775604248046875,3.155961036682129,-1.6108860969543457,0.0,0.0,0.20000000298023224,0.0,0.0,0.0,0.0,0.0,0.0,0.0,0.0,0.0,37316.0,45354.0,40308.0,38798.0,0,0,0,0,40358.96484375,-1378.0,-1426.0,-1739.0
0.42,0.01706899330019951,-0.013742486014962196,0.008768653497099876,0.0,0.0,0.0,2.270397901535034,3.616037607192993,-1.7179694175720215,0.0,0.0,0.20000000298023224,0.0,0.0,0.0,0.0,0.0,0.0,0.0,0.0,0.0,36902.0,44672.0,39828.0,39338.0,0,0,0,0,40657.515625,-1499.0,-7072.0,-1846.0
0.44,0.013634051196277142,-0.01932011917233467,0.0051665399223566055,0.0,0.0,0.0,2.1886463165283203,3.9339966773986816,-1.7917124032974243,0.0,0.0,0.20000000298023224,0.0,0.0,0.0,0.0,0.0,0.0,0.0,0.0,0.0,36116.0,41770.0,40808.0,42930.0,0,0,0,0,40097.69140625,-412.0,-5479.0,-1812.0
0.46,0.008137787692248821,-0.024391431361436844,0.005084010772407055,0.0,0.0,0.0,1.8708834648132324,4.128114223480225,-1.8562980890274048,0.0,0.0,0.20000000298023224,0.0,0.0,0.0,0.0,0.0,0.0,0.0,0.0,0.0,37090.0,41664.0,39000.0,41246.0,0,0,0,0,39820.5,-812.0,-3543.0,-1744.0
0.48,0.003758287988603115,-0.028625933453440666,0.005663392599672079,0.0,0.0,0.0,1.2841312885284424,4.033662796020508,-1.9186582565307617,0.0,0.0,0.20000000298023224,0.0,0.0,0.0,0.0,0.0,0.0,0.0,0.0,0.0,36395.0,43239.0,38705.0,39197.0,0,0,0,0,41608.1953125,-3152.0,-2360.0,-1827.0
0.5,-0.0010732874507084489,-0.03344309329986572,0.004581330809742212,0.0,0.0,0.0,0.6148129105567932,3.6031334400177,-1.954481840133667,0.0,0.0,0.20000000298023224,0.0,0.0,0.0,0.0,0.0,0.0,0.0,0.0,0.0,38309.0,47621.0,40455.0,38123.0,0,0,0,0,40813.7421875,-931.0,-3307.0,-1689.0
0.52,-0.0053998385556042194,-0.03881571441888809,0.006385088432580233,0.0,0.0,0.0,0.07141438871622086,3.0986342430114746,-2.012732744216919,0.0,0.0,0.25,0.0,0.0,0.0,0.0,0.0,0.0,0.0,0.0,0.0,37383.0,43619.0,38957.0,39749.0,0,0,0,0,39551.59375,-2283.0,-4396.0,-2155.0
0.54,-0.010741054080426693,-0.041704852133989334,0.011461528949439526,0.0,0.0,0.0,-0.47901710867881775,2.621351718902588,-2.0135910511016846,0.0,0.0,0.25,0.0,0.0,0.0,0.0,0.0,0.0,0.0,0.0,0.0,36152.0,41794.0,38458.0,39884.0,0,0,0,0,38680.52734375,1044.0,-691.0,-2198.0
0.56,-0.014484895393252373,-0.044867902994155884,0.015421470627188683,0.0,0.0,0.0,-1.061540126800537,1.9533132314682007,-2.048851728439331,0.0,0.0,0.25,0.0,0.0,0.0,0.0,0.0,0.0,0.0,0.0,0.0,34594.0,41374.0,35826.0,35770.0,0,0,0,0,36434.546875,-1291.0,-2688.0,-2029.0
0.58,-0.021193046122789383,-0.04864631965756416,0.0275692380964756,0.0,0.0,0.0,-1.7068740129470825,1.2320489883422852,-2.069981813430786,0.0,0.0,0.25,0.0,0.0,0.0,0.0,0.0,0.0,0.0,0.0,0.0,34936.0,39424.0,33678.0,36162.0,0,0,0,0,38157.10546875,-2766.0,691.0,-2212.0
0.6,-0.024752236902713776,-0.05158936604857445,0.03355325385928154,0.0,0.0,0.0,-2.304701566696167,0.37848302721977234,-2.107897996902466,0.0,0.0,0.25,0.0,0.0,0.0,0.0,0.0,0.0,0.0,0.0,0.0,35556.0,40674.0,34360.0,35966.0,0,0,0,0,36343.95703125,-1991.0,-2652.0,-2029.0
0.62,-0.02995133399963379,-0.05456359684467316,0.04712073504924774,0.0,0.0,0.0,-2.7420573234558105,-0.4274473190307617,-2.1414899826049805,0.0,0.0,0.30000001192092896,0.0,0.0,0.0,0.0,0.0,0.0,0.0,0.0,0.0,33122.0,40546.0,35880.0,34944.0,0,0,0,0,35880.015625,-506.0,-1229.0,-1857.0
0.64,-0.03286093473434448,-0.05586612969636917,0.05466572940349579,0.0,0.0,0.0,-3.1205976009368896,-1.209675908088684,-2.1606454849243164,0.0,0.0,0.30000001192092896,0.0,0.0,0.0,0.0,0.0,0.0,0.0,0.0,0.0,32088.0,39226.0,36112.0,35598.0,0,0,0,0,34223.578125,-850.0,-3059.0,-1817.0
0.66,-0.03563088923692703,-0.05667883902788162,0.06230640783905983,0.0,0.0,0.0,-3.5299274921417236,-1.8668856620788574,-2.170823335647583,0.0,0.0,0.30000001192092896,0.0,0.0,0.0,0.0,0.0,0.0,0.0,0.0,0.0,30260.0,39528.0,34722.0,32010.0,0,0,0,0,34012.67578125,-1193.0,-3447.0,-1666.0
0.68,-0.039365146309137344,-0.058733802288770676,0.07795701175928116,0.0,0.0,0.0,-3.8843164443969727,-2.4130606651306152,-2.1814324855804443,0.0,0.0,0.30000001192092896,0.0,0.0,0.0,0.0,0.0,0.0,0.0,0.0,0.0,32053.0,37659.0,32721.0,33503.0,0,0,0,0,35386.89453125,-22.0,-3687.0,-1463.0
0.7,-0.04141008481383324,-0.059034425765275955,0.08611093461513519,0.0,0.0,0.0,-4.148063659667969,-2.797442674636841,-2.1749331951141357,0.0,0.0,0.30000001192092896,0.0,0.0,0.0,0.0,0.0,0.0,0.0,0.0,0.0,34530.0,38364.0,33230.0,35596.0,0,0,0,0,35512.3203125,-1048.0,-934.0,-1389.0
0.72,-0.04364044964313507,-0.06000246852636337,0.10059092938899994,0.0,0.0,0.0,-4.315814971923828,-3.214938163757324,-2.1569690704345703,0.0,0.0,0.3499999940395355,0.0,0.0,0.0,0.0,0.0,0.0,0.0,0.0,0.0,34334.0,38886.0,34204.0,35248.0,0,0,0,0,35814.8203125,-2256.0,-927.0,-1045.0
0.74,-0.044518232345581055,-0.05977357178926468,0.1085972934961319,0.0,0.0,0.0,-4.423795700073242,-3.6915504932403564,-2.137667179107666,0.0,0.0,0.3499999940395355,0.0,0.0,0.0,0.0,0.0,0.0,0.0,0.0,0.0,35515.0,39575.0,33943.0,35291.0,0,0,0,0,36246.33203125,-2288.0,-2640.0,-806.0
0.76,-0.04528626799583435,-0.059383947402238846,0.11543148756027222,0.0,0.0,0.0,-4.392168045043945,-4.131319046020508,-2.0977299213409424,0.0,0.0,0.3499999940395355,0.0,0.0,0.0,0.0,0.0,0.0,0.0,0.0,0.0,35054.0,40530.0,34982.0,35118.0,0,0,0,0,36581.8203125,-2751.0,-2032.0,-819.0
0.78,-0.046401288360357285,-0.059175338596105576,0.12227010726928711,0.0,0.0,0.0,-4.238816261291504,-4.411657333374023,-2.043675422668457,0.0,0.0,0.3499999940395355,0.0,0.0,0.0,0.0,0.0,0.0,0.0,0.0,0.0,33663.0,41115.0,36899.0,34631.0,0,0,0,0,36734.32421875,-356.0,-2881.0,-514.0
0.8,-0.04763924703001976,-0.05837787687778473,0.129625603556633,0.0,0.0,0.0,-4.051279067993164,-4.506831169128418,-1.9916945695877075,0.0,0.0,0.3499999940395355,0.0,0.0,0.0,0.0,0.0,0.0,0.0,0.0,0.0,38040.0,42548.0,38114.0,38926.0,0,0,0,0,39562.3515625,-2231.0,-2147.0,-714.0
0.82,-0.046929702162742615,-0.056438468396663666,0.13561469316482544,0.0,0.0,0.0,-3.9013657569885254,-4.549690246582031,-1.9217206239700317,0.0,0.0,0.4000000059604645,0.0,0.0,0.0,0.0,0.0,0.0,0.0,0.0,0.0,37466.0,43272.0,39366.0,38620.0,0,0,0,0,39793.109375,-616.0,-1244.0,-616.0
0.84,-0.046744074672460556,-0.05509224906563759,0.1414952129125595,0.0,0.0,0.0,-3.6851985454559326,-4.511850357055664,-1.862676739692688,0.0,0.0,0.4000000059604645,0.0,0.0,0.0,0.0,0.0,0.0,0.0,0.0,0.0,38584.0,43214.0,38414.0,39192.0,0,0,0,0,39851.91796875,-1336.0,-2987.0,-908.0
0.86,-0.04602361097931862,-0.05371590331196785,0.14697003364562988,0.0,0.0,0.0,-3.4220519065856934,-4.39611291885376,-1.7935945987701416,0.0,0.0,0.4000000059604645,0.0,0.0,0.0,0.0,0.0,0.0,0.0,0.0,0.0,38283.0,43167.0,38763.0,38999.0,0,0,0,0,39958.60546875,-2111.0,-4197.0,-759.0
0.88,-0.04515210539102554,-0.051818132400512695,0.15104612708091736,0.0,0.0,0.0,-3.124485731124878,-4.242963790893555,-1.7499637603759766,0.0,0.0,0.4000000059604645,0.0,0.0,0.0,0.0,0.0,0.0,0.0,0.0,0.0,37003.0,43999.0,39985.0,38441.0,0,0,0,0,39732.796875,-1962.0,-4675.0,-794.0
0.9,-0.044212084263563156,-0.050003062933683395,0.156392902135849,0.0,0.0,0.0,-2.780851364135742,-4.037278175354004,-1.691954255104065,0.0,0.0,0.4000000059604645,0.0,0.0,0.0,0.0,0.0,0.0,0.0,0.0,0.0,39337.0,46231.0,42041.0,40839.0,0,0,0,0,42588.44921875,-1655.0,-838.0,-1083.0
0.92,-0.04255747050046921,-0.047485508024692535,0.1618054211139679,0.0,0.0,0.0,-2.4704861640930176,-3.727571725845337,-1.6475046873092651,0.0,0.0,0.44999998807907104,0.0,0.0,0.0,0.0,0.0,0.0,0.0,0.0,0.0,40701.0,48105.0,41537.0,39433.0,0,0,0,0,42251.80859375,-2820.0,-3391.0,-923.0
0.94,-0.04103240743279457,-0.045515477657318115,0.16375859081745148,0.0,0.0,0.0,-2.1608023643493652,-3.430492877960205,-1.6179850101470947,0.0,0.0,0.44999998807907104,0.0,0.0,0.0,0.0,0.0,0.0,0.0,0.0,0.0,39111.0,46609.0,41957.0,40311.0,0,0,0,0,41694.11328125,-1419.0,-2846.0,-1231.0
0.96,-0.03828596696257591,-0.04330969601869583,0.16929440200328827,0.0,0.0,0.0,-1.7723804712295532,-3.123157501220703,-1.5689854621887207,0.0,0.0,0.44999998807907104,0.0,0.0,0.0,0.0,0.0,0.0,0.0,0.0,0.0,37935.0,44721.0,41953.0,40759.0,0,0,0,0,40958.97265625,-558.0,-5223.0,-1288.0
0.98,-0.03556474670767784,-0.040648482739925385,0.17516131699085236,0.0,0.0,0.0,-1.3925789594650269,-2.6907460689544678,-1.5489970445632935,0.0,0.0,0.44999998807907104,0.0,0.0,0.0,0.0,0.0,0.0,0.0,0.0,0.0,39075.0,45225.0,39309.0,38627.0,0,0,0,0,40163.08203125,-2992.0,-3896.0,-1160.0
1.0,-0.03290742263197899,-0.03819754347205162,0.1816600263118744,0.0,0.0,0.0,-1.0543087720870972,-2.2705078125,-1.5306570529937744,0.0,0.0,0.44999998807907104,0.0,0.0,0.0,0.0,0.0,0.0,0.0,0.0,0.0,40982.0,45804.0,41774.0,42676.0,0,0,0,0,42457.55078125,-1242.0,-4539.0,-1402.0
1.02,-0.029861092567443848,-0.03585778549313545,0.1857052445411682,0.0,0.0,0.0,-0.6942107081413269,-1.8986977338790894,-1.5082520246505737,0.0,0.0,0.5,0.0,0.0,0.0,0.0,0.0,0.0,0.0,0.0,0.0,39539.0,45943.0,41767.0,41147.0,0,0,0,0,41739.85546875,-1059.0,-2343.0,-1367.0
1.04,-0.0267274659126997,-0.033333078026771545,0.19283246994018555,0.0,0.0,0.0,-0.36894524097442627,-1.4637771844863892,-1.5003175735473633,0.0,0.0,0.5,0.0,0.0,0.0,0.0,0.0,0.0,0.0,0.0,0.0,38767.0,45199.0,40955.0,40275.0,0,0,0,0,40868.1484375,-4210.0,-6271.0,-1523.0
1.06,-0.02342531457543373,-0.030643701553344727,0.20059671998023987,0.0,0.0,0.0,-0.08148519694805145,-1.0459929704666138,-1.493857979774475,0.0,0.0,0.5,0.0,0.0,0.0,0.0,0.0,0.0,0.0,0.0,0.0,38173.0,44745.0,39719.0,39031.0,0,0,0,0,39974.328125,-2496.0,-3014.0,-1618.0
1.08,-0.020074544474482536,-0.028506522998213768,0.20873594284057617,0.0,0.0,0.0,0.26118385791778564,-0.6123228073120117,-1.493448257446289,0.0,0.0,0.5,0.0,0.0,0.0,0.0,0.0,0.0,0.0,0.0,0.0,36864.0,42720.0,39302.0,39218.0,0,0,0,0,39589.30859375,-1256.0,-3675.0,-1547.0
1.1,-0.016838813200592995,-0.02656577154994011,0.2148299664258957,0.0,0.0,0.0,0.5602465867996216,-0.13832204043865204,-1.497816801071167,0.0,0.0,0.5,0.0,0.0,0.0,0.0,0.0,0.0,0.0,0.0,0.0,37789.0,43471.0,37371.0,38141.0,0,0,0,0,38772.9296875,-596.0,-7353.0,-1853.0
1.12,-0.012710976414382458,-0.0241063442081213,0.2240222543478012,0.0,0.0,0.0,0.7832269072532654,0.29124686121940613,-1.5022813081741333,0.0,0.0,0.5,0.0,0.0,0.0,0.0,0.0,0.0,0.0,0.0,0.0,36777.0,42741.0,36835.0,37347.0,0,0,0,0,38112.390625,-1792.0,-4118.0,-1877.0
1.14,-0.009501011110842228,-0.0217303354293108,0.23312470316886902,0.0,0.0,0.0,0.9705092906951904,0.7443472743034363,-1.5282477140426636,0.0,0.0,0.5,0.0,0.0,0.0,0.0,0.0,0.0,0.0,0.0,0.0,36544.0,41996.0,35984.0,36680.0,0,0,0,0,37521.12109375,-2346.0,-4096.0,-1594.0
1.16,-0.00598358828574419,-0.01957271806895733,0.24239861965179443,0.0,0.0,0.0,1.1449342966079712,1.0583380460739136,-1.547714114189148,0.0,0.0,0.5,0.0,0.0,0.0,0.0,0.0,0.0,0.0,0.0,0.0,34613.0,41261.0,36753.0,36433.0,0,0,0,0,37108.23046875,-840.0,-3612.0,-1683.0
1.18,-0.0032268078066408634,-0.017723068594932556,0.25187546014785767,0.0,0.0,0.0,1.3578842878341675,1.3974363803863525,-1.5484837293624878,0.0,0.0,0.5,0.0,0.0,0.0,0.0,0.0,0.0,0.0,0.0,0.0,34315.0,41083.0,36451.0,35775.0,0,0,0,0,36743.18359375,-2273.0,-4043.0,-1684.0
1.2,-0.00024223909713327885,-0.01503846887499094,0.2610038220882416,0.0,0.0,0.0,1.4927136898040771,1.7517718076705933,-1.5654951333999634,0.0,0.0,0.5,0.0,0.0,0.0,0.0,0.0,0.0,0.0,0.0,0.0,32958.0,42380.0,37000.0,33970.0,0,0,0,0,36434.74609375,-2747.0,-6846.0,-1699.0
1.221,0.003242342034354806,-0.013404656201601028,0.2704293131828308,0.0,0.0,0.0,1.5982778072357178,2.0579938888549805,-1.5764845609664917,0.05000000074505806,0.0,0.5,0.0,0.0,0.0,0.0,0.0,0.0,0.0,0.0,0.0,33620.0,40700.0,35486.0,34590.0,0,0,0,0,36013.9921875,-2788.0,-2895.0,-1567.0
1.24,0.00585158821195364,-0.01175558753311634,0.2809942364692688,0.0,0.0,0.0,1.6630966663360596,2.32423996925354,-1.583516001701355,0.05000000074505806,0.0,0.5,0.0,0.0,0.0,0.0,0.0,0.0,0.0,0.0,0.0,34288.0,39506.0,34602.0,35352.0,0,0,0,0,35873.1875,-1566.0,-3676.0,-1404.0
1.26,0.008741994388401508,-0.009708848781883717,0.29026830196380615,0.0,0.0,0.0,1.7148035764694214,2.3965976238250732,-1.583014726638794,0.05000000074505806,0.0,0.5,0.0,0.0,0.0,0.0,0.0,0.0,0.0,0.0,0.0,34363.0,40213.0,33867.0,34233.0,0,0,0,0,35646.01171875,-1597.0,-2880.0,-1535.0
1.281,0.011251835152506828,-0.007937992922961712,0.30021902918815613,0.0,0.0,0.0,1.757272481918335,2.230545997619629,-1.5698630809783936,0.05000000074505806,0.0,0.5,0.0,0.0,0.0,0.0,0.0,0.0,0.0,0.0,0.0,34445.0,39023.0,33685.0,35443.0,0,0,0,0,35665.88671875,-3011.0,-3853.0,-1445.0
1.3,0.013763651251792908,-0.006168717984110117,0.30908042192459106,0.0,0.0,0.0,1.8060276508331299,2.001338481903076,-1.5664852857589722,0.05000000074505806,0.0,0.5,0.0,0.0,0.0,0.0,0.0,0.0,0.0,0.0,0.0,31450.0,40670.0,36972.0,33728.0,0,0,0,0,35936.9140625,-1411.0,-6884.0,-1285.0
1.32,0.017334258183836937,-0.0020387026015669107,0.31758344173431396,0.0,0.0,0.0,1.7928118705749512,1.741365909576416,-1.5569977760314941,0.10000000149011612,0.0,0.5,0.0,0.0,0.0,0.0,0.0,0.0,0.0,0.0,0.0,32950.0,41076.0,35970.0,33948.0,0,0,0,0,36058.74609375,-1224.0,-3777.0,-1344.0
1.34,0.01910417154431343,-0.0008570999489165843,0.3246004283428192,0.0,0.0,0.0,1.833726406097412,1.5850906372070312,-1.5389012098312378,0.10000000149011612,0.0,0.5,0.0,0.0,0.0,0.0,0.0,0.0,0.0,0.0,0.0,34400.0,39842.0,34966.0,35340.0,0,0,0,0,36094.3125,-1982.0,-2173.0,-1138.0
1.36,0.020960625261068344,0.00044601495028473437,0.3322907090187073,0.0,0.0,0.0,1.8289185762405396,1.3611066341400146,-1.520511269569397,0.10000000149011612,0.0,0.5,0.0,0.0,0.0,0.0,0.0,0.0,0.0,0.0,0.0,35524.0,39620.0,34006.0,35534.0,0,0,0,0,36249.6015625,-1995.0,-2148.0,-1071.0
1.38,0.023325610905885696,0.0013182512484490871,0.34033897519111633,0.0,0.0,0.0,1.8402599096298218,0.9524188041687012,-1.4908106327056885,0.10000000149011612,0.0,0.5,0.0,0.0,0.0,0.0,0.0,0.0,0.0,0.0,0.0,34187.0,39971.0,35697.0,35517.0,0,0,0,0,36034.6484375,-3190.0,-2649.0,-1103.0
1.4,0.025041425600647926,0.002106421161442995,0.34735652804374695,0.0,0.0,0.0,1.8744962215423584,0.48849183320999146,-1.4581416845321655,0.10000000149011612,0.0,0.5,0.0,0.0,0.0,0.0,0.0,0.0,0.0,0.0,0.0,31560.0,42440.0,37770.0,32654.0,0,0,0,0,36190.5,-1730.0,-4908.0,-1086.0
1.42,0.024974433705210686,0.002461389172822237,0.35637712478637695,0.0,0.0,0.0,1.8923490047454834,0.12129174917936325,-1.4255670309066772,0.15000000596046448,0.0,0.5,0.0,0.0,0.0,0.0,0.0,0.0,0.0,0.0,0.0,33089.0,39659.0,36699.0,35649.0,0,0,0,0,36368.48828125,-1467.0,-1733.0,-1106.0
1.44,0.026827331632375717,0.0024964590556919575,0.3629109859466553,0.0,0.0,0.0,1.8609707355499268,-0.18846455216407776,-1.397469162940979,0.15000000596046448,0.0,0.5,0.0,0.0,0.0,0.0,0.0,0.0,0.0,0.0,0.0,33601.0,39853.0,36611.0,36047.0,0,0,0,0,36610.7734375,-3130.0,14.0,-1112.0
1.46,0.03038724511861801,0.0013623263221234083,0.3686545193195343,0.0,0.0,0.0,1.7976230382919312,-0.6308962106704712,-1.3764350414276123,0.15000000596046448,0.0,0.5,0.0,0.0,0.0,0.0,0.0,0.0,0.0,0.0,0.0,35510.0,40300.0,35100.0,35890.0,0,0,0,0,36782.6640625,-1843.0,-1548.0,-1039.0
1.48,0.0335410051047802,0.0002549061900936067,0.3744629919528961,0.0,0.0,0.0,1.6965731382369995,-1.2018678188323975,-1.3512088060379028,0.15000000596046448,0.0,0.5,0.0,0.0,0.0,0.0,0.0,0.0,0.0,0.0,0.0,34945.0,39257.0,35773.0,36965.0,0,0,0,0,36841.62109375,-2310.0,-591.0,-991.0
1.5,0.03193386644124985,0.00284363329410553,0.38069841265678406,0.0,0.0,0.0,1.53219473361969,-1.6703294515609741,-1.307491421699524,0.15000000596046448,0.0,0.5,0.0,0.0,0.0,0.0,0.0,0.0,0.0,0.0,0.0,33149.0,41561.0,38063.0,34931.0,0,0,0,0,37001.14453125,-617.0,-7954.0,-1061.0
1.52,0.04327654466032982,0.004108774475753307,0.385894775390625,0.0,0.0,0.0,1.3549247980117798,-2.287182092666626,-1.3035287857055664,0.20000000298023224,0.0,0.5,0.0,0.0,0.0,0.0,0.0,0.0,0.0,0.0,0.0,34895.0,40395.0,36319.0,36647.0,0,0,0,0,37649.61328125,-1939.0,-3326.0,-1385.0
1.54,0.04244337975978851,0.004316756036132574,0.38819026947021484,0.0,0.0,0.0,1.2098520994186401,-2.448986530303955,-1.2708097696304321,0.20000000298023224,0.0,0.5,0.0,0.0,0.0,0.0,0.0,0.0,0.0,0.0,0.0,36725.0,41681.0,35915.0,36575.0,0,0,0,0,37792.27734375,-1388.0,-783.0,-1257.0
1.56,0.04647817462682724,-0.006105210166424513,0.3926261365413666,0.0,0.0,0.0,1.2208420038223267,-2.694500684738159,-1.2665976285934448,0.20000000298023224,0.0,0.5,0.0,0.0,0.0,0.0,0.0,0.0,0.0,0.0,0.0,36614.0,40422.0,36534.0,37842.0,0,0,0,0,38036.51171875,-587.0,-3788.0,-940.0
1.58,0.04902389273047447,-0.0067200553603470325,0.3968580961227417,0.0,0.0,0.0,1.0553092956542969,-3.0252978801727295,-1.2499628067016602,0.20000000298023224,0.0,0.5,0.0,0.0,0.0,0.0,0.0,0.0,0.0,0.0,0.0,35912.0,41316.0,37352.0,37760.0,0,0,0,0,38120.3046875,-172.0,-2842.0,-1364.0
1.6,0.05224522575736046,-0.0075312829576432705,0.40011531114578247,0.0,0.0,0.0,0.8030645847320557,-3.3670144081115723,-1.2222999334335327,0.20000000298023224,0.0,0.5,0.0,0.0,0.0,0.0,0.0,0.0,0.0,0.0,0.0,33809.0,43965.0,39603.0,35199.0,0,0,0,0,38010.86328125,-2342.0,-7175.0,-1345.0
1.62,0.054902803152799606,-0.00806130189448595,0.4039399027824402,0.0,0.0,0.0,0.49221596121788025,-3.6352181434631348,-1.2182599306106567,0.25,0.0,0.5,0.0,0.0,0.0,0.0,0.0,0.0,0.0,0.0,0.0,34538.0,43828.0,38444.0,35250.0,0,0,0,0,38012.1015625,-2071.0,-2000.0,-1676.0
1.64,0.05832824110984802,-0.011133701540529728,0.40849044919013977,0.0,0.0,0.0,0.2542461156845093,-3.6957976818084717,-1.2127892971038818,0.25,0.0,0.5,0.0,0.0,0.0,0.0,0.0,0.0,0.0,0.0,0.0,36769.0,41695.0,36153.0,37391.0,0,0,0,0,37982.875,-1156.0,-1739.0,-1696.0
1.66,0.062266767024993896,-0.012294926680624485,0.41218990087509155,0.0,0.0,0.0,0.01816820539534092,-3.815363883972168,-1.228550672531128,0.25,0.0,0.5,0.0,0.0,0.0,0.0,0.0,0.0,0.0,0.0,0.0,36355.0,41887.0,36667.0,37247.0,0,0,0,0,38014.77734375,-751.0,-2289.0,-1703.0
1.68,0.06609635055065155,-0.013844996690750122,0.4154073894023895,0.0,0.0,0.0,-0.20518523454666138,-4.09457540512085,-1.2424167394638062,0.25,0.0,0.5,0.0,0.0,0.0,0.0,0.0,0.0,0.0,0.0,0.0,36591.0,40913.0,36335.0,38109.0,0,0,0,0,37966.37890625,-1738.0,-3899.0,-1697.0
1.7,0.07020348310470581,-0.01479934062808752,0.4189472198486328,0.0,0.0,0.0,-0.43523427844047546,-4.349952220916748,-1.2544453144073486,0.25,0.0,0.5,0.0,0.0,0.0,0.0,0.0,0.0,0.0,0.0,0.0,33652.0,43688.0,38742.0,35046.0,0,0,0,0,37759.5546875,-1295.0,-6411.0,-1770.0
1.72,0.07469619065523148,-0.01660565473139286,0.42334529757499695,0.0,0.0,0.0,-0.6483352780342102,-4.4492411613464355,-1.2682440280914307,0.30000001192092896,0.0,0.5,0.0,0.0,0.0,0.0,0.0,0.0,0.0,0.0,0.0,34853.0,42165.0,37309.0,36605.0,0,0,0,0,37703.7109375,-502.0,-5012.0,-1867.0
1.74,0.078843854367733,-0.017551548779010773,0.42687100172042847,0.0,0.0,0.0,-0.8725608587265015,-4.420669078826904,-1.2816624641418457,0.30000001192092896,0.0,0.5,0.0,0.0,0.0,0.0,0.0,0.0,0.0,0.0,0.0,35796.0,40076.0,36040.0,38816.0,0,0,0,0,37386.5390625,-1799.0,-2212.0,-2166.0
1.76,0.08414660394191742,-0.018606266006827354,0.43178361654281616,0.0,0.0,0.0,-1.0818467140197754,-4.417013645172119,-1.3042553663253784,0.30000001192092896,0.0,0.5,0.0,0.0,0.0,0.0,0.0,0.0,0.0,0.0,0.0,35600.0,41860.0,35644.0,36340.0,0,0,0,0,37344.49609375,-628.0,-1184.0,-2138.0
1.78,0.08902109414339066,-0.02027183584868908,0.4353461265563965,0.0,0.0,0.0,-1.2790777683258057,-4.545481204986572,-1.3411791324615479,0.30000001192092896,0.0,0.5,0.0,0.0,0.0,0.0,0.0,0.0,0.0,0.0,0.0,33997.0,43357.0,37059.0,34887.0,0,0,0,0,37231.22265625,-2225.0,-2314.0,-2144.0
1.8,0.09312723577022552,-0.02098728157579899,0.4388469457626343,0.0,0.0,0.0,-1.4173191785812378,-4.700840950012207,-1.3719314336776733,0.30000001192092896,0.0,0.5,0.0,0.0,0.0,0.0,0.0,0.0,0.0,0.0,0.0,31933.0,44841.0,38907.0,33255.0,0,0,0,0,37250.59375,-1894.0,-6799.0,-2223.0
1.82,0.09859097003936768,-0.02132495865225792,0.4427241384983063,0.0,0.0,0.0,-1.500510334968567,-4.685935974121094,-1.402516484260559,0.3499999940395355,0.0,0.5,0.0,0.0,0.0,0.0,0.0,0.0,0.0,0.0,0.0,33946.0,41848.0,36934.0,36352.0,0,0,0,0,37167.42578125,-1847.0,-4608.0,-2139.0
1.84,0.10338182002305984,-0.021781587973237038,0.44621163606643677,0.0,0.0,0.0,-1.5728418827056885,-4.49256706237793,-1.4309720993041992,0.3499999940395355,0.0,0.5,0.0,0.0,0.0,0.0,0.0,0.0,0.0,0.0,0.0,34283.0,40125.0,36483.0,37889.0,0,0,0,0,37222.7109375,-713.0,-1419.0,-2118.0
1.86,0.10944123566150665,-0.021267449483275414,0.4501236379146576,0.0,0.0,0.0,-1.6875094175338745,-4.416415691375732,-1.459695816040039,0.3499999940395355,0.0,0.5,0.0,0.0,0.0,0.0,0.0,0.0,0.0,0.0,0.0,34961.0,41445.0,35887.0,36735.0,0,0,0,0,37286.78515625,-2238.0,-2756.0,-2054.0
1.88,0.11624366044998169,-0.020620983093976974,0.45321473479270935,0.0,0.0,0.0,-1.8224916458129883,-4.5360822677612305,-1.4886285066604614,0.3499999940395355,0.0,0.5,0.0,0.0,0.0,0.0,0.0,0.0,0.0,0.0,0.0,33764.0,42080.0,36942.0,36086.0,0,0,0,0,37243.58203125,-2032.0,-4074.0,-2000.0
1.9,0.12456759810447693,-0.02110232040286064,0.4567054808139801,0.0,0.0,0.0,-1.8482935428619385,-4.6383442878723145,-1.5082484483718872,0.3499999940395355,0.0,0.5,0.0,0.0,0.0,0.0,0.0,0.0,0.0,0.0,0.0,33433.0,43261.0,37279.0,35079.0,0,0,0,0,37263.31640625,-2679.0,-7499.0,-1900.0
1.92,0.1315516233444214,-0.021329930052161217,0.4595956802368164,0.0,0.0,0.0,-1.8127596378326416,-4.570717811584473,-1.5237724781036377,0.4000000059604645,0.0,0.5,0.0,0.0,0.0,0.0,0.0,0.0,0.0,0.0,0.0,33994.0,42770.0,37056.0,35888.0,0,0,0,0,37427.50390625,-1848.0,-3541.0,-1893.0
1.94,0.13723932206630707,-0.02174355275928974,0.46194514632225037,0.0,0.0,0.0,-1.7498291730880737,-4.309077739715576,-1.538614273071289,0.4000000059604645,0.0,0.5,0.0,0.0,0.0,0.0,0.0,0.0,0.0,0.0,0.0,35137.0,41295.0,36077.0,37531.0,0,0,0,0,37510.4375,-1848.0,-2445.0,-1875.0
1.96,0.14387668669223785,-0.022104009985923767,0.46451106667518616,0.0,0.0,0.0,-1.6984120607376099,-4.120468616485596,-1.5547072887420654,0.4000000059604645,0.0,0.5,0.0,0.0,0.0,0.0,0.0,0.0,0.0,0.0,0.0,35489.0,41743.0,35925.0,37187.0,0,0,0,0,37586.40234375,-1491.0,-2437.0,-1877.0
1.98,0.15212731063365936,-0.021538875997066498,0.4653300940990448,0.0,0.0,0.0,-1.6841809749603271,-4.072446346282959,-1.5725129842758179,0.4000000059604645,0.0,0.5,0.0,0.0,0.0,0.0,0.0,0.0,0.0,0.0,0.0,35193.0,41739.0,36893.0,38155.0,0,0,0,0,37995.65234375,-656.0,-3326.0,-1971.0
2.0,0.16191650927066803,-0.02150370553135872,0.46742627024650574,0.0,0.0,0.0,-1.6332744359970093,-4.050992488861084,-1.5822759866714478,0.4000000059604645,0.0,0.5,0.0,0.0,0.0,0.0,0.0,0.0,0.0,0.0,0.0,33032.0,45048.0,39116.0,35164.0,0,0,0,0,38090.44921875,-1636.0,-5692.0,-2044.0
2.021,0.17147964239120483,-0.021341245621442795,0.4694042205810547,0.0,0.0,0.0,-1.5389260053634644,-3.8967576026916504,-1.5970215797424316,0.44999998807907104,0.0,0.5,0.0,0.0,0.0,0.0,0.0,0.0,0.0,0.0,0.0,34772.0,43914.0,37682.0,36704.0,0,0,0,0,38268.56640625,-1792.0,-4876.0,-2004.0
2.04,0.17932312190532684,-0.020436864346265793,0.4706946909427643,0.0,0.0,0.0,-1.435608983039856,-3.5844335556030273,-1.6200895309448242,0.44999998807907104,0.0,0.5,0.0,0.0,0.0,0.0,0.0,0.0,0.0,0.0,0.0,35518.0,42950.0,37088.0,37608.0,0,0,0,0,38291.45703125,-2358.0,-4341.0,-1987.0
2.06,0.18247251212596893,-0.02077585831284523,0.4716007113456726,0.0,0.0,0.0,-1.3669596910476685,-3.4186220169067383,-1.6259478330612183,0.44999998807907104,0.0,0.5,0.0,0.0,0.0,0.0,0.0,0.0,0.0,0.0,0.0,35729.0,43149.0,36505.0,37329.0,0,0,0,0,38178.91796875,-1636.0,-3279.0,-2004.0
2.08,0.19131110608577728,-0.021513624116778374,0.4739615321159363,0.0,0.0,0.0,-1.2537221908569336,-3.235589027404785,-1.6365687847137451,0.44999998807907104,0.0,0.5,0.0,0.0,0.0,0.0,0.0,0.0,0.0,0.0,0.0,35088.0,44458.0,37164.0,35882.0,0,0,0,0,38148.06640625,-1963.0,-5024.0,-2024.0
2.1,0.19975696504116058,-0.021439475938677788,0.4757615923881531,0.0,0.0,0.0,-1.1488510370254517,-3.13919734954834,-1.6494686603546143,0.44999998807907104,0.0,0.5,0.0,0.0,0.0,0.0,0.0,0.0,0.0,0.0,0.0,33488.0,45028.0,39268.0,35784.0,0,0,0,0,38392.02734375,-1353.0,-7615.0,-2090.0
2.12,0.2064676433801651,-0.020656805485486984,0.47615572810173035,0.0,0.0,0.0,-1.027662992477417,-2.965874433517456,-1.6548240184783936,0.5,0.0,0.5,0.0,0.0,0.0,0.0,0.0,0.0,0.0,0.0,0.0,34146.0,44702.0,38356.0,36380.0,0,0,0,0,38396.60546875,-1978.0,-4893.0,-2096.0
2.14,0.2156773954629898,-0.01973356306552887,0.47775372862815857,0.0,0.0,0.0,-0.9165121912956238,-2.656747817993164,-1.6578625440597534,0.5,0.0,0.5,0.0,0.0,0.0,0.0,0.0,0.0,0.0,0.0,0.0,35053.0,43753.0,37603.0,37135.0,0,0,0,0,38386.4609375,-1313.0,-3084.0,-2049.0
2.16,0.2261693775653839,-0.01893080584704876,0.479196697473526,0.0,0.0,0.0,-0.8251840472221375,-2.3416645526885986,-1.6801667213439941,0.5,0.0,0.5,0.0,0.0,0.0,0.0,0.0,0.0,0.0,0.0,0.0,36193.0,43471.0,36281.0,37339.0,0,0,0,0,38321.48046875,-1662.0,-3522.0,-2103.0
2.18,0.23350954055786133,-0.019605178385972977,0.48078855872154236,0.0,0.0,0.0,-0.7198570370674133,-2.167344093322754,-1.6929882764816284,0.5,0.0,0.5,0.0,0.0,0.0,0.0,0.0,0.0,0.0,0.0,0.0,34838.0,43014.0,37624.0,37612.0,0,0,0,0,38272.13671875,-2666.0,-3514.0,-2027.0
2.2,0.24256394803524017,-0.017887765541672707,0.4823804795742035,0.0,0.0,0.0,-0.6227620840072632,-2.1300675868988037,-1.7068077325820923,0.5,0.0,0.5,0.0,0.0,0.0,0.0,0.0,0.0,0.0,0.0,0.0,33193.0,45437.0,38809.0,34817.0,0,0,0,0,38064.44140625,-2121.0,-6757.0,-2062.0
2.22,0.2517818212509155,-0.016169032081961632,0.48474353551864624,0.0,0.0,0.0,-0.5163607597351074,-2.0193772315979004,-1.7165672779083252,0.550000011920929,0.0,0.5,0.0,0.0,0.0,0.0,0.0,0.0,0.0,0.0,0.0,33754.0,43822.0,37838.0,36542.0,0,0,0,0,37989.83203125,-2179.0,-4375.0,-2157.0
2.24,0.2602855861186981,-0.016203539445996284,0.48645326495170593,0.0,0.0,0.0,-0.40331560373306274,-1.825670599937439,-1.7136906385421753,0.550000011920929,0.0,0.5,0.0,0.0,0.0,0.0,0.0,0.0,0.0,0.0,0.0,35701.0,42617.0,36027.0,37395.0,0,0,0,0,37935.36328125,-1446.0,-1913.0,-2059.0
2.26,0.27066120505332947,-0.017152799293398857,0.4880458116531372,0.0,0.0,0.0,-0.2885451018810272,-1.597407341003418,-1.7243781089782715,0.550000011920929,0.0,0.5,0.0,0.0,0.0,0.0,0.0,0.0,0.0,0.0,0.0,34685.0,43179.0,36945.0,36691.0,0,0,0,0,37875.55859375,-2131.0,-1830.0,-2103.0
2.28,0.2806583046913147,-0.016928112134337425,0.4897618293762207,0.0,0.0,0.0,-0.20478592813014984,-1.497681736946106,-1.7264970541000366,0.550000011920929,0.0,0.5,0.0,0.0,0.0,0.0,0.0,0.0,0.0,0.0,0.0,34962.0,43128.0,36244.0,36662.0,0,0,0,0,37749.47265625,-1256.0,-4083.0,-2131.0
2.3,0.2900862991809845,-0.016615163534879684,0.49201375246047974,0.0,0.0,0.0,-0.15090656280517578,-1.5077204704284668,-1.7237342596054077,0.550000011920929,0.0,0.5,0.0,0.0,0.0,0.0,0.0,0.0,0.0,0.0,0.0,33886.0,45148.0,37478.0,34424.0,0,0,0,0,37734.70703125,-2074.0,-8957.0,-2094.0
2.32,0.2984618842601776,-0.01641865260899067,0.493760883808136,0.0,0.0,0.0,-0.06269122660160065,-1.4111584424972534,-1.728190302848816,0.6000000238418579,0.0,0.5,0.0,0.0,0.0,0.0,0.0,0.0,0.0,0.0,0.0,33233.0,44305.0,38377.0,35461.0,0,0,0,0,37844.3125,-1852.0,-4368.0,-2085.0
2.34,0.3079795837402344,-0.01527387835085392,0.4948870539665222,0.0,0.0,0.0,0.0009122014162130654,-1.2280375957489014,-1.727530598640442,0.6000000238418579,0.0,0.5,0.0,0.0,0.0,0.0,0.0,0.0,0.0,0.0,0.0,34742.0,41224.0,36652.0,38894.0,0,0,0,0,37878.86328125,-752.0,-1892.0,-2143.0
2.36,0.31790539622306824,-0.013853629119694233,0.49645885825157166,0.0,0.0,0.0,0.044212792068719864,-1.007321834564209,-1.7258681058883667,0.6000000238418579,0.0,0.5,0.0,0.0,0.0,0.0,0.0,0.0,0.0,0.0,0.0,34737.0,43791.0,36911.0,36165.0,0,0,0,0,37901.5390625,-1904.0,-2077.0,-2073.0
2.38,0.32831090688705444,-0.013953580521047115,0.49797749519348145,0.0,0.0,0.0,0.047581836581230164,-0.9425102472305298,-1.733620285987854,0.6000000238418579,0.0,0.5,0.0,0.0,0.0,0.0,0.0,0.0,0.0,0.0,0.0,35498.0,42190.0,36306.0,37574.0,0,0,0,0,37892.55078125,-2004.0,-4385.0,-2021.0
2.4,0.3393981158733368,-0.012508446350693703,0.499437153339386,0.0,0.0,0.0,0.0501498207449913,-1.0239731073379517,-1.732398271560669,0.6000000238418579,0.0,0.5,0.0,0.0,0.0,0.0,0.0,0.0,0.0,0.0,0.0,32648.0,45226.0,38980.0,34738.0,0,0,0,0,37898.2890625,-2512.0,-8832.0,-2101.0
2.42,0.34962642192840576,-0.011268284171819687,0.5009137988090515,0.0,0.0,0.0,0.10828784108161926,-1.0314030647277832,-1.71774423122406,0.6499999761581421,0.0,0.5,0.0,0.0,0.0,0.0,0.0,0.0,0.0,0.0,0.0,34215.0,43705.0,37281.0,36479.0,0,0,0,0,37920.63671875,-1004.0,-3774.0,-2151.0
2.441,0.35769808292388916,-0.011972440406680107,0.5023065209388733,0.0,0.0,0.0,0.18075042963027954,-0.9123437404632568,-1.707741618156433,0.6499999761581421,0.0,0.5,0.0,0.0,0.0,0.0,0.0,0.0,0.0,0.0,0.0,34476.0,42948.0,37236.0,37132.0,0,0,0,0,37948.796875,-2170.0,-4354.0,-2085.0
2.461,0.3673366606235504,-0.010185678489506245,0.5036352872848511,0.0,0.0,0.0,0.20108895003795624,-0.7545910477638245,-1.7141268253326416,0.6499999761581421,0.0,0.5,0.0,0.0,0.0,0.0,0.0,0.0,0.0,0.0,0.0,35016.0,42900.0,36734.0,37258.0,0,0,0,0,37977.359375,-3438.0,-4262.0,-2126.0
2.481,0.37819716334342957,-0.010450243018567562,0.5047957897186279,0.0,0.0,0.0,0.20239976048469543,-0.7712606191635132,-1.7107529640197754,0.6499999761581421,0.0,0.5,0.0,0.0,0.0,0.0,0.0,0.0,0.0,0.0,0.0,33959.0,43299.0,37633.0,37081.0,0,0,0,0,37993.67578125,-3149.0,-4060.0,-2215.0
2.501,0.3861011564731598,-0.009697633795440197,0.5060361623764038,0.0,0.0,0.0,0.20176665484905243,-0.8085304498672485,-1.701876163482666,0.6499999761581421,0.0,0.5,0.0,0.0,0.0,0.0,0.0,0.0,0.0,0.0,0.0,33704.0,44490.0,37836.0,35642.0,0,0,0,0,37918.65625,-2157.0,-8376.0,-2154.0
2.521,0.39667364954948425,-0.010225731879472733,0.5077686905860901,0.0,0.0,0.0,0.23683658242225647,-0.8269118666648865,-1.7058244943618774,0.699999988079071,0.0,0.5,0.0,0.0,0.0,0.0,0.0,0.0,0.0,0.0,0.0,34457.0,43379.0,37065.0,36947.0,0,0,0,0,37962.04296875,-2133.0,-4766.0,-2235.0
2.541,0.4068700969219208,-0.008934663608670235,0.5090131759643555,0.0,0.0,0.0,0.29888716340065,-0.7259302139282227,-1.708998203277588,0.699999988079071,0.0,0.5,0.0,0.0,0.0,0.0,0.0,0.0,0.0,0.0,0.0,34957.0,43063.0,36625.0,37287.0,0,0,0,0,37983.3359375,-616.0,-2988.0,-2211.0
2.561,0.41624778509140015,-0.009529882110655308,0.5100903511047363,0.0,0.0,0.0,0.3496403396129608,-0.5658654570579529,-1.7118626832962036,0.699999988079071,0.0,0.5,0.0,0.0,0.0,0.0,0.0,0.0,0.0,0.0,0.0,35664.0,42440.0,36164.0,37812.0,0,0,0,0,38020.87109375,-2167.0,-2595.0,-2053.0
2.581,0.4262423813343048,-0.008574945852160454,0.5111668705940247,0.0,0.0,0.0,0.34955281019210815,-0.5588188767433167,-1.7202435731887817,0.699999988079071,0.0,0.5,0.0,0.0,0.0,0.0,0.0,0.0,0.0,0.0,0.0,34375.0,42993.0,37311.0,36877.0,0,0,0,0,37889.83203125,-1809.0,-3583.0,-2035.0
2.601,0.4341578185558319,-0.008706423453986645,0.5129172205924988,0.0,0.0,0.0,0.33712038397789,-0.696427047252655,-1.71186363697052,0.699999988079071,0.0,0.5,0.0,0.0,0.0,0.0,0.0,0.0,0.0,0.0,0.0,34286.0,43270.0,37248.0,36768.0,0,0,0,0,37893.20703125,-1311.0,-6244.0,-2114.0
2.621,0.44329559803009033,-0.008812799118459225,0.5140109062194824,0.0,0.0,0.0,0.33339521288871765,-0.7867770195007324,-1.687077522277832,0.75,0.0,0.5,0.0,0.0,0.0,0.0,0.0,0.0,0.0,0.0,0.0,34016.0,43440.0,37584.0,36648.0,0,0,0,0,37922.87890625,-2224.0,-6203.0,-2182.0
2.641,0.45314469933509827,-0.007836874574422836,0.5150400996208191,0.0,0.0,0.0,0.3153226971626282,-0.7281308174133301,-1.6743825674057007,0.75,0.0,0.5,0.0,0.0,0.0,0.0,0.0,0.0,0.0,0.0,0.0,33876.0,42736.0,37768.0,37356.0,0,0,0,0,37934.44921875,-1467.0,-3527.0,-2093.0
2.661,0.4595520794391632,-0.00753417331725359,0.5160620212554932,0.0,0.0,0.0,0.26846322417259216,-0.5945923924446106,-1.6656416654586792,0.75,0.0,0.5,0.0,0.0,0.0,0.0,0.0,0.0,0.0,0.0,0.0,36120.0,42576.0,35544.0,37516.0,0,0,0,0,37939.7109375,-1953.0,-2534.0,-2147.0
2.681,0.47054237127304077,-0.008079462684690952,0.5170299410820007,0.0,0.0,0.0,0.19150729477405548,-0.5765734910964966,-1.6560477018356323,0.75,0.0,0.5,0.0,0.0,0.0,0.0,0.0,0.0,0.0,0.0,0.0,35209.0,41971.0,36459.0,37905.0,0,0,0,0,37886.88671875,-3202.0,-3817.0,-2171.0
2.701,0.47981661558151245,-0.006755208130925894,0.518197774887085,0.0,0.0,0.0,0.11227177828550339,-0.7297285199165344,-1.6457127332687378,0.75,0.0,0.5,0.0,0.0,0.0,0.0,0.0,0.0,0.0,0.0,0.0,34664.0,42188.0,37148.0,37596.0,0,0,0,0,37899.9140625,-2210.0,-7616.0,-2030.0
2.721,0.4909360706806183,-0.004828138276934624,0.51914381980896,0.0,0.0,0.0,0.08316086232662201,-0.9054586887359619,-1.6336560249328613,0.800000011920929,0.0,0.5,0.0,0.0,0.0,0.0,0.0,0.0,0.0,0.0,0.0,32733.0,44033.0,38459.0,35431.0,0,0,0,0,37664.5234375,-1185.0,-5696.0,-2105.0
2.741,0.5007904767990112,-0.0053767128847539425,0.5214507579803467,0.0,0.0,0.0,0.11620545387268066,-0.9381934404373169,-1.6120868921279907,0.800000011920929,0.0,0.5,0.0,0.0,0.0,0.0,0.0,0.0,0.0,0.0,0.0,34978.0,42232.0,36044.0,37330.0,0,0,0,0,37646.16015625,-1671.0,-3529.0,-2059.0
2.76,0.509606659412384,-0.006168545223772526,0.5224928855895996,0.0,0.0,0.0,0.08469068259000778,-0.8508917689323425,-1.5934821367263794,0.800000011920929,0.0,0.5,0.0,0.0,0.0,0.0,0.0,0.0,0.0,0.0,0.0,35293.0,42341.0,36509.0,37513.0,0,0,0,0,37914.56640625,-1199.0,-2088.0,-2024.0
2.78,0.5191866755485535,-0.006142588332295418,0.5220909118652344,0.0,0.0,0.0,0.048255302011966705,-0.8120163083076477,-1.5856359004974365,0.800000011920929,0.0,0.5,0.0,0.0,0.0,0.0,0.0,0.0,0.0,0.0,0.0,35262.0,41272.0,36578.0,38772.0,0,0,0,0,37971.33203125,-3679.0,-3814.0,-2098.0
2.8,0.5268036127090454,-0.006102495826780796,0.5229151844978333,0.0,0.0,0.0,0.03051803633570671,-0.9159327745437622,-1.5626716613769531,0.800000011920929,0.0,0.5,0.0,0.0,0.0,0.0,0.0,0.0,0.0,0.0,0.0,34430.0,43486.0,37536.0,36648.0,0,0,0,0,38025.8359375,-1924.0,-6957.0,-2034.0
2.82,0.5353714823722839,-0.006307280622422695,0.5237872004508972,0.0,0.0,0.0,0.0008000272791832685,-1.0419931411743164,-1.541147232055664,0.8500000238418579,0.0,0.5,0.0,0.0,0.0,0.0,0.0,0.0,0.0,0.0,0.0,33012.0,44970.0,39124.0,35114.0,0,0,0,0,38055.70703125,-1082.0,-6716.0,-2035.0
2.84,0.5470536351203918,-0.006924114655703306,0.5244653224945068,0.0,0.0,0.0,0.03643502667546272,-1.0639355182647705,-1.5300776958465576,0.8500000238418579,0.0,0.5,0.0,0.0,0.0,0.0,0.0,0.0,0.0,0.0,0.0,35371.0,43241.0,36547.0,37181.0,0,0,0,0,38085.671875,-1869.0,-3441.0,-2119.0
2.86,0.5565934181213379,-0.007029993459582329,0.5251206755638123,0.0,0.0,0.0,0.04314509406685829,-0.9272041320800781,-1.5061427354812622,0.8500000238418579,0.0,0.5,0.0,0.0,0.0,0.0,0.0,0.0,0.0,0.0,0.0,35874.0,41734.0,36102.0,38582.0,0,0,0,0,38073.34765625,-151.0,-1607.0,-2010.0
2.88,0.5663949251174927,-0.00678225327283144,0.5257075428962708,0.0,0.0,0.0,-0.008121110498905182,-0.8771282434463501,-1.4959745407104492,0.8500000238418579,0.0,0.5,0.0,0.0,0.0,0.0,0.0,0.0,0.0,0.0,0.0,36225.0,42965.0,36017.0,37077.0,0,0,0,0,38071.08984375,-2218.0,-4810.0,-2032.0
2.9,0.5764710903167725,-0.00658907275646925,0.5263342261314392,0.0,0.0,0.0,-0.04590199142694473,-1.0023400783538818,-1.4886767864227295,0.8500000238418579,0.0,0.5,0.0,0.0,0.0,0.0,0.0,0.0,0.0,0.0,0.0,35205.0,44113.0,36927.0,36291.0,0,0,0,0,38134.5078125,-2088.0,-6355.0,-2103.0
2.92,0.5833930969238281,-0.006659898441284895,0.5266912579536438,0.0,0.0,0.0,-0.07668325304985046,-1.0990701913833618,-1.4561307430267334,0.8999999761581421,0.0,0.5,0.0,0.0,0.0,0.0,0.0,0.0,0.0,0.0,0.0,33524.0,44176.0,38678.0,36246.0,0,0,0,0,38156.7109375,-631.0,-7542.0,-2027.0
2.94,0.5935479402542114,-0.00746252341195941,0.5272459983825684,0.0,0.0,0.0,-0.0306190624833107,-1.0556126832962036,-1.441795825958252,0.8999999761581421,0.0,0.5,0.0,0.0,0.0,0.0,0.0,0.0,0.0,0.0,0.0,34026.0,43278.0,38004.0,36976.0,0,0,0,0,38071.22265625,-1639.0,-4439.0,-2103.0
2.96,0.603134274482727,-0.007639176677912474,0.528368353843689,0.0,0.0,0.0,-0.017975475639104843,-0.9260748028755188,-1.4295293092727661,0.8999999761581421,0.0,0.5,0.0,0.0,0.0,0.0,0.0,0.0,0.0,0.0,0.0,34858.0,43158.0,36972.0,37292.0,0,0,0,0,38070.26171875,-1761.0,-2984.0,-2098.0
2.98,0.613232433795929,-0.007515766657888889,0.5289372801780701,0.0,0.0,0.0,-0.06145428493618965,-0.8090066313743591,-1.4156705141067505,0.8999999761581421,0.0,0.5,0.0,0.0,0.0,0.0,0.0,0.0,0.0,0.0,0.0,36404.0,42766.0,35898.0,37968.0,0,0,0,0,38259.22265625,-1320.0,-2967.0,-1999.0
3.0,0.6211977601051331,-0.006381556857377291,0.5285135507583618,0.0,0.0,0.0,-0.10047528892755508,-0.8348795175552368,-1.4190102815628052,0.8999999761581421,0.0,0.5,0.0,0.0,0.0,0.0,0.0,0.0,0.0,0.0,0.0,34448.0,43954.0,38050.0,36568.0,0,0,0,0,38255.0546875,-3122.0,-6724.0,-2091.0
3.02,0.6317977905273438,-0.005469711031764746,0.5289507508277893,0.0,0.0,0.0,-0.11396291106939316,-0.9300848245620728,-1.4124386310577393,0.949999988079071,0.0,0.5,0.0,0.0,0.0,0.0,0.0,0.0,0.0,0.0,0.0,32758.0,45234.0,39704.0,35744.0,0,0,0,0,38360.61328125,-2208.0,-6553.0,-2068.0
3.04,0.6388029456138611,-0.007907033897936344,0.5288704037666321,0.0,0.0,0.0,-0.10257086902856827,-0.912882387638092,-1.3911404609680176,0.949999988079071,0.0,0.5,0.0,0.0,0.0,0.0,0.0,0.0,0.0,0.0,0.0,34998.0,43174.0,37638.0,37594.0,0,0,0,0,38351.46484375,-1823.0,-3819.0,-2034.0
3.06,0.6497302055358887,-0.008366684429347515,0.5292393565177917,0.0,0.0,0.0,-0.09305732697248459,-0.8167276978492737,-1.3898000717163086,0.949999988079071,0.0,0.5,0.0,0.0,0.0,0.0,0.0,0.0,0.0,0.0,0.0,35814.0,43252.0,36986.0,37688.0,0,0,0,0,38435.55078125,-1808.0,-2727.0,-2019.0
3.08,0.6602656841278076,-0.008342576213181019,0.5290207266807556,0.0,0.0,0.0,-0.11086102575063705,-0.75218665599823,-1.378969430923462,0.949999988079071,0.0,0.5,0.0,0.0,0.0,0.0,0.0,0.0,0.0,0.0,0.0,35007.0,43797.0,37723.0,37129.0,0,0,0,0,38414.21875,-797.0,-3692.0,-1984.0
3.1,0.6689280867576599,-0.008149093016982079,0.5293627977371216,0.0,0.0,0.0,-0.15253953635692596,-0.8376646637916565,-1.3637031316757202,0.949999988079071,0.0,0.5,0.0,0.0,0.0,0.0,0.0,0.0,0.0,0.0,0.0,34995.0,44023.0,37875.0,36763.0,0,0,0,0,38414.94140625,-1633.0,-8449.0,-1950.0
3.12,0.6799125671386719,-0.006888696923851967,0.5297009944915771,0.0,0.0,0.0,-0.19511857628822327,-0.9749046564102173,-1.3462318181991577,0.949999988079071,0.0,0.5,0.0,0.0,0.0,0.0,0.0,0.0,0.0,0.0,0.0,34133.0,44771.0,38463.0,36129.0,0,0,0,0,38374.98046875,-1071.0,-5842.0,-2109.0
3.14,0.6890971064567566,-0.00713333347812295,0.5301107168197632,0.0,0.0,0.0,-0.20524920523166656,-0.9559601545333862,-1.3209277391433716,1.0,0.0,0.5,0.0,0.0,0.0,0.0,0.0,0.0,0.0,0.0,0.0,34636.0,42802.0,37940.0,37974.0,0,0,0,0,38338.03125,-2100.0,-2940.0,-2046.0
3.16,0.6971271634101868,-0.0063186404295265675,0.5305055379867554,0.0,0.0,0.0,-0.19778278470039368,-0.773650586605072,-1.3067853450775146,1.0,0.0,0.5,0.0,0.0,0.0,0.0,0.0,0.0,0.0,0.0,0.0,35190.0,41920.0,36722.0,38044.0,0,0,0,0,37969.27734375,-2883.0,-2856.0,-2012.0
3.18,0.7063707113265991,-0.004940099082887173,0.5326383113861084,0.0,0.0,0.0,-0.2401587963104248,-0.7444562315940857,-1.2948527336120605,1.0,0.0,0.5,0.0,0.0,0.0,0.0,0.0,0.0,0.0,0.0,0.0,34765.0,42767.0,37035.0,37041.0,0,0,0,0,37902.62109375,-2000.0,-3647.0,-2048.0
3.2,0.7165895700454712,-0.006714335177093744,0.5332669019699097,0.0,0.0,0.0,-0.22187691926956177,-0.8807467818260193,-1.2814289331436157,1.0,0.0,0.5,0.0,0.0,0.0,0.0,0.0,0.0,0.0,0.0,0.0,34080.0,43506.0,37780.0,36554.0,0,0,0,0,37980.89453125,-2969.0,-5238.0,-2062.0
3.22,0.7267375588417053,-0.0074432892724871635,0.5333254337310791,0.0,0.0,0.0,-0.16948378086090088,-0.9960304498672485,-1.2655147314071655,1.0,0.0,0.5,0.0,0.0,0.0,0.0,0.0,0.0,0.0,0.0,0.0,34177.0,43453.0,37927.0,36539.0,0,0,0,0,38024.21484375,-1516.0,-4998.0,-2074.0
3.24,0.736595869064331,-0.007984244264662266,0.5338885188102722,0.0,0.0,0.0,-0.14552679657936096,-1.0171246528625488,-1.2592016458511353,1.0,0.0,0.5,0.0,0.0,0.0,0.0,0.0,0.0,0.0,0.0,0.0,35211.0,43313.0,37019.0,37069.0,0,0,0,0,38153.921875,-2556.0,-4910.0,-2065.0
3.26,0.7458681464195251,-0.006938318256288767,0.5338510870933533,0.0,0.0,0.0,-0.1487985998392105,-0.8663787841796875,-1.2433964014053345,1.0,0.0,0.5,0.0,0.0,0.0,0.0,0.0,0.0,0.0,0.0,0.0,34595.0,43627.0,37581.0,37005.0,0,0,0,0,38202.796875,-2531.0,-4539.0,-2071.0
3.28,0.7558233141899109,-0.007140264380723238,0.534271776676178,0.0,0.0,0.0,-0.15976177155971527,-0.6393606066703796,-1.2321345806121826,1.0,0.0,0.5,0.0,0.0,0.0,0.0,0.0,0.0,0.0,0.0,0.0,35098.0,43430.0,36446.0,36294.0,0,0,0,0,37817.86328125,-1043.0,-3491.0,-2030.0
3.3,0.7673696875572205,-0.007127788849174976,0.5367178320884705,0.0,0.0,0.0,-0.18552523851394653,-0.4185905456542969,-1.2309175729751587,1.0,0.0,0.5,0.0,0.0,0.0,0.0,0.0,0.0,0.0,0.0,0.0,34287.0,43261.0,37289.0,36459.0,0,0,0,0,37824.66796875,-5530.0,-3830.0,-2131.0
3.32,0.7816659808158875,-0.007877168245613575,0.5372955203056335,0.0,0.0,0.0,-0.14561088383197784,-0.17183120548725128,-1.2209447622299194,1.0,0.0,0.5,0.0,0.0,0.0,0.0,0.0,0.0,0.0,0.0,0.0,35967.0,44221.0,35413.0,35795.0,0,0,0,0,37849.5546875,-3754.0,-5824.0,-2115.0
3.34,0.7907545566558838,-0.0068497247993946075,0.5378666520118713,0.0,0.0,0.0,-0.1456681489944458,0.15435993671417236,-1.2113137245178223,1.0,0.05000000074505806,0.5,0.0,0.0,0.0,0.0,0.0,0.0,0.0,0.0,0.0,34118.0,42916.0,37194.0,36372.0,0,0,0,0,37650.5546875,312.0,-4189.0,-1997.0
3.36,0.8006851077079773,-0.006562559399753809,0.5396299362182617,0.0,0.0,0.0,-0.17537769675254822,0.5095800757408142,-1.2148523330688477,1.0,0.05000000074505806,0.5,0.0,0.0,0.0,0.0,0.0,0.0,0.0,0.0,0.0,33030.0,43374.0,38244.0,36092.0,0,0,0,0,37685.79296875,-348.0,-4885.0,-2097.0
3.38,0.8106251955032349,-0.004548341501504183,0.5402409434318542,0.0,0.0,0.0,-0.35302597284317017,0.8899998068809509,-1.1973059177398682,1.0,0.05000000074505806,0.5,0.0,0.0,0.0,0.0,0.0,0.0,0.0,0.0,0.0,34021.0,42599.0,36989.0,37239.0,0,0,0,0,37712.8359375,-1032.0,-4663.0,-2164.0
3.4,0.8203907608985901,-0.0032945824787020683,0.5409830808639526,0.0,0.0,0.0,-0.7172309160232544,1.2719082832336426,-1.1823533773422241,1.0,0.05000000074505806,0.5,0.0,0.0,0.0,0.0,0.0,0.0,0.0,0.0,0.0,33942.0,43726.0,37382.0,35986.0,0,0,0,0,37759.953125,-3792.0,-4768.0,-2090.0
3.42,0.8301564455032349,-0.0025760645512491465,0.5414845943450928,0.0,0.0,0.0,-1.0703284740447998,1.6723650693893433,-1.1842950582504272,1.0,0.05000000074505806,0.5,0.0,0.0,0.0,0.0,0.0,0.0,0.0,0.0,0.0,36284.0,43788.0,34734.0,35674.0,0,0,0,0,37620.70703125,-3954.0,-3852.0,-2060.0
3.441,0.8395909667015076,-0.004427717067301273,0.5428630113601685,0.0,0.0,0.0,-1.2758017778396606,2.0932998657226562,-1.1771117448806763,1.0,0.10000000149011612,0.5,0.0,0.0,0.0,0.0,0.0,0.0,0.0,0.0,0.0,34081.0,43549.0,37229.0,35913.0,0,0,0,0,37693.125,-1969.0,-3903.0,-2060.0
3.46,0.8493567109107971,-0.00401925528421998,0.5433559417724609,0.0,0.0,0.0,-1.451719880104065,2.501511812210083,-1.1584956645965576,1.0,0.10000000149011612,0.5,0.0,0.0,0.0,0.0,0.0,0.0,0.0,0.0,0.0,33021.0,41821.0,38579.0,37811.0,0,0,0,0,37808.2421875,-367.0,-5607.0,-2004.0
3.481,0.8569240570068359,-0.002254203660413623,0.5434694886207581,0.0,0.0,0.0,-1.7300028800964355,2.8818891048431396,-1.1348947286605835,1.0,0.10000000149011612,0.5,0.0,0.0,0.0,0.0,0.0,0.0,0.0,0.0,0.0,33423.0,42039.0,38133.0,37925.0,0,0,0,0,37880.91015625,-761.0,-5541.0,-2114.0
3.5,0.8664324879646301,-0.0003723781555891037,0.5437909364700317,0.0,0.0,0.0,-2.1649158000946045,3.1813242435455322,-1.1115634441375732,1.0,0.10000000149011612,0.5,0.0,0.0,0.0,0.0,0.0,0.0,0.0,0.0,0.0,33940.0,43486.0,37794.0,36856.0,0,0,0,0,38019.57421875,-2306.0,-4126.0,-2142.0
3.52,0.874460756778717,0.000962526653893292,0.5436461567878723,0.0,0.0,0.0,-2.58477520942688,3.507159471511841,-1.0960978269577026,1.0,0.10000000149011612,0.5,0.0,0.0,0.0,0.0,0.0,0.0,0.0,0.0,0.0,35658.0,45224.0,36372.0,35070.0,0,0,0,0,38081.265625,-3794.0,-5397.0,-2020.0
3.54,0.8847748637199402,0.0006895617116242647,0.5438022613525391,0.0,0.0,0.0,-2.856567621231079,3.846768617630005,-1.088595986366272,1.0,0.15000000596046448,0.5,0.0,0.0,0.0,0.0,0.0,0.0,0.0,0.0,0.0,34706.0,42888.0,37668.0,37318.0,0,0,0,0,38145.08203125,-775.0,-5048.0,-1940.0
3.56,0.8905252814292908,0.002057577483355999,0.543912947177887,0.0,0.0,0.0,-3.0229318141937256,4.17645788192749,-1.0731924772262573,1.0,0.15000000596046448,0.5,0.0,0.0,0.0,0.0,0.0,0.0,0.0,0.0,0.0,34170.0,40808.0,37810.0,39140.0,0,0,0,0,37982.234375,377.0,-3642.0,-1966.0
3.58,0.8985023498535156,0.002431175671517849,0.5452545285224915,0.0,0.0,0.0,-3.2731828689575195,4.426424026489258,-1.0402629375457764,1.0,0.15000000596046448,0.5,0.0,0.0,0.0,0.0,0.0,0.0,0.0,0.0,0.0,34708.0,42412.0,37576.0,37440.0,0,0,0,0,38034.70703125,-1543.0,-5319.0,-1916.0
3.6,0.9073126316070557,0.00403038552030921,0.5453891754150391,0.0,0.0,0.0,-3.6731462478637695,4.578429698944092,-1.0162889957427979,1.0,0.15000000596046448,0.5,0.0,0.0,0.0,0.0,0.0,0.0,0.0,0.0,0.0,34223.0,44695.0,38083.0,35423.0,0,0,0,0,38106.0859375,-2737.0,-4009.0,-1912.0
3.62,0.9148297309875488,0.007457936182618141,0.5453025102615356,0.0,0.0,0.0,-4.061551570892334,4.73901891708374,-0.9872650504112244,1.0,0.15000000596046448,0.5,0.0,0.0,0.0,0.0,0.0,0.0,0.0,0.0,0.0,36023.0,44587.0,36397.0,35589.0,0,0,0,0,38149.44921875,-4053.0,-3489.0,-1929.0
3.64,0.9221740365028381,0.009141486138105392,0.54534912109375,0.0,0.0,0.0,-4.28269100189209,4.921970844268799,-0.9597333073616028,1.0,0.20000000298023224,0.5,0.0,0.0,0.0,0.0,0.0,0.0,0.0,0.0,0.0,35495.0,41577.0,37369.0,38639.0,0,0,0,0,38270.609375,-102.0,-4414.0,-1835.0
3.66,0.9284024834632874,0.011062724515795708,0.5448349714279175,0.0,0.0,0.0,-4.375800132751465,5.10263204574585,-0.9359621405601501,1.0,0.20000000298023224,0.5,0.0,0.0,0.0,0.0,0.0,0.0,0.0,0.0,0.0,34544.0,41988.0,38262.0,38354.0,0,0,0,0,38287.83984375,-20.0,-3644.0,-1888.0
3.68,0.9346837997436523,0.011846275068819523,0.5447908639907837,0.0,0.0,0.0,-4.564686298370361,5.161676406860352,-0.9143587350845337,1.0,0.20000000298023224,0.5,0.0,0.0,0.0,0.0,0.0,0.0,0.0,0.0,0.0,34838.0,42450.0,38190.0,38234.0,0,0,0,0,38428.34765625,-764.0,-3111.0,-1903.0
3.7,0.9414433836936951,0.014798479154706001,0.5440558195114136,0.0,0.0,0.0,-4.884039402008057,5.168118476867676,-0.8912491798400879,1.0,0.20000000298023224,0.5,0.0,0.0,0.0,0.0,0.0,0.0,0.0,0.0,0.0,34959.0,44569.0,38239.0,35989.0,0,0,0,0,38439.5078125,-3726.0,-3927.0,-1846.0
3.72,0.9484955072402954,0.020282192155718803,0.5439163446426392,0.0,0.0,0.0,-5.204608917236328,5.123098373413086,-0.8798460364341736,1.0,0.20000000298023224,0.5,0.0,0.0,0.0,0.0,0.0,0.0,0.0,0.0,0.0,36767.0,43065.0,35435.0,36677.0,0,0,0,0,37986.07421875,-3840.0,-4187.0,-1874.0
3.74,0.9538338780403137,0.019112886860966682,0.5461500883102417,0.0,0.0,0.0,-5.2992658615112305,5.13327693939209,-0.8738198280334473,1.0,0.25,0.5,0.0,0.0,0.0,0.0,0.0,0.0,0.0,0.0,0.0,33438.0,41712.0,38706.0,37896.0,0,0,0,0,37938.48828125,-1828.0,-2216.0,-1841.0
3.76,0.9604200124740601,0.0246407650411129,0.5463058352470398,0.0,0.0,0.0,-5.275974750518799,5.159574031829834,-0.8480786681175232,1.0,0.25,0.5,0.0,0.0,0.0,0.0,0.0,0.0,0.0,0.0,0.0,33861.0,43433.0,38305.0,36089.0,0,0,0,0,37922.453125,-971.0,-4652.0,-1874.0
3.78,0.9642692804336548,0.030602406710386276,0.5464792251586914,0.0,0.0,0.0,-5.377426624298096,5.130349159240723,-0.8319097757339478,1.0,0.25,0.5,0.0,0.0,0.0,0.0,0.0,0.0,0.0,0.0,0.0,35733.0,41847.0,36671.0,38177.0,0,0,0,0,38107.23828125,-1428.0,-2620.0,-1936.0
3.8,0.9704375863075256,0.034635029733181,0.5455940961837769,0.0,0.0,0.0,-5.571725845336914,5.064671039581299,-0.817544162273407,1.0,0.25,0.5,0.0,0.0,0.0,0.0,0.0,0.0,0.0,0.0,0.0,35503.0,42665.0,36891.0,37425.0,0,0,0,0,38121.6640625,-924.0,-2011.0,-1929.0
3.82,0.974633514881134,0.03905506804585457,0.5456638932228088,0.0,0.0,0.0,-5.696209907531738,5.003721714019775,-0.8178814053535461,1.0,0.25,0.5,0.0,0.0,0.0,0.0,0.0,0.0,0.0,0.0,0.0,36376.0,42252.0,36126.0,37706.0,0,0,0,0,38115.82421875,-4387.0,-3859.0,-1799.0
3.84,0.9779605865478516,0.04441797733306885,0.5458405017852783,0.0,0.0,0.0,-5.675230026245117,4.895721435546875,-0.825242280960083,1.0,0.30000001192092896,0.5,0.0,0.0,0.0,0.0,0.0,0.0,0.0,0.0,0.0,35866.0,41388.0,36810.0,38512.0,0,0,0,0,38144.8203125,431.0,-3617.0,-1810.0
3.86,0.9840176701545715,0.0495966412127018,0.5458923578262329,0.0,0.0,0.0,-5.515623569488525,4.745704174041748,-0.8220080733299255,1.0,0.30000001192092896,0.5,0.0,0.0,0.0,0.0,0.0,0.0,0.0,0.0,0.0,34894.0,41960.0,38534.0,38720.0,0,0,0,0,38527.8125,-596.0,-3398.0,-1822.0
3.88,0.9861062169075012,0.05670469254255295,0.5439945459365845,0.0,0.0,0.0,-5.395158290863037,4.638099193572998,-0.805910050868988,1.0,0.30000001192092896,0.5,0.0,0.0,0.0,0.0,0.0,0.0,0.0,0.0,0.0,35684.0,43832.0,37620.0,37084.0,0,0,0,0,38555.55859375,-1836.0,-3464.0,-1864.0
3.9,0.9884498715400696,0.06389490514993668,0.5437964797019958,0.0,0.0,0.0,-5.418410301208496,4.508769989013672,-0.8004772067070007,1.0,0.30000001192092896,0.5,0.0,0.0,0.0,0.0,0.0,0.0,0.0,0.0,0.0,36378.0,43644.0,37172.0,37550.0,0,0,0,0,38686.60546875,-2566.0,-2877.0,-1903.0
3.92,0.990729570388794,0.06982238590717316,0.5429722666740417,0.0,0.0,0.0,-5.363762855529785,4.3863205909729,-0.801230251789093,1.0,0.30000001192092896,0.5,0.0,0.0,0.0,0.0,0.0,0.0,0.0,0.0,0.0,39286.0,43956.0,34328.0,37194.0,0,0,0,0,38691.89453125,-5740.0,-1623.0,-1831.0
3.94,0.9919686317443848,0.07536928355693817,0.5427229404449463,0.0,0.0,0.0,-5.150856971740723,4.255959987640381,-0.8069594502449036,1.0,0.3499999940395355,0.5,0.0,0.0,0.0,0.0,0.0,0.0,0.0,0.0,0.0,36590.0,43414.0,37080.0,37708.0,0,0,0,0,38698.87109375,-1430.0,-1615.0,-1929.0
3.961,0.995812714099884,0.08231250196695328,0.5422974228858948,0.0,0.0,0.0,-4.774352073669434,4.003782272338867,-0.8160750865936279,1.0,0.3499999940395355,0.5,0.0,0.0,0.0,0.0,0.0,0.0,0.0,0.0,0.0,37117.0,41781.0,36485.0,39297.0,0,0,0,0,38670.68359375,-105.0,-2081.0,-1880.0
3.981,0.9970263242721558,0.09219326823949814,0.5420737862586975,0.0,0.0,0.0,-4.445662498474121,3.7553043365478516,-0.8143700361251831,1.0,0.3499999940395355,0.5,0.0,0.0,0.0,0.0,0.0,0.0,0.0,0.0,0.0,35275.0,43465.0,38227.0,37481.0,0,0,0,0,38612.98046875,-1905.0,-3213.0,-1864.0
4.001,0.9996293187141418,0.09979169815778732,0.5419085621833801,0.0,0.0,0.0,-4.3155198097229,3.499098777770996,-0.8173677325248718,1.0,0.3499999940395355,0.5,0.0,0.0,0.0,0.0,0.0,0.0,0.0,0.0,0.0,35967.0,43657.0,38257.0,38127.0,0,0,0,0,39002.52734375,-2370.0,-2890.0,-1890.0
4.02,1.0013765096664429,0.10599257797002792,0.5393199920654297,0.0,0.0,0.0,-4.1675028800964355,3.2981436252593994,-0.8198813199996948,1.0,0.3499999940395355,0.5,0.0,0.0,0.0,0.0,0.0,0.0,0.0,0.0,0.0,38527.0,44287.0,35413.0,37529.0,0,0,0,0,38939.44140625,-5372.0,-3251.0,-1918.0
4.04,1.0044448375701904,0.11334557831287384,0.5390273332595825,0.0,0.0,0.0,-3.917053461074829,3.105797290802002,-0.8190587162971497,1.0,0.4000000059604645,0.5,0.0,0.0,0.0,0.0,0.0,0.0,0.0,0.0,0.0,36714.0,43116.0,37854.0,38956.0,0,0,0,0,39160.984375,-2748.0,-3836.0,-1909.0
4.06,1.0057259798049927,0.12090723216533661,0.537199854850769,0.0,0.0,0.0,-3.57930850982666,2.875944137573242,-0.8249759078025818,1.0,0.4000000059604645,0.5,0.0,0.0,0.0,0.0,0.0,0.0,0.0,0.0,0.0,36030.0,44482.0,38760.0,37120.0,0,0,0,0,39098.93359375,44.0,-2189.0,-1917.0
4.08,1.008204698562622,0.1294705718755722,0.5368804931640625,0.0,0.0,0.0,-3.2796101570129395,2.622507095336914,-0.8227440118789673,1.0,0.4000000059604645,0.5,0.0,0.0,0.0,0.0,0.0,0.0,0.0,0.0,0.0,36731.0,44281.0,38441.0,38235.0,0,0,0,0,39422.73828125,-2817.0,-3111.0,-1879.0
4.1,1.010214924812317,0.137680783867836,0.5343339443206787,0.0,0.0,0.0,-3.1122074127197266,2.448702812194824,-0.8106533885002136,1.0,0.4000000059604645,0.5,0.0,0.0,0.0,0.0,0.0,0.0,0.0,0.0,0.0,37665.0,42535.0,37741.0,39259.0,0,0,0,0,39300.0703125,-2885.0,-3436.0,-1864.0
4.12,1.0108226537704468,0.14504827558994293,0.5339730978012085,0.0,0.0,0.0,-2.9890520572662354,2.272336006164551,-0.8067872524261475,1.0,0.4000000059604645,0.5,0.0,0.0,0.0,0.0,0.0,0.0,0.0,0.0,0.0,38785.0,45837.0,35985.0,36089.0,0,0,0,0,39174.953125,-5250.0,-2145.0,-1882.0
4.14,1.0124218463897705,0.1523464471101761,0.5334561467170715,0.0,0.0,0.0,-2.7686209678649902,2.1152868270874023,-0.7893441915512085,1.0,0.44999998807907104,0.5,0.0,0.0,0.0,0.0,0.0,0.0,0.0,0.0,0.0,37562.0,43334.0,37072.0,38084.0,0,0,0,0,39013.53125,-2729.0,-2844.0,-1820.0
4.16,1.0143556594848633,0.16064344346523285,0.5333644151687622,0.0,0.0,0.0,-2.491823673248291,1.9454936981201172,-0.7820964455604553,1.0,0.44999998807907104,0.5,0.0,0.0,0.0,0.0,0.0,0.0,0.0,0.0,0.0,36030.0,41830.0,38110.0,38634.0,0,0,0,0,38651.62890625,-1210.0,-3828.0,-1957.0
4.18,1.0160330533981323,0.17246247828006744,0.5344026684761047,0.0,0.0,0.0,-2.2714388370513916,1.7958389520645142,-0.7580388784408569,1.0,0.44999998807907104,0.5,0.0,0.0,0.0,0.0,0.0,0.0,0.0,0.0,0.0,35359.0,42097.0,37823.0,38793.0,0,0,0,0,38518.515625,-2217.0,-3040.0,-2023.0
4.2,1.0174107551574707,0.18029329180717468,0.5346869230270386,0.0,0.0,0.0,-2.165334701538086,1.6526780128479004,-0.7441569566726685,1.0,0.44999998807907104,0.5,0.0,0.0,0.0,0.0,0.0,0.0,0.0,0.0,0.0,36939.0,42413.0,36121.0,38007.0,0,0,0,0,38370.3359375,-1131.0,-2610.0,-1967.0
4.22,1.0171351432800293,0.18826958537101746,0.5350795984268188,0.0,0.0,0.0,-2.1171140670776367,1.5766593217849731,-0.7498278617858887,1.0,0.44999998807907104,0.5,0.0,0.0,0.0,0.0,0.0,0.0,0.0,0.0,0.0,36111.0,44471.0,36691.0,35727.0,0,0,0,0,38250.3359375,-6608.0,-2978.0,-2009.0
4.24,1.0184673070907593,0.19498847424983978,0.5354461669921875,0.0,0.0,0.0,-1.9503631591796875,1.4490655660629272,-0.7497522234916687,1.0,0.5,0.5,0.0,0.0,0.0,0.0,0.0,0.0,0.0,0.0,0.0,36761.0,42075.0,35597.0,38127.0,0,0,0,0,38140.80859375,-1834.0,-2742.0,-1945.0
4.26,1.0196166038513184,0.20867343246936798,0.5359779000282288,0.0,0.0,0.0,-1.7329955101013184,1.345265507698059,-0.7341052293777466,1.0,0.5,0.5,0.0,0.0,0.0,0.0,0.0,0.0,0.0,0.0,0.0,35048.0,41960.0,37080.0,37440.0,0,0,0,0,37882.84765625,-1329.0,-2939.0,-1911.0
4.28,1.0186753273010254,0.2191992551088333,0.5376682877540588,0.0,0.0,0.0,-1.499017357826233,1.2147036790847778,-0.734093189239502,1.0,0.5,0.5,0.0,0.0,0.0,0.0,0.0,0.0,0.0,0.0,0.0,35486.0,42860.0,36384.0,36538.0,0,0,0,0,37817.203125,-3391.0,-2221.0,-2005.0
4.3,1.0200780630111694,0.22759708762168884,0.5384003520011902,0.0,0.0,0.0,-1.4333205223083496,1.086497187614441,-0.7262486815452576,1.0,0.5,0.5,0.0,0.0,0.0,0.0,0.0,0.0,0.0,0.0,0.0,35207.0,42073.0,36205.0,36167.0,0,0,0,0,37413.0546875,-2776.0,-3056.0,-1879.0
4.32,1.0209224224090576,0.23625785112380981,0.5411879420280457,0.0,0.0,0.0,-1.3885016441345215,0.9973023533821106,-0.7190529704093933,1.0,0.5,0.5,0.0,0.0,0.0,0.0,0.0,0.0,0.0,0.0,0.0,36859.0,43417.0,34653.0,34659.0,0,0,0,0,37397.2109375,-5136.0,-2261.0,-1921.0
