time,x_kalman,y_kalman,z_kalman,x_lh,y_lh,z_lh,roll,pitch,yaw,motor.m1,motor.m2,motor.m3,motor.m4,rpm.m1,rpm.m2,rpm.m3,rpm.m4,controller.cmd_thrust,controller.cmd_roll,controller.cmd_pitch,controller.cmd_yaw
0.0,-0.33094319701194763,-0.0029927422292530537,-0.002434826921671629,0.0,0.0,0.0,-1.5347031354904175,0.3080334961414337,-0.870989203453064,42453.0,63575.0,65535.0,42921.0,0,0,0,0,55813.97265625,-123.0,-20891.0,-660.0
0.02,-0.331010639667511,-0.0027810996398329735,-0.00258351257070899,0.0,0.0,0.0,-1.5453872680664062,0.307977557182312,-0.8660728335380554,49569.0,65535.0,62127.0,44837.0,0,0,0,0,56251.72265625,-6392.0,-16478.0,-627.0
0.04,-0.3311701714992523,-0.002764824777841568,-0.0027924312744289637,0.0,0.0,0.0,-1.4668421745300293,0.2879961133003235,-0.8183066844940186,34039.0,57101.0,65535.0,45309.0,0,0,0,0,56243.66796875,1512.0,-7854.0,-664.0
0.06,-0.33034762740135193,-0.003082921029999852,-0.0020718728192150593,0.0,0.0,0.0,-1.1070939302444458,-0.08734548836946487,-0.833652138710022,62418.0,56590.0,51066.0,55118.0,0,0,0,0,55881.8984375,-9632.0,4368.0,-504.0
0.08,-0.3301183879375458,-0.003349629230797291,-0.0014838747447356582,0.0,0.0,0.0,-0.9959840178489685,-0.9628307819366455,-0.7945203185081482,65535.0,53177.0,42243.0,57553.0,0,0,0,0,53795.65234375,-6277.0,4728.0,-663.0
0.1,-0.328041136264801,-0.004318913910537958,0.001451821648515761,0.0,0.0,0.0,-0.3285193145275116,-3.265719175338745,-0.8120718002319336,53228.0,56144.0,50296.0,49728.0,0,0,0,0,50799.8125,-473.0,1357.0,-872.0
0.12,-0.32601693272590637,-0.0039704181253910065,0.005595048423856497,0.0,0.0,0.0,0.2874503433704376,-5.9256815910339355,-0.8190760612487793,47640.0,47792.0,47704.0,54432.0,0,0,0,0,47677.703125,2905.0,-146.0,-2495.0
0.14,-0.3248847723007202,-0.004683336243033409,0.012219848111271858,0.0,0.0,0.0,0.5256768465042114,-7.6342926025390625,-0.9488867521286011,41959.0,48631.0,47413.0,46293.0,0,0,0,0,44540.109375,3186.0,-6653.0,-1234.0
0.16,-0.32498329877853394,-0.004514608532190323,0.021214473992586136,0.0,0.0,0.0,0.04988504573702812,-8.71863842010498,-1.0400511026382446,40540.0,46844.0,42968.0,42120.0,0,0,0,0,41841.296875,-1574.0,11.0,-1329.0
0.18,-0.3231513798236847,-0.005932450760155916,0.03202991932630539,0.0,0.0,0.0,-0.16090728342533112,-9.314591407775879,-1.1103618144989014,39472.0,42640.0,39042.0,41430.0,0,0,0,0,39646.12890625,-1244.0,-1337.0,-1382.0
0.2,-0.321008563041687,-0.00667280238121748,0.04511226713657379,0.0,0.0,0.0,-0.3049306869506836,-9.795442581176758,-1.1923619508743286,37569.0,41497.0,37191.0,38807.0,0,0,0,0,38277.08203125,-785.0,-1842.0,-1559.0
0.22,-0.3169962465763092,-0.007230002898722887,0.05849239602684975,0.0,0.0,0.0,-0.44531989097595215,-10.29952335357666,-1.2887214422225952,35019.0,40799.0,36367.0,37191.0,0,0,0,0,37012.37890625,-3250.0,-2722.0,-1648.0
0.24,-0.3128986358642578,-0.01104416511952877,0.07373597472906113,0.0,0.0,0.0,-0.1438329964876175,-10.582803726196289,-1.3509118556976318,34753.0,40993.0,35093.0,35701.0,0,0,0,0,36355.30078125,-3045.0,-1527.0,-1748.0
0.26,-0.3035794198513031,-0.008418404497206211,0.0884069949388504,0.0,0.0,0.0,-0.4538097083568573,-10.764164924621582,-1.5354392528533936,34302.0,38714.0,33998.0,36590.0,0,0,0,0,35739.0625,-1223.0,-1977.0,-1817.0
0.28,-0.2963368594646454,-0.010420641861855984,0.10570421069860458,0.0,0.0,0.0,-0.45862528681755066,-10.611038208007812,-1.6241925954818726,33714.0,39404.0,33908.0,35658.0,0,0,0,0,35691.11328125,-1292.0,-3657.0,-1912.0
0.3,-0.28913792967796326,-0.012398827821016312,0.12028062343597412,0.0,0.0,0.0,-0.5851110816001892,-10.310208320617676,-1.7096439599990845,33296.0,39410.0,34690.0,36016.0,0,0,0,0,35413.71875,-1385.0,-1326.0,-1946.0
0.32,-0.2798466086387634,-0.0139232836663723,0.1362701952457428,0.0,0.0,0.0,-0.7818397879600525,-9.881158828735352,-1.8003411293029785,32780.0,37880.0,34682.0,37210.0,0,0,0,0,35763.9609375,-1369.0,-3553.0,-1921.0
0.34,-0.26659733057022095,-0.011185250245034695,0.1457558274269104,0.0,0.0,0.0,-1.2271239757537842,-9.485261917114258,-1.936223030090332,33115.0,38513.0,36479.0,38881.0,0,0,0,0,37007.4921875,-173.0,-1710.0,-1979.0
0.36,-0.2552963197231293,-0.010833272710442543,0.1557609885931015,0.0,0.0,0.0,-1.5028135776519775,-8.769420623779297,-2.022585868835449,34371.0,41793.0,36515.0,37917.0,0,0,0,0,37905.3515625,-263.0,-2048.0,-1947.0
0.38,-0.24317578971385956,-0.012569638900458813,0.1672167330980301,0.0,0.0,0.0,-1.5974388122558594,-7.902374744415283,-2.071739912033081,36040.0,42924.0,36220.0,37328.0,0,0,0,0,38409.3046875,-1657.0,-2375.0,-1905.0
0.4,-0.2323702871799469,-0.013665014877915382,0.17655117809772491,0.0,0.0,0.0,-1.6020357608795166,-6.815711975097656,-2.0897228717803955,36334.0,43630.0,37360.0,37936.0,0,0,0,0,39032.35546875,-2946.0,-4202.0,-1936.0
0.42,-0.22085058689117432,-0.014503974467515945,0.18605829775333405,0.0,0.0,0.0,-1.5139505863189697,-5.662973403930664,-2.103235960006714,35306.0,44024.0,39370.0,37956.0,0,0,0,0,39345.01171875,-893.0,-3488.0,-1928.0
0.44,-0.20916593074798584,-0.015298324637115002,0.19504186511039734,0.0,0.0,0.0,-1.412736415863037,-4.4527387619018555,-2.1081652641296387,36646.0,44472.0,38488.0,38658.0,0,0,0,0,39627.21875,-1099.0,-4012.0,-2033.0
0.46,-0.19413237273693085,-0.01360948383808136,0.20404410362243652,0.0,0.0,0.0,-1.4763699769973755,-3.38604998588562,-2.129284620285034,36919.0,42913.0,38559.0,40765.0,0,0,0,0,39798.99609375,-506.0,-2303.0,-2035.0
0.48,-0.18171125650405884,-0.013951187953352928,0.21251468360424042,0.0,0.0,0.0,-1.409907579421997,-2.14848256111145,-2.1482386589050293,35499.0,45271.0,39407.0,39143.0,0,0,0,0,40088.37109375,-2467.0,-4917.0,-2054.0
0.5,-0.16825689375400543,-0.013715891167521477,0.21971170604228973,0.0,0.0,0.0,-1.3931149244308472,-1.0205830335617065,-2.2260491847991943,37735.0,44661.0,38515.0,39837.0,0,0,0,0,40189.13671875,-1733.0,-4333.0,-2010.0
0.52,-0.15522347390651703,-0.013582536019384861,0.2271626591682434,0.0,0.0,0.0,-1.2631713151931763,0.17682866752147675,-2.2631428241729736,36310.0,45194.0,40134.0,39366.0,0,0,0,0,40038.65234375,-1498.0,-3269.0,-2381.0
0.54,-0.14212580025196075,-0.01370895653963089,0.23502328991889954,0.0,0.0,0.0,-1.090288519859314,1.3066253662109375,-2.2926244735717773,36894.0,44594.0,40622.0,38134.0,0,0,0,0,39775.55859375,-1980.0,-3548.0,-2018.0
0.56,-0.1290551871061325,-0.01420542597770691,0.24327552318572998,0.0,0.0,0.0,-0.9437204599380493,2.4126932621002197,-2.283643960952759,35994.0,44150.0,39594.0,39330.0,0,0,0,0,39779.17578125,-1122.0,-4780.0,-2011.0
0.58,-0.11659640818834305,-0.014193172566592693,0.25050368905067444,0.0,0.0,0.0,-0.8145052194595337,3.483886241912842,-2.290048122406006,37419.0,43311.0,39537.0,38645.0,0,0,0,0,39409.3671875,204.0,-2861.0,-2056.0
0.6,-0.10449712723493576,-0.014598285779356956,0.2587765157222748,0.0,0.0,0.0,-0.6876479983329773,4.525423049926758,-2.2724666595458984,36053.0,44201.0,38837.0,38529.0,0,0,0,0,39388.96484375,-914.0,-5005.0,-1925.0
0.62,-0.09207136183977127,-0.01460010465234518,0.26743587851524353,0.0,0.0,0.0,-0.6273307204246521,5.394065856933594,-2.287947177886963,35701.0,43371.0,38099.0,38721.0,0,0,0,0,38713.82421875,-1989.0,-2355.0,-2388.0
0.64,-0.08100678771734238,-0.01507390197366476,0.27526789903640747,0.0,0.0,0.0,-0.5628986954689026,6.202787399291992,-2.3135483264923096,36485.0,43363.0,37345.0,37895.0,0,0,0,0,38763.7734375,-1562.0,-4750.0,-1826.0
0.66,-0.0698002427816391,-0.01499177049845457,0.28263482451438904,0.0,0.0,0.0,-0.47063666582107544,6.914745330810547,-2.300865650177002,35074.0,40346.0,37650.0,39478.0,0,0,0,0,38042.16796875,-256.0,-2363.0,-1854.0
0.68,-0.05845625698566437,-0.014680498279631138,0.2928015887737274,0.0,0.0,0.0,-0.4001379907131195,7.546859264373779,-2.216372013092041,35107.0,42847.0,37285.0,37009.0,0,0,0,0,38029.015625,-547.0,-3767.0,-1927.0
0.7,-0.04825926572084427,-0.014424980618059635,0.3004422187805176,0.0,0.0,0.0,-0.36510422825813293,8.09009075164795,-2.1644158363342285,34875.0,42507.0,37621.0,37349.0,0,0,0,0,37961.95703125,-1862.0,-4697.0,-4087.0
0.72,-0.03993696719408035,-0.01561330072581768,0.3068749010562897,0.0,0.0,0.0,-0.2614704966545105,8.602543830871582,-2.2402243614196777,35428.0,42468.0,37418.0,38086.0,0,0,0,0,38451.765625,-2953.0,-4822.0,-1984.0
0.74,-0.03069368191063404,-0.015515095554292202,0.3136773109436035,0.0,0.0,0.0,-0.2172059416770935,8.986889839172363,-2.245576858520508,35165.0,44333.0,37931.0,36899.0,0,0,0,0,38427.3359375,-1498.0,-1802.0,-1980.0
0.76,-0.02168894000351429,-0.01536979153752327,0.32118940353393555,0.0,0.0,0.0,-0.16033969819545746,9.26123046875,-2.2529854774475098,35275.0,43101.0,37811.0,37949.0,0,0,0,0,38741.8984375,-1723.0,-1901.0,-3947.0
0.78,-0.01560965646058321,-0.016179652884602547,0.3254256546497345,0.0,0.0,0.0,-0.07283797860145569,9.495012283325195,-2.329763650894165,36658.0,43290.0,37628.0,39136.0,0,0,0,0,39382.84375,-1892.0,-3773.0,-2360.0
0.8,-0.009403390809893608,-0.01648866944015026,0.3299003839492798,0.0,0.0,0.0,-0.04324068874120712,9.609646797180176,-2.34525203704834,37035.0,43705.0,38277.0,39615.0,0,0,0,0,39823.1171875,-1789.0,-3879.0,-3222.0
0.82,-0.0038349551614373922,-0.016699057072401047,0.3340213894844055,0.0,0.0,0.0,-0.027123259380459785,9.660820007324219,-2.3530845642089844,36779.0,43433.0,39205.0,40995.0,0,0,0,0,40194.1171875,-155.0,-3026.0,-2073.0
0.84,0.00233252439647913,-0.016670139506459236,0.33972206711769104,0.0,0.0,0.0,-0.025881292298436165,9.553277969360352,-2.359161376953125,36326.0,43446.0,39466.0,40718.0,0,0,0,0,40062.609375,-1726.0,-3740.0,-2567.0
0.86,0.007334206718951464,-0.017495961859822273,0.3436158299446106,0.0,0.0,0.0,-0.023294471204280853,9.358783721923828,-2.3822240829467773,37288.0,44538.0,39184.0,40238.0,0,0,0,0,40436.484375,572.0,-1779.0,-2682.0
0.88,0.010419774800539017,-0.01721477508544922,0.3466683030128479,0.0,0.0,0.0,-0.1001068651676178,9.172585487365723,-2.3323357105255127,36565.0,46081.0,40619.0,39959.0,0,0,0,0,40849.75390625,-1462.0,-4496.0,-2279.0
0.9,0.013501533307135105,-0.01643316075205803,0.34984153509140015,0.0,0.0,0.0,-0.19956155121326447,8.85185718536377,-2.315294027328491,38688.0,46286.0,38446.0,40084.0,0,0,0,0,40872.89453125,-1234.0,-3248.0,-2297.0
0.92,0.0166548453271389,-0.016269372776150703,0.3537057042121887,0.0,0.0,0.0,-0.22988593578338623,8.50676155090332,-2.347804307937622,37595.0,44295.0,39767.0,41731.0,0,0,0,0,41051.078125,-2015.0,-3669.0,-2207.0
0.94,0.018644530326128006,-0.01575622707605362,0.35655564069747925,0.0,0.0,0.0,-0.23933430016040802,8.074323654174805,-2.3169775009155273,38462.0,45346.0,39134.0,41122.0,0,0,0,0,41060.0,-2043.0,-2554.0,-2308.0
0.96,0.019186755642294884,-0.016706041991710663,0.3596104383468628,0.0,0.0,0.0,-0.21210898458957672,7.641971111297607,-2.342647075653076,37344.0,45778.0,40264.0,40582.0,0,0,0,0,41036.921875,-1101.0,-3016.0,-2247.0
0.98,0.020106162875890732,-0.01647738181054592,0.3627764880657196,0.0,0.0,0.0,-0.21815568208694458,7.098379611968994,-2.352255344390869,37390.0,44868.0,39930.0,41644.0,0,0,0,0,40884.53515625,-1904.0,-2134.0,-2327.0
1.0,0.020817847922444344,-0.016258247196674347,0.3664120137691498,0.0,0.0,0.0,-0.23506537079811096,6.557339191436768,-2.3718421459198,38622.0,45434.0,38456.0,40708.0,0,0,0,0,41213.3046875,-1132.0,-4294.0,-2286.0
1.02,0.02059623785316944,-0.016115758568048477,0.36821186542510986,0.0,0.0,0.0,-0.282718688249588,5.974745273590088,-2.393326997756958,37935.0,45069.0,40095.0,41965.0,0,0,0,0,40958.03125,-1863.0,-1242.0,-2423.0
1.04,0.020164046436548233,-0.016328271478414536,0.37219545245170593,0.0,0.0,0.0,-0.3121325969696045,5.345155715942383,-2.330900192260742,39073.0,44241.0,38355.0,42367.0,0,0,0,0,40826.1015625,-596.0,-2402.0,-4039.0
1.06,0.01870076172053814,-0.016615156084299088,0.3751877248287201,0.0,0.0,0.0,-0.3402944505214691,4.7435688972473145,-2.3742809295654297,37880.0,44662.0,39320.0,41594.0,0,0,0,0,40768.390625,-1083.0,-1776.0,-2270.0
1.08,0.017649471759796143,-0.0164127629250288,0.3787367641925812,0.0,0.0,0.0,-0.37827959656715393,4.066380500793457,-2.4047138690948486,38300.0,44374.0,38824.0,41766.0,0,0,0,0,40575.85546875,-1506.0,-2391.0,-4043.0
1.1,0.01684805005788803,-0.01649617962539196,0.38343843817710876,0.0,0.0,0.0,-0.3733058273792267,3.4057719707489014,-2.4570693969726562,37275.0,45083.0,39437.0,40409.0,0,0,0,0,40460.08984375,-143.0,-4249.0,-2117.0
1.12,0.014762986451387405,-0.016202321276068687,0.385994017124176,0.0,0.0,0.0,-0.3983662724494934,2.778207778930664,-2.458799123764038,37259.0,44811.0,39003.0,40367.0,0,0,0,0,40275.44140625,784.0,-3069.0,-2211.0
1.14,0.01294710487127304,-0.015945671126246452,0.38971981406211853,0.0,0.0,0.0,-0.4309154152870178,2.182664632797241,-2.4424126148223877,38460.0,43604.0,37852.0,41356.0,0,0,0,0,40130.9375,1033.0,823.0,-2208.0
1.16,0.011585667729377747,-0.016897862777113914,0.3936695456504822,0.0,0.0,0.0,-0.4276828467845917,1.6013203859329224,-2.3959381580352783,37447.0,44577.0,38235.0,40049.0,0,0,0,0,40118.41796875,-1501.0,-376.0,-3442.0
1.18,0.01061639841645956,-0.015493749640882015,0.3985651731491089,0.0,0.0,0.0,-0.5469443202018738,0.9703391790390015,-2.448042392730713,37611.0,42461.0,37619.0,41277.0,0,0,0,0,40045.60546875,-733.0,-1551.0,-3997.0
1.2,0.008522680029273033,-0.014481005258858204,0.4021258056163788,0.0,0.0,0.0,-0.6372202634811401,0.45554909110069275,-2.531327247619629,37131.0,43559.0,38369.0,40277.0,0,0,0,0,39477.09375,-1107.0,-3634.0,-2138.0
1.22,0.008175760507583618,-0.01571325771510601,0.4073830842971802,0.0,0.0,0.0,-0.6031867265701294,-0.17294329404830933,-2.4521844387054443,36249.0,44181.0,38515.0,39099.0,0,0,0,0,39480.87109375,-582.0,-1610.0,-2208.0
1.24,0.006583213806152344,-0.016228610649704933,0.4112168252468109,0.0,0.0,0.0,-0.5295641422271729,-0.5963327288627625,-2.365704298019409,37041.0,42657.0,37593.0,40565.0,0,0,0,0,39465.90234375,-532.0,-2794.0,-2115.0
1.26,0.004819711670279503,-0.015922339633107185,0.4150218367576599,0.0,0.0,0.0,-0.4937347173690796,-0.8856067657470703,-2.348787784576416,35744.0,42674.0,36962.0,41880.0,0,0,0,0,39315.859375,188.0,-746.0,-1330.0
1.28,0.004001476801931858,-0.013831102289259434,0.42053988575935364,0.0,0.0,0.0,-0.5937474370002747,-1.223721981048584,-2.3477869033813477,36934.0,42348.0,37832.0,40210.0,0,0,0,0,39135.80078125,-2114.0,-4189.0,-1391.0
1.3,0.0035016462206840515,-0.014647405594587326,0.42552894353866577,0.0,0.0,0.0,-0.5585775971412659,-1.4943870306015015,-2.2470202445983887,36643.0,41923.0,37777.0,40269.0,0,0,0,0,39026.10546875,-1986.0,-2883.0,-1414.0
1.32,0.002774684689939022,-0.015041042119264603,0.429899662733078,0.0,0.0,0.0,-0.4978867769241333,-1.6414762735366821,-2.1930575370788574,37319.0,43257.0,37739.0,39045.0,0,0,0,0,39091.28125,-216.0,-154.0,-1248.0
1.34,0.003724588779732585,-0.01329761277884245,0.4339200258255005,0.0,0.0,0.0,-0.5289677381515503,-1.8336310386657715,-2.1356022357940674,36348.0,40564.0,38238.0,41378.0,0,0,0,0,39132.17578125,-44.0,-2468.0,-1869.0
1.36,0.002952868351712823,-0.012766879983246326,0.4373050034046173,0.0,0.0,0.0,-0.5309897065162659,-1.923012137413025,-2.0855214595794678,37637.0,42239.0,37493.0,40131.0,0,0,0,0,39375.47265625,-69.0,-149.0,-2284.0
1.38,0.002882793080061674,-0.01105452235788107,0.4402714669704437,0.0,0.0,0.0,-0.6079519391059875,-1.9451195001602173,-2.052680492401123,37187.0,43183.0,38127.0,39327.0,0,0,0,0,39456.484375,-909.0,-2490.0,-1758.0
1.4,0.0024871083442121744,-0.010354309342801571,0.4432538151741028,0.0,0.0,0.0,-0.5723925828933716,-1.889905571937561,-1.996469497680664,37036.0,42956.0,38678.0,39662.0,0,0,0,0,39583.54296875,-639.0,-287.0,-2736.0
1.42,0.005088521633297205,-0.010769052430987358,0.44700387120246887,0.0,0.0,0.0,-0.42058271169662476,-1.9113777875900269,-1.9693773984909058,37642.0,41450.0,38070.0,41246.0,0,0,0,0,39602.1171875,-1849.0,-1639.0,-1769.0
1.44,0.006133072543889284,-0.011272438801825047,0.4504711925983429,0.0,0.0,0.0,-0.2913311719894409,-1.8437751531600952,-1.9024741649627686,36750.0,42700.0,38544.0,39834.0,0,0,0,0,39457.1796875,-357.0,-1716.0,-3024.0
1.46,0.007584798615425825,-0.010245716199278831,0.453431636095047,0.0,0.0,0.0,-0.23715029656887054,-1.7578392028808594,-1.8880910873413086,36738.0,43444.0,38966.0,39424.0,0,0,0,0,39643.48046875,-560.0,-3739.0,-1782.0
1.48,0.008156955242156982,-0.009632481262087822,0.45592179894447327,0.0,0.0,0.0,-0.2064485102891922,-1.5219316482543945,-1.8438630104064941,36498.0,43218.0,39276.0,39876.0,0,0,0,0,39717.75390625,-990.0,-3366.0,-2373.0
1.5,0.009551660157740116,-0.00906837172806263,0.45769816637039185,0.0,0.0,0.0,-0.18828508257865906,-1.2325319051742554,-1.8209450244903564,38022.0,43728.0,38298.0,40000.0,0,0,0,0,40012.41015625,820.0,-3336.0,-1724.0
1.52,0.01042354479432106,-0.008467601612210274,0.4598279297351837,0.0,0.0,0.0,-0.1697995662689209,-0.9379361271858215,-1.787157416343689,37263.0,44153.0,40285.0,38639.0,0,0,0,0,40085.8359375,-1858.0,-2235.0,-1768.0
1.54,0.01132996752858162,-0.007863147184252739,0.46186119318008423,0.0,0.0,0.0,-0.15852393209934235,-0.6413425207138062,-1.7435786724090576,37571.0,42983.0,38867.0,40663.0,0,0,0,0,40021.125,-873.0,-1321.0,-2407.0
1.56,0.01365143246948719,-0.007625292520970106,0.46481695771217346,0.0,0.0,0.0,-0.09312435239553452,-0.44502291083335876,-1.7333183288574219,38540.0,41476.0,38768.0,41200.0,0,0,0,0,39996.140625,-142.0,-2114.0,-1802.0
1.58,0.014895777218043804,-0.007046648766845465,0.4668447971343994,0.0,0.0,0.0,-0.0686020776629448,-0.2140112966299057,-1.6966463327407837,38064.0,43022.0,39062.0,40100.0,0,0,0,0,40062.46484375,-558.0,-5636.0,-1823.0
1.6,0.016077779233455658,-0.0064255171455442905,0.46859535574913025,0.0,0.0,0.0,-0.0356428436934948,0.03077174536883831,-1.6701618432998657,36294.0,43150.0,40624.0,40176.0,0,0,0,0,40061.7421875,-684.0,-1690.0,-1811.0
1.62,0.01723787561058998,-0.005857065320014954,0.47048428654670715,0.0,0.0,0.0,-0.004659202881157398,0.3197895586490631,-1.6474415063858032,38644.0,42434.0,38244.0,40902.0,0,0,0,0,40056.703125,-490.0,-2557.0,-1629.0
1.64,0.01879003271460533,-0.005132951308041811,0.47337549924850464,0.0,0.0,0.0,0.027587570250034332,0.566119372844696,-1.6176456212997437,37342.0,42666.0,38344.0,40216.0,0,0,0,0,39642.390625,-816.0,-3426.0,-2545.0
1.66,0.021418577060103416,-0.005564735271036625,0.47651436924934387,0.0,0.0,0.0,0.13005909323692322,0.7339959144592285,-1.62299382686615,37018.0,43082.0,38394.0,39430.0,0,0,0,0,39481.203125,-1633.0,-3011.0,-2517.0
1.68,0.02288743294775486,-0.005302831530570984,0.4785492420196533,0.0,0.0,0.0,0.18621046841144562,0.9604077935218811,-1.6354665756225586,36395.0,44211.0,38991.0,38535.0,0,0,0,0,39533.11328125,-718.0,-2667.0,-2197.0
1.7,0.02439310774207115,-0.00500496244058013,0.48094382882118225,0.0,0.0,0.0,0.20477567613124847,1.1622005701065063,-1.6294114589691162,36381.0,42443.0,39339.0,39833.0,0,0,0,0,39499.22265625,-1820.0,-2458.0,-1874.0
1.72,0.02541198395192623,-0.0048025986179709435,0.4826725423336029,0.0,0.0,0.0,0.20292899012565613,1.3711477518081665,-1.615274429321289,35863.0,43153.0,39795.0,39817.0,0,0,0,0,39657.625,-383.0,-2390.0,-1873.0
1.74,0.026458095759153366,-0.0044943587854504585,0.48480868339538574,0.0,0.0,0.0,0.20454059541225433,1.5875132083892822,-1.599153757095337,36546.0,42656.0,38972.0,40478.0,0,0,0,0,39663.41015625,-138.0,-356.0,-1968.0
1.76,0.027371054515242577,-0.004189967177808285,0.4868631660938263,0.0,0.0,0.0,0.19952894747257233,1.768606424331665,-1.5608453750610352,37374.0,44320.0,37972.0,38906.0,0,0,0,0,39643.3046875,-665.0,-2634.0,-2336.0
1.78,0.028507882729172707,-0.0036498107947409153,0.4886939823627472,0.0,0.0,0.0,0.1881348192691803,1.8229961395263672,-1.6023982763290405,37130.0,42302.0,38772.0,40876.0,0,0,0,0,39770.38671875,-2027.0,-3045.0,-1947.0
1.8,0.029259271919727325,-0.0032752114348113537,0.49028199911117554,0.0,0.0,0.0,0.20573939383029938,1.8870251178741455,-1.591145634651184,36519.0,42515.0,39379.0,41163.0,0,0,0,0,39894.07421875,-1289.0,-3609.0,-1990.0
1.82,0.029806867241859436,-0.00302327424287796,0.4917217791080475,0.0,0.0,0.0,0.2313709408044815,1.9497126340866089,-1.584932804107666,37467.0,43309.0,38481.0,40655.0,0,0,0,0,39978.49609375,-303.0,-3552.0,-1831.0
1.84,0.030263371765613556,-0.0027877837419509888,0.49272432923316956,0.0,0.0,0.0,0.2795211672782898,2.0215630531311035,-1.5808558464050293,38359.0,42383.0,37967.0,41623.0,0,0,0,0,40083.33984375,-876.0,-2435.0,-2366.0
1.86,0.03042623959481716,-0.0025355550460517406,0.4935767352581024,0.0,0.0,0.0,0.2731925845146179,2.0735554695129395,-1.5694881677627563,37472.0,44472.0,39060.0,40000.0,0,0,0,0,40251.34765625,175.0,-2856.0,-1979.0
1.88,0.030660653486847878,-0.0023260368034243584,0.4949421286582947,0.0,0.0,0.0,0.27352315187454224,2.075584650039673,-1.5670807361602783,38252.0,43408.0,38244.0,41100.0,0,0,0,0,40251.921875,-710.0,-2990.0,-1970.0
1.9,0.03046906739473343,-0.002048472873866558,0.4958755671977997,0.0,0.0,0.0,0.2478850781917572,2.0482962131500244,-1.5340582132339478,37922.0,43884.0,38898.0,40908.0,0,0,0,0,40403.0390625,-668.0,-2683.0,-1949.0
1.92,0.030346108600497246,-0.0017789070261642337,0.4968957006931305,0.0,0.0,0.0,0.21561498939990997,1.972831130027771,-1.5338877439498901,37391.0,44719.0,39419.0,40203.0,0,0,0,0,40433.16796875,-961.0,-3044.0,-2009.0
1.94,0.03005279041826725,-0.0015339729143306613,0.4979890286922455,0.0,0.0,0.0,0.2265239655971527,1.8915513753890991,-1.5359389781951904,39234.0,44844.0,37680.0,39634.0,0,0,0,0,40348.4921875,-1635.0,-1642.0,-2026.0
1.96,0.02961757779121399,-0.0015302285319194198,0.4992466866970062,0.0,0.0,0.0,0.25832119584083557,1.805407166481018,-1.4682867527008057,38346.0,44370.0,37732.0,40876.0,0,0,0,0,40331.70703125,-1030.0,-2156.0,-2059.0
1.98,0.029122015461325645,-0.0013063199585303664,0.5003166198730469,0.0,0.0,0.0,0.3013395369052887,1.6850550174713135,-1.4854686260223389,36158.0,43340.0,40342.0,41408.0,0,0,0,0,40312.1328125,-653.0,-1168.0,-2000.0
2.0,0.028323177248239517,-0.001349525060504675,0.501318633556366,0.0,0.0,0.0,0.29891976714134216,1.574995756149292,-1.455318808555603,37306.0,45090.0,39060.0,39596.0,0,0,0,0,40263.5078125,779.0,-2667.0,-2029.0
2.02,0.027999356389045715,-0.001468708855099976,0.5019139051437378,0.0,0.0,0.0,0.28085020184516907,1.522900938987732,-1.4508100748062134,38119.0,43121.0,38643.0,41653.0,0,0,0,0,40384.078125,-1228.0,-1910.0,-2008.0
2.04,0.027530469000339508,-0.0009547881782054901,0.5024622678756714,0.0,0.0,0.0,0.21317635476589203,1.4009850025177002,-1.486081600189209,36825.0,43557.0,40071.0,41143.0,0,0,0,0,40399.75,534.0,-575.0,-1970.0
2.06,0.02682972140610218,-0.0006750976899638772,0.5033239722251892,0.0,0.0,0.0,0.1627957820892334,1.2323672771453857,-1.5407466888427734,37685.0,44521.0,39161.0,39937.0,0,0,0,0,40326.9375,-1081.0,-1385.0,-2009.0
2.08,0.025991633534431458,-0.0006236110930331051,0.5045986175537109,0.0,0.0,0.0,0.09919296205043793,1.0292631387710571,-1.5265355110168457,37886.0,43496.0,39166.0,40752.0,0,0,0,0,40325.4453125,-803.0,-691.0,-1970.0
2.1,0.025057168677449226,-0.0004732018569484353,0.505445659160614,0.0,0.0,0.0,0.08798530697822571,0.8589591383934021,-1.5453306436538696,36705.0,44453.0,40283.0,39891.0,0,0,0,0,40333.30078125,-408.0,-2312.0,-1989.0
2.12,0.024181466549634933,-0.0003882596211042255,0.506443977355957,0.0,0.0,0.0,0.09501100331544876,0.6945523619651794,-1.5551077127456665,39037.0,43489.0,37709.0,40781.0,0,0,0,0,40254.8984375,-579.0,-659.0,-1992.0
2.14,0.023034103214740753,-0.00024133150873240083,0.5074595808982849,0.0,0.0,0.0,0.07959653437137604,0.5719852447509766,-1.5400623083114624,37684.0,43294.0,39546.0,40508.0,0,0,0,0,40258.1484375,-1252.0,-2513.0,-1939.0
2.161,0.022036507725715637,-9.92881105048582e-05,0.5083359479904175,0.0,0.0,0.0,0.05129966512322426,0.4247276186943054,-1.550991177558899,38454.0,44954.0,38744.0,39172.0,0,0,0,0,40331.875,-221.0,-2945.0,-1982.0
2.18,0.02066229097545147,0.00024142047914210707,0.5088819265365601,0.0,0.0,0.0,0.024526724591851234,0.300457626581192,-1.5226097106933594,38720.0,43438.0,38292.0,40846.0,0,0,0,0,40324.94921875,1034.0,-2701.0,-1995.0
2.2,0.019524963572621346,0.0003936652501579374,0.5098079442977905,0.0,0.0,0.0,0.02704473026096821,0.1871289163827896,-1.5173746347427368,37000.0,44306.0,40028.0,40074.0,0,0,0,0,40352.42578125,265.0,-3400.0,-2038.0
2.22,0.018213625997304916,0.000604191969614476,0.5106258988380432,0.0,0.0,0.0,0.029451049864292145,0.06838000565767288,-1.5043336153030396,38505.0,43867.0,37905.0,40399.0,0,0,0,0,40169.953125,-3124.0,-2949.0,-2091.0
2.24,0.018303178250789642,-0.0002807415439747274,0.5126245617866516,0.0,0.0,0.0,0.06674773246049881,-0.0649259015917778,-1.496950626373291,38036.0,44866.0,38434.0,39696.0,0,0,0,0,40258.21875,-904.0,-1899.0,-1988.0
2.26,0.016979144886136055,-0.0002345755638089031,0.5131475329399109,0.0,0.0,0.0,0.10434462130069733,-0.14031462371349335,-1.4951269626617432,37263.0,44155.0,39351.0,39659.0,0,0,0,0,40107.33203125,-373.0,-959.0,-1959.0
2.28,0.015950392931699753,-0.0006152416463010013,0.5147247314453125,0.0,0.0,0.0,0.14970311522483826,-0.20442143082618713,-1.473275899887085,36676.0,44722.0,39808.0,38930.0,0,0,0,0,40034.51171875,-2080.0,-2633.0,-1956.0
2.3,0.014576679095625877,-0.0009126075892709196,0.5156041383743286,0.0,0.0,0.0,0.15275266766548157,-0.25688397884368896,-1.4695872068405151,36814.0,43940.0,39958.0,39692.0,0,0,0,0,40101.421875,-215.0,-2690.0,-1991.0
2.32,0.013338633812963963,-0.0011592538794502616,0.5167357325553894,0.0,0.0,0.0,0.12309698760509491,-0.3033525049686432,-1.4494949579238892,37483.0,42937.0,39139.0,40869.0,0,0,0,0,40107.69921875,-1415.0,-1887.0,-2022.0
2.34,0.011364230886101723,-0.001719100633636117,0.5168103575706482,0.0,0.0,0.0,0.10079149901866913,-0.3051612377166748,-1.438008189201355,37572.0,43848.0,39496.0,40460.0,0,0,0,0,40344.26171875,-469.0,-1339.0,-1991.0
2.36,0.010113928467035294,-0.002013062359765172,0.5176982283592224,0.0,0.0,0.0,0.05407333001494408,-0.38565897941589355,-1.4309810400009155,38269.0,44539.0,38895.0,39733.0,0,0,0,0,40359.28125,-1367.0,-3899.0,-1997.0
2.38,0.008709394372999668,-0.002376579213887453,0.5183884501457214,0.0,0.0,0.0,-0.0048086075112223625,-0.5081331729888916,-1.4203053712844849,37770.0,44072.0,39238.0,40556.0,0,0,0,0,40409.11328125,-1703.0,-1600.0,-2018.0
2.4,0.00741838663816452,-0.002735993592068553,0.5191137194633484,0.0,0.0,0.0,-0.053362004458904266,-0.5968871712684631,-1.4242258071899414,37765.0,44311.0,39271.0,40217.0,0,0,0,0,40391.6484375,-904.0,-1187.0,-3069.0
2.42,0.011425327509641647,6.776720692869276e-05,0.5222017168998718,0.0,0.0,0.0,-0.2050248235464096,-0.835882306098938,-1.4423850774765015,37149.0,42661.0,39187.0,41687.0,0,0,0,0,40171.8984375,-1275.0,-3608.0,-1562.0
2.44,0.011330418288707733,0.0005637979484163225,0.523003101348877,0.0,0.0,0.0,-0.22415262460708618,-0.9186574220657349,-1.434011697769165,37148.0,43006.0,39322.0,40792.0,0,0,0,0,40067.69140625,-1465.0,-2660.0,-2054.0
2.46,0.011240541003644466,0.000719442788977176,0.5241302847862244,0.0,0.0,0.0,-0.24177637696266174,-0.9725010395050049,-1.4171319007873535,36506.0,43770.0,39224.0,39848.0,0,0,0,0,39837.171875,-666.0,-1985.0,-1252.0
2.48,0.011386234313249588,0.0008041947730816901,0.5257347822189331,0.0,0.0,0.0,-0.23940710723400116,-0.9614832997322083,-1.381605863571167,35458.0,45252.0,39872.0,38602.0,0,0,0,0,39796.1328125,-1123.0,-942.0,-2392.0
2.5,0.01134456042200327,0.0008596121333539486,0.5267857909202576,0.0,0.0,0.0,-0.2162659764289856,-0.8663442134857178,-1.400707721710205,37101.0,44491.0,38337.0,39599.0,0,0,0,0,39882.2578125,-1232.0,-3242.0,-1942.0
2.52,0.011428508907556534,0.001063346047885716,0.5279327630996704,0.0,0.0,0.0,-0.17881031334400177,-0.7569642066955566,-1.3917580842971802,36187.0,44407.0,39203.0,39619.0,0,0,0,0,39854.2109375,-822.0,-1049.0,-2176.0
2.54,0.01137140765786171,0.0012132787378504872,0.528836190700531,0.0,0.0,0.0,-0.13244421780109406,-0.656204342842102,-1.395180344581604,37301.0,44691.0,38089.0,39507.0,0,0,0,0,39897.91796875,-296.0,-1836.0,-2565.0
2.56,0.011629503220319748,0.0013626741711050272,0.5297988653182983,0.0,0.0,0.0,-0.09468887001276016,-0.5631703734397888,-1.4196162223815918,36791.0,44151.0,38985.0,39549.0,0,0,0,0,39869.2109375,567.0,-3236.0,-2368.0
2.58,0.01180123258382082,0.001491013215854764,0.5305195450782776,0.0,0.0,0.0,-0.02991698682308197,-0.4825381636619568,-1.4312593936920166,36401.0,44413.0,39713.0,39421.0,0,0,0,0,39987.17578125,-1779.0,-371.0,-2158.0
2.6,0.011755074374377728,0.0016947088297456503,0.5308730602264404,0.0,0.0,0.0,0.023029236122965813,-0.35596683621406555,-1.417749285697937,37659.0,44613.0,38357.0,39923.0,0,0,0,0,40138.84375,88.0,-2681.0,-2122.0
2.62,0.0119602270424366,0.0018195825396105647,0.5312555432319641,0.0,0.0,0.0,0.07370956242084503,-0.20685581862926483,-1.410025715827942,37914.0,42984.0,38662.0,41424.0,0,0,0,0,40246.69921875,-2090.0,-3083.0,-2090.0
2.64,0.012113252654671669,0.0019153095781803131,0.5316237807273865,0.0,0.0,0.0,0.09236136823892593,-0.09992533922195435,-1.4004039764404297,36914.0,44380.0,39626.0,40464.0,0,0,0,0,40346.9921875,-552.0,-3582.0,-2108.0
2.66,0.01224449835717678,0.002028401242569089,0.5319525003433228,0.0,0.0,0.0,0.08639395236968994,-0.007249346002936363,-1.3915611505508423,37738.0,42928.0,38954.0,41832.0,0,0,0,0,40363.91015625,-1114.0,-2235.0,-2119.0
2.68,0.012398038059473038,0.002164140809327364,0.5323745012283325,0.0,0.0,0.0,0.07847024500370026,0.09340332448482513,-1.3855618238449097,37826.0,43206.0,38654.0,41398.0,0,0,0,0,40271.17578125,-378.0,-1249.0,-2182.0
2.7,0.012202102690935135,0.002315195044502616,0.533158540725708,0.0,0.0,0.0,0.08175215125083923,0.19048307836055756,-1.380645513534546,37253.0,44087.0,38825.0,40427.0,0,0,0,0,40148.98046875,-1995.0,-4542.0,-2137.0
2.72,0.012259701266884804,0.0024483604356646538,0.5339768528938293,0.0,0.0,0.0,0.08830520510673523,0.2424052655696869,-1.3733004331588745,37628.0,45372.0,38316.0,39248.0,0,0,0,0,40141.28125,-1870.0,-534.0,-2239.0
2.74,0.012351708486676216,0.0025648337323218584,0.5345878601074219,0.0,0.0,0.0,0.09863699227571487,0.2616775631904602,-1.3685193061828613,36455.0,43819.0,39241.0,40841.0,0,0,0,0,40089.0625,-463.0,-3142.0,-2225.0
2.76,0.012530159205198288,0.002756651258096099,0.5350083112716675,0.0,0.0,0.0,0.12513630092144012,0.29322388768196106,-1.3759833574295044,37671.0,43521.0,38375.0,40861.0,0,0,0,0,40107.80078125,-1496.0,-2833.0,-2146.0
2.78,0.012392858974635601,0.0029955788049846888,0.5349119901657104,0.0,0.0,0.0,0.11024075746536255,0.33488547801971436,-1.3694515228271484,37911.0,44377.0,38249.0,40443.0,0,0,0,0,40245.1015625,-164.0,-2347.0,-2310.0
2.8,0.01242151577025652,0.003121421206742525,0.5353630185127258,0.0,0.0,0.0,0.13586200773715973,0.3604698181152344,-1.3697887659072876,37834.0,42300.0,38000.0,42246.0,0,0,0,0,40095.96484375,-2316.0,-2987.0,-2119.0
2.82,0.012480689212679863,0.0031536463648080826,0.5366978049278259,0.0,0.0,0.0,0.15153969824314117,0.4121767580509186,-1.3565096855163574,37310.0,44328.0,38272.0,40038.0,0,0,0,0,39987.19921875,-480.0,-2075.0,-2207.0
2.84,0.012496921233832836,0.0032655387185513973,0.5371621251106262,0.0,0.0,0.0,0.15890690684318542,0.43215134739875793,-1.3496276140213013,36663.0,43635.0,38785.0,40609.0,0,0,0,0,39923.21484375,333.0,-5038.0,-2320.0
2.86,0.012501235119998455,0.0033644530922174454,0.5380111336708069,0.0,0.0,0.0,0.1491975635290146,0.4280698895454407,-1.3379007577896118,36340.0,44444.0,38870.0,39966.0,0,0,0,0,39905.55078125,365.0,-2793.0,-2215.0
2.88,0.012405304238200188,0.003327068639919162,0.538834810256958,0.0,0.0,0.0,0.12328208982944489,0.4242519736289978,-1.3530977964401245,36464.0,44524.0,39040.0,39656.0,0,0,0,0,39921.125,-1560.0,-1880.0,-2234.0
2.9,0.012266133911907673,0.0033997290302067995,0.5394349098205566,0.0,0.0,0.0,0.12417103350162506,0.40183499455451965,-1.3549479246139526,36304.0,43182.0,39704.0,41262.0,0,0,0,0,40113.69140625,360.0,-3271.0,-2069.0
2.92,0.012110154144465923,0.0036565063055604696,0.5392541885375977,0.0,0.0,0.0,0.12195099145174026,0.38318371772766113,-1.344726324081421,38477.0,42845.0,37387.0,41615.0,0,0,0,0,40081.55859375,-1027.0,-2024.0,-2230.0
2.94,0.011957935988903046,0.0035803799983114004,0.540122389793396,0.0,0.0,0.0,0.09901002794504166,0.3674478232860565,-1.2992632389068604,36291.0,44989.0,39337.0,39423.0,0,0,0,0,40010.5625,797.0,-1891.0,-2066.0
2.96,0.011841315776109695,0.0038229094352573156,0.5404531359672546,0.0,0.0,0.0,0.10714026540517807,0.3072652220726013,-1.295297622680664,37411.0,43035.0,38505.0,41529.0,0,0,0,0,40120.21875,-1662.0,-2980.0,-2191.0
2.98,0.011737718246877193,0.003992301877588034,0.5406998991966248,0.0,0.0,0.0,0.12859871983528137,0.3147454261779785,-1.2901731729507446,37283.0,43091.0,38761.0,41569.0,0,0,0,0,40176.15625,533.0,-1784.0,-2005.0
3.0,0.011520732194185257,0.004108634311705828,0.5408601760864258,0.0,0.0,0.0,0.1422225385904312,0.3204170763492584,-1.2675756216049194,23669.0,57885.0,52459.0,26955.0,0,0,0,0,40242.12890625,-2320.0,-27191.0,-2234.0
3.02,0.011250513605773449,0.004202587530016899,0.5411704778671265,0.0,0.0,0.0,0.12421931326389313,0.2847880721092224,-1.259587287902832,30867.0,50083.0,44749.0,34805.0,0,0,0,0,40126.51171875,1315.0,-4026.0,-2360.0
3.04,0.01114198099821806,0.004006415139883757,0.5420401692390442,0.0,0.0,0.0,0.13392534852027893,0.15504665672779083,-1.2521312236785889,39537.0,40157.0,36013.0,44425.0,0,0,0,0,40033.27734375,-829.0,7345.0,-2164.0
3.06,0.010898309759795666,0.00404585525393486,0.5424227118492126,0.0,0.0,0.0,0.006150513421744108,-1.2295416593551636,-1.2717716693878174,41173.0,40351.0,33947.0,43909.0,0,0,0,0,39845.66796875,-3531.0,2569.0,-2321.0
3.08,0.010694927535951138,0.004079796839505434,0.5430088639259338,0.0,0.0,0.0,-0.08678249269723892,-4.020202159881592,-1.2674802541732788,39014.0,43978.0,35294.0,39934.0,0,0,0,0,39555.21875,-2718.0,-1232.0,-2418.0
3.1,0.010900608263909817,0.003800678765401244,0.5443524122238159,0.0,0.0,0.0,-0.006357945501804352,-6.9322896003723145,-1.3010765314102173,36850.0,44704.0,37362.0,38912.0,0,0,0,0,39457.4609375,387.0,-3052.0,-2340.0
3.12,0.011398100294172764,0.003562341444194317,0.5452470183372498,0.0,0.0,0.0,0.14698351919651031,-9.204092025756836,-1.3044099807739258,34920.0,42602.0,38698.0,40556.0,0,0,0,0,39194.7890625,496.0,-2051.0,-2389.0
3.14,0.013431056402623653,0.003695904044434428,0.5472632646560669,0.0,0.0,0.0,0.14554284512996674,-10.905014038085938,-1.320916771888733,35294.0,42598.0,38622.0,40586.0,0,0,0,0,39275.55859375,-170.0,-1235.0,-2283.0
3.16,0.015336082316935062,0.003640503855422139,0.5481100678443909,0.0,0.0,0.0,-0.020124133676290512,-12.246490478515625,-1.3305341005325317,36246.0,43018.0,38036.0,40340.0,0,0,0,0,39410.66796875,-270.0,-2279.0,-2234.0
3.18,0.01867710053920746,0.0038105479907244444,0.5500496625900269,0.0,0.0,0.0,-0.1971861720085144,-13.394120216369629,-1.3311488628387451,36273.0,43941.0,37857.0,39257.0,0,0,0,0,39332.96875,-1515.0,-1138.0,-2251.0
3.2,0.02227242849767208,0.0037498013116419315,0.5507327318191528,0.0,0.0,0.0,-0.29652005434036255,-14.417065620422363,-1.3215343952178955,37712.0,43918.0,37054.0,40160.0,0,0,0,0,39711.78515625,-640.0,-1591.0,-2295.0
3.22,0.029111739248037338,0.0043877409771084785,0.5526993870735168,0.0,0.0,0.0,-0.3356107175350189,-15.450708389282227,-1.3125088214874268,39242.0,40274.0,35174.0,43522.0,0,0,0,0,39553.73046875,-1475.0,-1080.0,-2342.0
3.24,0.03481883555650711,0.004311441909521818,0.5530830025672913,0.0,0.0,0.0,-0.33256226778030396,-16.233068466186523,-1.3135552406311035,35666.0,45064.0,39434.0,39288.0,0,0,0,0,39863.28515625,-799.0,-2656.0,-2410.0
3.26,0.04257911071181297,0.0046900492161512375,0.554713785648346,0.0,0.0,0.0,-0.33696067333221436,-16.756948471069336,-1.3195128440856934,36728.0,43996.0,38298.0,41070.0,0,0,0,0,40023.05078125,505.0,-274.0,-2996.0
3.28,0.05284075811505318,0.004916211124509573,0.5514771342277527,0.0,0.0,0.0,-0.296343058347702,-16.9316463470459,-1.3549810647964478,38863.0,44719.0,38425.0,42385.0,0,0,0,0,41098.375,-77.0,-2098.0,-2311.0
3.3,0.06226881965994835,0.004848996642976999,0.5508586168289185,0.0,0.0,0.0,-0.25970685482025146,-16.695287704467773,-1.3608719110488892,37884.0,44980.0,39788.0,41516.0,0,0,0,0,41042.14453125,-1380.0,-3637.0,-2364.0
3.32,0.07234681397676468,0.0056824288330972195,0.5513843297958374,0.0,0.0,0.0,-0.2879897952079773,-16.127351760864258,-1.3743332624435425,36658.0,45244.0,41372.0,41754.0,0,0,0,0,41257.125,-2269.0,-3070.0,-2398.0
3.34,0.08354677259922028,0.006126545835286379,0.5503449440002441,0.0,0.0,0.0,-0.24883835017681122,-15.287357330322266,-1.3788584470748901,37910.0,46630.0,39874.0,40870.0,0,0,0,0,41321.0625,-275.0,-4330.0,-2745.0
3.36,0.09563840925693512,0.005818595178425312,0.5470818877220154,0.0,0.0,0.0,-0.19917649030685425,-14.197053909301758,-1.4004459381103516,39062.0,46692.0,39860.0,42034.0,0,0,0,0,41912.1875,-204.0,-4970.0,-2418.0
3.38,0.1090705618262291,0.005362261552363634,0.5442004799842834,0.0,0.0,0.0,-0.11039306223392487,-13.087114334106445,-1.3968311548233032,38887.0,46725.0,40541.0,42583.0,0,0,0,0,42184.33203125,114.0,-3707.0,-2531.0
3.4,0.12269983440637589,0.005605387035757303,0.5428041815757751,0.0,0.0,0.0,-0.03123156540095806,-11.84780216217041,-1.3956400156021118,39229.0,48457.0,40425.0,40793.0,0,0,0,0,42226.61328125,131.0,-3547.0,-2407.0
3.42,0.1379724144935608,0.0056129987351596355,0.5416125059127808,0.0,0.0,0.0,0.013729402795433998,-10.553938865661621,-1.3908432722091675,38864.0,45470.0,40348.0,43538.0,0,0,0,0,42055.09765625,104.0,-5262.0,-2382.0
3.44,0.1540847271680832,0.005581879522651434,0.5408726930618286,0.0,0.0,0.0,0.06502097845077515,-9.117857933044434,-1.382389783859253,37233.0,47319.0,40691.0,40069.0,0,0,0,0,41328.5859375,699.0,-4652.0,-2361.0
3.46,0.1691971868276596,0.006679178215563297,0.5415834784507751,0.0,0.0,0.0,0.02344013750553131,-7.535053253173828,-1.3915650844573975,37066.0,45742.0,39424.0,40480.0,0,0,0,0,40678.19921875,-1131.0,-4558.0,-2823.0
3.48,0.18419480323791504,0.006148774642497301,0.5394431948661804,0.0,0.0,0.0,0.059167977422475815,-5.931685924530029,-1.381276249885559,37766.0,45114.0,39774.0,42230.0,0,0,0,0,41221.09765625,-362.0,-4781.0,-2448.0
3.5,0.20136748254299164,0.005623980425298214,0.5381626486778259,0.0,0.0,0.0,0.10549739003181458,-4.397526264190674,-1.3845850229263306,36926.0,45270.0,39986.0,41206.0,0,0,0,0,40847.984375,-520.0,-6146.0,-2313.0
3.52,0.21759752929210663,0.005944474134594202,0.5384516716003418,0.0,0.0,0.0,0.11112403124570847,-2.82877779006958,-1.3777083158493042,37054.0,46960.0,40706.0,40516.0,0,0,0,0,41309.8203125,20.0,-4648.0,-2331.0
3.54,0.23445451259613037,0.005696192383766174,0.5365946888923645,0.0,0.0,0.0,0.12292198836803436,-1.364617943763733,-1.3290483951568604,36473.0,47441.0,40039.0,38491.0,0,0,0,0,40611.5234375,621.0,-3435.0,-2304.0
3.56,0.2511226534843445,0.006139025557786226,0.5384714603424072,0.0,0.0,0.0,0.12661096453666687,0.11784297972917557,-1.2767244577407837,35324.0,45390.0,39852.0,38954.0,0,0,0,0,39880.8046875,144.0,-4932.0,-2332.0
3.58,0.2676551938056946,0.005822724662721157,0.5398930311203003,0.0,0.0,0.0,0.1617589145898819,1.4908970594406128,-1.2383432388305664,36531.0,44997.0,38373.0,39351.0,0,0,0,0,39813.953125,-1093.0,-5819.0,-2411.0
3.6,0.28493547439575195,0.005677290726453066,0.5407993197441101,0.0,0.0,0.0,0.18470418453216553,2.7577669620513916,-1.2281866073608398,35327.0,42729.0,39267.0,41169.0,0,0,0,0,39623.6484375,-286.0,-4762.0,-2307.0
3.62,0.3019866943359375,0.004884043242782354,0.5422164797782898,0.0,0.0,0.0,0.2236606776714325,3.93522047996521,-1.2401819229125977,34369.0,44707.0,38849.0,37567.0,0,0,0,0,38873.9765625,938.0,-3401.0,-2295.0
3.64,0.31697630882263184,0.005087255500257015,0.5442978143692017,0.0,0.0,0.0,0.15928338468074799,5.110357761383057,-1.2486902475357056,34869.0,44187.0,38541.0,38267.0,0,0,0,0,38966.30859375,-1577.0,-5883.0,-2237.0
3.66,0.333448201417923,0.004835882689803839,0.5463479161262512,0.0,0.0,0.0,0.1559811234474182,6.1272358894348145,-1.2231870889663696,34565.0,42861.0,38391.0,39163.0,0,0,0,0,38745.8359375,-1034.0,-5637.0,-2236.0
3.68,0.349012166261673,0.003918724600225687,0.5471866130828857,0.0,0.0,0.0,0.19528687000274658,7.086892127990723,-1.1894983053207397,35253.0,43123.0,38097.0,39379.0,0,0,0,0,38963.08203125,19.0,-5772.0,-2229.0
3.7,0.36425307393074036,0.0036413699854165316,0.5483971834182739,0.0,0.0,0.0,0.18047958612442017,7.927779674530029,-1.1644569635391235,33870.0,42576.0,37920.0,38390.0,0,0,0,0,38189.8515625,-516.0,-5347.0,-2286.0
3.72,0.3766630291938782,0.003910907078534365,0.551559567451477,0.0,0.0,0.0,0.0972466990351677,8.7281494140625,-1.053940773010254,34765.0,43801.0,37859.0,38099.0,0,0,0,0,38631.859375,-2382.0,-6188.0,-2279.0
3.74,0.39059504866600037,0.0036763078533113003,0.5528512597084045,0.0,0.0,0.0,0.06894096732139587,9.304081916809082,-1.0450230836868286,34870.0,43622.0,37994.0,37510.0,0,0,0,0,38499.47265625,-2539.0,-3225.0,-2106.0
3.76,0.4040910303592682,0.0022928675170987844,0.5540890097618103,0.0,0.0,0.0,0.1693699061870575,9.82547378540039,-1.051921010017395,35709.0,42011.0,38039.0,40257.0,0,0,0,0,39004.09375,-978.0,-3725.0,-2142.0
3.78,0.4167192280292511,0.0013276857789605856,0.5542359352111816,0.0,0.0,0.0,0.23182162642478943,10.24693775177002,-1.062391996383667,35203.0,44469.0,38889.0,37807.0,0,0,0,0,39092.1796875,231.0,-3867.0,-2168.0
3.8,0.42561545968055725,0.002472120337188244,0.5545499324798584,0.0,0.0,0.0,0.14269976317882538,10.645796775817871,-1.0329805612564087,36305.0,44903.0,38651.0,38553.0,0,0,0,0,39603.13671875,422.0,-3157.0,-2075.0
3.82,0.4365641474723816,0.0021897819824516773,0.5549059510231018,0.0,0.0,0.0,0.10182344913482666,10.865272521972656,-0.9955466389656067,36611.0,43059.0,38985.0,40809.0,0,0,0,0,39866.56640625,-1817.0,-2978.0,-2051.0
3.84,0.4474964141845703,0.0016758317360654473,0.5571107268333435,0.0,0.0,0.0,0.08316059410572052,10.933731079101562,-0.9564837217330933,36199.0,44337.0,38719.0,38985.0,0,0,0,0,39560.2890625,-1319.0,-3556.0,-2111.0
3.86,0.45991021394729614,0.0009950995445251465,0.5552690625190735,0.0,0.0,0.0,0.059879690408706665,10.7778959274292,-0.9661644697189331,36990.0,46262.0,39566.0,38654.0,0,0,0,0,40368.5546875,-1195.0,-2048.0,-2119.0
3.88,0.4696189761161804,-0.0004755271365866065,0.5547580718994141,0.0,0.0,0.0,0.10900074243545532,10.64069938659668,-0.9481039643287659,36326.0,44760.0,40896.0,40842.0,0,0,0,0,40706.5078125,-1145.0,-4279.0,-2145.0
3.9,0.47356098890304565,0.0008755356539040804,0.5522765517234802,0.0,0.0,0.0,0.013643735088407993,10.68084716796875,-0.9251647591590881,36809.0,46525.0,41285.0,39485.0,0,0,0,0,41026.296875,-1021.0,-4371.0,-2088.0
3.92,0.47958168387413025,0.0019125110702589154,0.5520642995834351,0.0,0.0,0.0,-0.08443859964609146,10.52389144897461,-0.8469237685203552,38242.0,44522.0,39432.0,41556.0,0,0,0,0,40938.9375,-216.0,106.0,-2104.0
3.94,0.4857553243637085,0.0017435097834095359,0.5515009760856628,0.0,0.0,0.0,-0.08537954837083817,10.26634693145752,-0.824429988861084,37799.0,45641.0,39979.0,40057.0,0,0,0,0,40869.15625,-1262.0,-1654.0,-2178.0
3.96,0.48903390765190125,0.00045938161201775074,0.549387514591217,0.0,0.0,0.0,-0.011349640786647797,9.907946586608887,-0.837943971157074,37668.0,46758.0,40734.0,39572.0,0,0,0,0,41183.91796875,-1054.0,-1241.0,-2089.0
3.98,0.4933508336544037,-0.0006392155191861093,0.5480612516403198,0.0,0.0,0.0,0.05609343200922012,9.451737403869629,-0.8345351815223694,37527.0,45319.0,41069.0,41397.0,0,0,0,0,41328.890625,-2616.0,-1028.0,-2120.0
4.0,0.4971531331539154,-0.0013414169661700726,0.5468886494636536,0.0,0.0,0.0,0.08059163391590118,8.943777084350586,-0.8616839647293091,39587.0,44657.0,39341.0,42279.0,0,0,0,0,41466.58984375,-1406.0,-404.0,-2112.0
4.02,0.5002381801605225,-0.0016462502535432577,0.545881986618042,0.0,0.0,0.0,0.05128653347492218,8.369007110595703,-0.8250199556350708,37093.0,44665.0,41663.0,42215.0,0,0,0,0,41409.83203125,271.0,-4085.0,-2131.0
4.04,0.5006409883499146,6.317874795058742e-05,0.54468834400177,0.0,0.0,0.0,-0.12650208175182343,7.806670188903809,-0.7344503402709961,37801.0,45643.0,40949.0,41815.0,0,0,0,0,41552.046875,-1599.0,-2683.0,-2126.0
4.06,0.5021699070930481,-3.735974314622581e-05,0.5431579947471619,0.0,0.0,0.0,-0.21399351954460144,7.181619167327881,-0.7339140176773071,39299.0,44315.0,39195.0,42847.0,0,0,0,0,41414.0078125,-907.0,-3657.0,-2082.0
4.08,0.5034322738647461,-0.00015378578973468393,0.5426511764526367,0.0,0.0,0.0,-0.21810689568519592,6.506701946258545,-0.7275709509849548,39505.0,44335.0,38655.0,42297.0,0,0,0,0,41198.59375,-889.0,-1504.0,-2178.0
4.1,0.5027490258216858,-0.0006924525951035321,0.5412065386772156,0.0,0.0,0.0,-0.1521412432193756,5.889591693878174,-0.7195080518722534,38030.0,44922.0,40382.0,41762.0,0,0,0,0,41170.89453125,-580.0,-1293.0,-2102.0
4.125,0.5029089450836182,-0.0008253333508037031,0.5410129427909851,0.0,0.0,0.0,-0.11975561082363129,5.125107288360596,-0.6213997602462769,38400.0,44076.0,39556.0,42144.0,0,0,0,0,41366.24609375,246.0,-495.0,-2165.0
4.145,0.5021005272865295,-0.0009192973375320435,0.5394358038902283,0.0,0.0,0.0,-0.11662746220827103,4.4514946937561035,-0.6696741580963135,39144.0,45136.0,39256.0,41316.0,0,0,0,0,41213.21875,-107.0,-185.0,-2222.0
4.16,0.5017228722572327,-0.001104320166632533,0.539779782295227,0.0,0.0,0.0,-0.12623195350170135,3.7481322288513184,-0.6694761514663696,36918.0,45554.0,37746.0,43618.0,0,0,0,0,40809.74609375,-1513.0,-3471.0,-2121.0
4.186,0.5009393692016602,-0.0008399144862778485,0.5399909019470215,0.0,0.0,0.0,-0.14441931247711182,3.050548791885376,-0.7372389435768127,39493.0,43111.0,38195.0,43141.0,0,0,0,0,40903.82421875,-619.0,-684.0,-2223.0
4.205,0.5000482797622681,-0.0016788466600701213,0.5393171310424805,0.0,0.0,0.0,-0.15281632542610168,2.3998923301696777,-0.6781852841377258,37384.0,46530.0,39850.0,39204.0,0,0,0,0,40658.25,794.0,-421.0,-2227.0
4.225,0.49895334243774414,-0.0023290549870580435,0.5398041009902954,0.0,0.0,0.0,-0.14162835478782654,1.7969778776168823,-0.6144540905952454,37870.0,43660.0,39054.0,42144.0,0,0,0,0,40392.171875,-161.0,-2990.0,-2184.0
4.245,0.498874694108963,-0.0012302568648010492,0.5408615469932556,0.0,0.0,0.0,-0.21309895813465118,1.126792550086975,-0.6361657977104187,38038.0,42680.0,38098.0,42144.0,0,0,0,0,40240.03515625,-2179.0,-1467.0,-2184.0
4.26,0.4980327785015106,-0.0020372828003019094,0.5417276620864868,0.0,0.0,0.0,-0.21219216287136078,0.5438200831413269,-0.5812422037124634,36390.0,44690.0,39428.0,39908.0,0,0,0,0,39994.6328125,284.0,-630.0,-2235.0
4.285,0.49755212664604187,-0.0006855943356640637,0.5427495241165161,0.0,0.0,0.0,-0.2630002200603485,0.08317025750875473,-0.6479306817054749,37435.0,43357.0,38299.0,40885.0,0,0,0,0,39881.5390625,-355.0,-891.0,-2214.0
4.3,0.4971143901348114,-0.001720123691484332,0.5438358783721924,0.0,0.0,0.0,-0.2062034010887146,-0.30662891268730164,-0.6005725264549255,35551.0,44867.0,37493.0,41405.0,0,0,0,0,39829.171875,-2884.0,-1929.0,-2174.0
4.32,0.4967699944972992,-0.000384977669455111,0.544938862323761,0.0,0.0,0.0,-0.27199244499206543,-0.6723236441612244,-0.655173659324646,37861.0,43873.0,37401.0,39857.0,0,0,0,0,39732.12890625,-816.0,-1165.0,-2150.0
4.345,0.4957912862300873,-0.00020202927407808602,0.5456973910331726,0.0,0.0,0.0,-0.2383224219083786,-0.9298526048660278,-0.6464805006980896,37297.0,42659.0,37753.0,40795.0,0,0,0,0,39545.23046875,-872.0,-2134.0,-2235.0
4.366,0.497376948595047,-0.0013433120911940932,0.5470816493034363,0.0,0.0,0.0,-0.13692529499530792,-1.271321177482605,-0.5717582106590271,36955.0,44509.0,38093.0,39423.0,0,0,0,0,39745.09765625,-690.0,-2493.0,-2285.0
4.38,0.49750468134880066,-0.00023601351131219417,0.5481776595115662,0.0,0.0,0.0,-0.10732767730951309,-1.4330198764801025,-0.6310589909553528,37168.0,43526.0,37896.0,40178.0,0,0,0,0,39692.17578125,70.0,-1761.0,-2259.0
4.4,0.4974043667316437,0.0004518497153185308,0.5489586591720581,0.0,0.0,0.0,-0.09342244267463684,-1.4814326763153076,-0.6768795251846313,37477.0,43921.0,37447.0,39887.0,0,0,0,0,39925.71484375,-1137.0,-2424.0,-2171.0
4.425,0.49694761633872986,0.0007552758324891329,0.5488889813423157,0.0,0.0,0.0,-0.07164286077022552,-1.4856187105178833,-0.6753498911857605,37043.0,43171.0,38541.0,40945.0,0,0,0,0,39849.578125,-1292.0,-1071.0,-2235.0
4.445,0.4980173707008362,-0.0005696332664228976,0.5501333475112915,0.0,0.0,0.0,0.0200644638389349,-1.4757500886917114,-0.6119130253791809,37744.0,44830.0,37900.0,39326.0,0,0,0,0,39950.234375,-719.0,-846.0,-2263.0
4.46,0.49933192133903503,0.0003812707436736673,0.551049530506134,0.0,0.0,0.0,0.046476781368255615,-1.461161494255066,-0.6106043457984924,36715.0,43517.0,37147.0,42241.0,0,0,0,0,39911.8984375,292.0,-1365.0,-2094.0
4.485,0.5000075101852417,0.0011464642593637109,0.551594078540802,0.0,0.0,0.0,0.04464682191610336,-1.3750048875808716,-0.6440166234970093,36826.0,42316.0,38732.0,41390.0,0,0,0,0,39816.7265625,-1441.0,-1855.0,-2208.0
4.5,0.5015923380851746,0.0010306762997061014,0.552611768245697,0.0,0.0,0.0,0.017021996900439262,-1.2840412855148315,-0.6299811005592346,37122.0,43718.0,38252.0,40256.0,0,0,0,0,39857.359375,-1324.0,-2330.0,-1986.0
4.52,0.5022862553596497,0.0012223172234371305,0.5529022812843323,0.0,0.0,0.0,0.0241084061563015,-1.0959757566452026,-0.619350790977478,37118.0,44820.0,37034.0,40696.0,0,0,0,0,39917.984375,-1909.0,-1482.0,-2138.0
4.54,0.5030849575996399,0.0020503343548625708,0.5523035526275635,0.0,0.0,0.0,0.01954028382897377,-0.8980382680892944,-0.6440823078155518,37268.0,44236.0,38758.0,40498.0,0,0,0,0,40248.5,43.0,-1061.0,-2027.0
4.56,0.5039582252502441,0.002301083877682686,0.5523010492324829,0.0,0.0,0.0,0.08853161334991455,-0.7049349546432495,-0.6364166736602783,37192.0,44796.0,39134.0,40030.0,0,0,0,0,40306.8671875,-1671.0,-3558.0,-1973.0
4.58,0.5048775672912598,0.0025642551481723785,0.552241861820221,0.0,0.0,0.0,0.1490122228860855,-0.496944785118103,-0.6183618903160095,36979.0,44515.0,39385.0,40677.0,0,0,0,0,40399.3671875,-1660.0,-3830.0,-2181.0
4.605,0.5057975053787231,0.002824199851602316,0.5518511533737183,0.0,0.0,0.0,0.20235836505889893,-0.2622431814670563,-0.6121081709861755,38183.0,44357.0,38269.0,40843.0,0,0,0,0,40195.9765625,-1166.0,-2805.0,-2107.0
4.62,0.5081351399421692,0.0010825677309185266,0.5530190467834473,0.0,0.0,0.0,0.3236055374145508,-0.10178989171981812,-0.5667935609817505,37331.0,43839.0,38659.0,40959.0,0,0,0,0,40072.15625,-835.0,-838.0,-2244.0
4.64,0.5107824802398682,0.0019923148211091757,0.5538453459739685,0.0,0.0,0.0,0.26888346672058105,0.023738037794828415,-0.5505439043045044,37012.0,42104.0,38890.0,42330.0,0,0,0,0,39969.59765625,-415.0,-3128.0,-2167.0
4.66,0.5126423835754395,0.0021867542527616024,0.5545303225517273,0.0,0.0,0.0,0.22952966392040253,0.16948404908180237,-0.5437578558921814,37340.0,44082.0,38388.0,40382.0,0,0,0,0,40048.50390625,-442.0,-1810.0,-2262.0
4.68,0.5142298936843872,0.002404301892966032,0.5545051693916321,0.0,0.0,0.0,0.20455880463123322,0.4115670919418335,-0.5301463007926941,36818.0,44490.0,38850.0,40046.0,0,0,0,0,39980.8046875,-1351.0,-2875.0,-2272.0
4.7,0.5157033205032349,0.002115942072123289,0.5548754930496216,0.0,0.0,0.0,0.21724297106266022,0.6314414739608765,-0.5066249370574951,37303.0,43893.0,38389.0,40391.0,0,0,0,0,39951.2890625,-281.0,-1953.0,-2144.0
4.72,0.5170196890830994,0.002524338662624359,0.5541639924049377,0.0,0.0,0.0,0.23008358478546143,0.8886401057243347,-0.47668153047561646,37349.0,42887.0,38949.0,42003.0,0,0,0,0,40198.8671875,-1526.0,-753.0,-2169.0
4.74,0.5186144113540649,0.0025634891353547573,0.5544964075088501,0.0,0.0,0.0,0.2100033462047577,1.0942864418029785,-0.4892035126686096,36928.0,44810.0,39252.0,39910.0,0,0,0,0,40150.12109375,-1555.0,-2266.0,-2331.0
4.76,0.519854724407196,0.002309385919943452,0.5545260906219482,0.0,0.0,0.0,0.2047727406024933,1.253462791442871,-0.4439457952976227,36783.0,44993.0,39253.0,39843.0,0,0,0,0,40137.64453125,-406.0,-2531.0,-2442.0
4.78,0.5213204026222229,0.0026580935809761286,0.5547655820846558,0.0,0.0,0.0,0.21142469346523285,1.4006050825119019,-0.46888577938079834,37661.0,43689.0,38205.0,41085.0,0,0,0,0,40167.69140625,-1077.0,-2241.0,-2250.0
4.805,0.5225385427474976,0.00287824310362339,0.5546713471412659,0.0,0.0,0.0,0.20398397743701935,1.5143436193466187,-0.4759539067745209,37001.0,44655.0,38901.0,40111.0,0,0,0,0,40110.82421875,-1954.0,-1687.0,-2323.0
4.825,0.5238792300224304,0.0027700236532837152,0.5548054575920105,0.0,0.0,0.0,0.20909033715724945,1.5904440879821777,-0.47292616963386536,36779.0,43285.0,38951.0,41425.0,0,0,0,0,40060.765625,-889.0,-1904.0,-2268.0
4.84,0.5250754356384277,0.002683615544810891,0.5549459457397461,0.0,0.0,0.0,0.2296469360589981,1.7185640335083008,-0.5021730065345764,36261.0,43837.0,39305.0,40889.0,0,0,0,0,40213.54296875,5.0,-2996.0,-2262.0
4.864,0.5259248614311218,0.002759670838713646,0.5544497966766357,0.0,0.0,0.0,0.2141014039516449,1.86246657371521,-0.49598658084869385,37299.0,43325.0,38657.0,41619.0,0,0,0,0,40184.08984375,-1285.0,-1379.0,-2245.0
4.88,0.5268124938011169,0.002573596779257059,0.554512619972229,0.0,0.0,0.0,0.1681917905807495,1.953843116760254,-0.5030949115753174,37560.0,44726.0,37182.0,41076.0,0,0,0,0,40136.53515625,227.0,-4567.0,-2383.0
4.9,0.5276376605033875,0.002492765197530389,0.5546255707740784,0.0,0.0,0.0,0.15958431363105774,1.9470343589782715,-0.5300057530403137,37508.0,44436.0,38188.0,40432.0,0,0,0,0,40150.4765625,-177.0,-3279.0,-2264.0
4.924,0.5281291604042053,0.002457116264849901,0.5544841289520264,0.0,0.0,0.0,0.17361827194690704,2.005929708480835,-0.5382384061813354,37695.0,42789.0,38023.0,42153.0,0,0,0,0,40204.9765625,-1184.0,-1985.0,-2249.0
4.94,0.5284514427185059,0.0023781852796673775,0.553993284702301,0.0,0.0,0.0,0.17649750411510468,2.0171256065368652,-0.5433363914489746,37253.0,44159.0,38783.0,40981.0,0,0,0,0,40338.73046875,-1200.0,-3821.0,-2184.0
4.96,0.5287185311317444,0.002304998692125082,0.5536667108535767,0.0,0.0,0.0,0.1703016459941864,1.9537280797958374,-0.5506510138511658,36714.0,44420.0,39420.0,40882.0,0,0,0,0,40378.7421875,55.0,-1794.0,-2288.0
4.98,0.5285584330558777,0.00233321450650692,0.5526130795478821,0.0,0.0,0.0,0.15658076107501984,1.9858644008636475,-0.5507186055183411,37361.0,44593.0,39309.0,41137.0,0,0,0,0,40618.87890625,-1173.0,79.0,-2374.0
5.0,0.5284952521324158,0.0022396761924028397,0.5521769523620605,0.0,0.0,0.0,0.10264965146780014,1.9284440279006958,-0.5526020526885986,36877.0,45983.0,39735.0,39897.0,0,0,0,0,40620.8046875,-2528.0,-2014.0,-2383.0
5.024,0.5282651782035828,0.0021505479235202074,0.5517421960830688,0.0,0.0,0.0,0.08279620110988617,1.8252332210540771,-0.5595070123672485,37327.0,44595.0,39147.0,41423.0,0,0,0,0,40634.359375,-838.0,-1238.0,-2510.0
5.04,0.5279868841171265,0.0016338569112122059,0.5512587428092957,0.0,0.0,0.0,0.1154833659529686,1.7564034461975098,-0.5687771439552307,36966.0,44832.0,39632.0,41034.0,0,0,0,0,40539.69140625,260.0,-2229.0,-2315.0
5.064,0.5279279947280884,0.0019082981161773205,0.5511864423751831,0.0,0.0,0.0,0.08313779532909393,1.6642488241195679,-0.5976765751838684,36913.0,45635.0,39507.0,40045.0,0,0,0,0,40428.07421875,-416.0,65.0,-2385.0
5.084,0.5277297496795654,0.0016931933350861073,0.5513182282447815,0.0,0.0,0.0,0.04124715179204941,1.5616577863693237,-0.6000985503196716,36117.0,44535.0,39979.0,40993.0,0,0,0,0,40366.578125,-127.0,-3371.0,-2336.0
5.103,0.527184784412384,0.0014040793757885695,0.5512043833732605,0.0,0.0,0.0,0.010920561850070953,1.4039902687072754,-0.6045099496841431,37244.0,43844.0,38716.0,41572.0,0,0,0,0,40216.08984375,-204.0,-1080.0,-2345.0
5.123,0.5267086029052734,0.0012385857990011573,0.5514670014381409,0.0,0.0,0.0,0.000341772916726768,1.2753708362579346,-0.6055876016616821,37294.0,43858.0,38312.0,41388.0,0,0,0,0,40227.796875,-788.0,-2188.0,-2425.0
5.144,0.526240348815918,0.001332869753241539,0.5513319373130798,0.0,0.0,0.0,-0.017005939036607742,1.1188559532165527,-0.6377235651016235,37871.0,44611.0,37743.0,40695.0,0,0,0,0,40230.48828125,-1652.0,-1761.0,-2540.0
5.16,0.5256113409996033,0.0012461470905691385,0.5512267351150513,0.0,0.0,0.0,-0.020911233499646187,1.00459623336792,-0.6426675319671631,36681.0,44947.0,38929.0,40311.0,0,0,0,0,40223.375,-1309.0,250.0,-2475.0
5.18,0.5247516632080078,0.0011358206393197179,0.5511159896850586,0.0,0.0,0.0,-0.016771849244832993,0.9288538098335266,-0.6455307602882385,36906.0,45032.0,38770.0,40192.0,0,0,0,0,40239.16015625,-921.0,-276.0,-2410.0
5.204,0.5238892436027527,0.0011533829383552074,0.5510323643684387,0.0,0.0,0.0,-0.050707098096609116,0.8434728384017944,-0.647017240524292,36688.0,44916.0,39068.0,40276.0,0,0,0,0,40242.0234375,-1902.0,-1743.0,-2475.0
5.224,0.52330082654953,0.0009368311730213463,0.5509501695632935,0.0,0.0,0.0,-0.09970041364431381,0.7138829827308655,-0.6143447756767273,36963.0,44465.0,38691.0,40857.0,0,0,0,0,40272.6171875,-770.0,-1551.0,-2465.0
5.245,0.5223739743232727,0.0007393090054392815,0.5507258772850037,0.0,0.0,0.0,-0.08314938098192215,0.587543785572052,-0.6020891070365906,36370.0,44414.0,39434.0,40942.0,0,0,0,0,40306.37890625,-1117.0,-619.0,-2483.0
5.26,0.521466851234436,0.0005428284639492631,0.550574004650116,0.0,0.0,0.0,-0.07387782633304596,0.4302307963371277,-0.5968830585479736,37922.0,43712.0,37892.0,41706.0,0,0,0,0,40304.921875,-564.0,-1418.0,-2501.0
5.28,0.5204175114631653,0.0004426704836077988,0.55039381980896,0.0,0.0,0.0,-0.04142429307103157,0.3042791485786438,-0.6027340888977051,37083.0,43611.0,38961.0,41577.0,0,0,0,0,40385.27734375,573.0,-4142.0,-2274.0
5.304,0.519261360168457,0.00032753602135926485,0.549919605255127,0.0,0.0,0.0,-0.054115816950798035,0.2011689990758896,-0.5958070158958435,38182.0,44698.0,37914.0,40810.0,0,0,0,0,40426.42578125,-1370.0,-1158.0,-2294.0
5.32,0.5183283686637878,8.77447018865496e-06,0.549593448638916,0.0,0.0,0.0,-0.05383814871311188,0.14320537447929382,-0.6113331317901611,37708.0,45170.0,38400.0,40454.0,0,0,0,0,40375.92578125,26.0,-2588.0,-2265.0
5.34,0.5173548460006714,-3.391021164134145e-05,0.5496100783348083,0.0,0.0,0.0,-0.04405840486288071,0.07046417146921158,-0.6075649261474609,38191.0,43781.0,37859.0,41677.0,0,0,0,0,40381.71484375,-223.0,-1507.0,-2276.0
5.364,0.5172237157821655,0.0006905606715008616,0.5496058464050293,0.0,0.0,0.0,-0.11665505915880203,-0.04142738878726959,-0.6026793718338013,36891.0,44323.0,39455.0,40843.0,0,0,0,0,40342.60546875,383.0,-473.0,-2332.0
5.384,0.5161904096603394,0.00077488535316661,0.5491398572921753,0.0,0.0,0.0,-0.1656073033809662,-0.1174732968211174,-0.5915829539299011,37193.0,43559.0,38987.0,41857.0,0,0,0,0,40410.8203125,-2018.0,347.0,-2343.0
5.404,0.515709638595581,0.0007723049493506551,0.5490292906761169,0.0,0.0,0.0,-0.17821288108825684,-0.1507810354232788,-0.5837658047676086,38510.0,42924.0,37450.0,42744.0,0,0,0,0,40418.56640625,-1616.0,-1568.0,-2392.0
5.424,0.5136746168136597,0.0012427689507603645,0.5477533936500549,0.0,0.0,0.0,-0.19837477803230286,-0.25836557149887085,-0.6028894186019897,37652.0,43442.0,38926.0,42552.0,0,0,0,0,40607.5234375,-2141.0,506.0,-2447.0
5.444,0.5131580233573914,0.0012979486491531134,0.5475772619247437,0.0,0.0,0.0,-0.15964047610759735,-0.26918086409568787,-0.600068211555481,38347.0,43869.0,37997.0,42211.0,0,0,0,0,40600.1640625,-554.0,-1392.0,-2360.0
5.464,0.5121433734893799,0.0014450033195316792,0.5472733378410339,0.0,0.0,0.0,-0.112942174077034,-0.31262314319610596,-0.5922613143920898,37156.0,44598.0,39384.0,41254.0,0,0,0,0,40515.82421875,-1256.0,-1885.0,-2159.0
5.48,0.5107555985450745,0.0016571370651945472,0.5470003485679626,0.0,0.0,0.0,-0.024320246651768684,-0.402846097946167,-0.576827883720398,36048.0,44782.0,40206.0,40952.0,0,0,0,0,40472.28515625,-1702.0,-3024.0,-2420.0
5.505,0.5101015567779541,0.001653457758948207,0.5470317602157593,0.0,0.0,0.0,0.0006659214268438518,-0.44950437545776367,-0.6046291589736938,38769.0,43753.0,37477.0,41885.0,0,0,0,0,40389.7421875,-90.0,-935.0,-2269.0
5.525,0.5092616081237793,0.0018040762515738606,0.5468249320983887,0.0,0.0,0.0,0.03433127701282501,-0.4867493510246277,-0.6443801522254944,37345.0,43663.0,38707.0,41829.0,0,0,0,0,40357.18359375,-430.0,-628.0,-2286.0
5.545,0.5085353255271912,0.0019153666216880083,0.5467142462730408,0.0,0.0,0.0,0.033604349941015244,-0.5174296498298645,-0.6522621512413025,38297.0,43427.0,38435.0,41229.0,0,0,0,0,40436.74609375,-884.0,-1928.0,-1926.0
5.56,0.5074581503868103,0.0022117430344223976,0.5462421178817749,0.0,0.0,0.0,0.025721725076436996,-0.5591341257095337,-0.6209719777107239,38214.0,44738.0,37888.0,40896.0,0,0,0,0,40426.6171875,-910.0,-1703.0,-2218.0
