time,x_kalman,y_kalman,z_kalman,x_lh,y_lh,z_lh,roll,pitch,yaw,F,R,Z,motor.m1,motor.m2,motor.m3,motor.m4,stabilizer.thrust,stabilizer.roll,stabilizer.pitch,stabilizer.yaw
0.0,0.007651646621525288,-0.000969011103734374,0.016866534948349,0.007452698424458504,-0.0003480091691017151,0.00017121434211730957,-1.140385627746582,1.2153595685958862,-1.319059133529663,-0.005005383864045143,-1.0,0.016123754903674126,52839.0,56229.0,54909.0,54831.0,54702.5,-1.129196047782898,1.2170476913452148,-1.374009132385254
0.02,0.007600593846291304,-0.0011415196349844337,0.015601512044668198,0.007452698424458504,-0.0003480091691017151,0.00017121434211730957,-1.1240932941436768,1.238513708114624,-1.3730974197387695,-0.004995383322238922,-1.0,0.015601512044668198,54115.0,57241.0,54325.0,55075.0,55189.5234375,-1.11842679977417,1.281957983970642,-1.1869406700134277
0.04,0.007930596359074116,-0.0011379317147657275,0.014872320927679539,0.007387290708720684,-0.0002635195851325989,0.0001443624496459961,-1.0954968929290771,1.247711420059204,-1.181597113609314,-0.005134926177561283,-1.0,0.014872320927679539,58282.0,57392.0,52222.0,54928.0,55706.484375,-1.079876184463501,1.3373548984527588,-1.164193034172058
0.06,0.007680210284888744,0.00024457741528749466,0.01475844532251358,0.007370506413280964,-0.0002285093069076538,0.00036716461181640625,-1.1280606985092163,1.3256977796554565,-1.1381173133850098,-0.005266181658953428,-1.0,0.014264288358390331,54634.0,59954.0,55844.0,54048.0,56120.25390625,-0.9572120308876038,1.3211290836334229,-1.1814978122711182
0.08,0.0068128653801977634,-0.00016856887668836862,0.014556705951690674,0.007370506413280964,-0.0002285093069076538,0.00036716461181640625,-0.7031877040863037,1.4061483144760132,-1.1784508228302002,-0.005265291314572096,-1.0,0.014556705951690674,51171.0,62459.0,56945.0,50501.0,55269.1953125,-0.4504530429840088,1.5420231819152832,-1.1823755502700806
0.1,0.006217170041054487,-0.002387453569099307,0.014310216531157494,0.007370506413280964,-0.0002285093069076538,0.00036716461181640625,-0.19874778389930725,1.7955821752548218,-1.2081173658370972,-0.005216266959905624,-1.0,0.014310216531157494,48516.0,54200.0,55578.0,55086.0,53345.80859375,0.09878940135240555,2.1254632472991943,-1.2499208450317383
0.12,0.0001758188591338694,-0.006403868552297354,0.017278635874390602,0.007588159758597612,-0.0007221251726150513,0.004572778940200806,0.14170707762241364,2.6413769721984863,-1.1019419431686401,-0.005408502649515867,-1.0,0.01727859489619732,46301.0,56061.0,51777.0,48545.0,50671.6640625,0.30696427822113037,2.9202146530151367,-1.2073683738708496
0.14,-0.0076115932315588,-0.018344242125749588,0.020691264420747757,0.007588159758597612,-0.0007221251726150513,0.004572778940200806,0.5667548775672913,3.082390546798706,-1.2688970565795898,0.020691264420747757,-1.0,0.020691264420747757,47306.0,51432.0,46432.0,47074.0,48061.92578125,0.5079993605613708,3.2222342491149902,-1.3065499067306519
0.16,-0.011043040081858635,-0.01760716922581196,0.0284451711922884,0.007432166486978531,-0.0009587109088897705,0.018211692571640015,0.45284727215766907,3.0718789100646973,-1.1286596059799194,0.02008054032921791,-1.0,0.028445348143577576,43805.0,45851.0,43095.0,47613.0,45091.1484375,0.5028470158576965,2.5706422328948975,-1.2513853311538696
0.18,-0.006532406434416771,-0.022009477019309998,0.04155709967017174,0.007432166486978531,-0.0009587109088897705,0.018211692571640015,0.222509503364563,1.9223239421844482,-1.301802396774292,0.022131599485874176,-1.0,0.04155709967017174,39407.0,42859.0,41845.0,43325.0,41859.109375,-0.13876572251319885,1.4556573629379272,-1.3288218975067139
0.2,-0.007892293855547905,-0.019551143050193787,0.056046146899461746,0.004356620833277702,0.0030107125639915466,0.04800248146057129,-0.5965076088905334,1.093525767326355,-1.3468624353408813,0.023345058783888817,-1.0,0.05534674972295761,35418.0,41072.0,40620.0,40286.0,39349.66796875,-0.9543336033821106,0.692168653011322,-1.4564391374588013
0.22,-0.005044270772486925,-0.018544213846325874,0.07070007920265198,0.004356620833277702,0.0030107125639915466,0.04800248146057129,-1.2073074579238892,0.37197625637054443,-1.4837801456451416,0.024402061477303505,-1.0,0.07070007920265198,34474.0,40114.0,37374.0,37494.0,37364.60546875,-1.4473477602005005,0.1979748010635376,-1.5070537328720093
0.24,-0.005660816095769405,-0.019358882680535316,0.08797600865364075,0.0029394831508398056,0.005043484270572662,0.07775574922561646,-1.6300824880599976,0.03401358053088188,-1.533018708229065,0.02286643721163273,-1.0,0.08694225549697876,33713.0,38287.0,34657.0,36575.0,35808.91796875,-1.9046086072921753,-0.1597437709569931,-1.6469581127166748
0.26,-0.005501346196979284,-0.015237090177834034,0.10304053872823715,0.0029394831508398056,0.005043484270572662,0.07775574922561646,-1.9608676433563232,-0.305223673582077,-1.6775113344192505,0.02344498597085476,-1.0,0.10304053872823715,33761.0,36449.0,33285.0,36409.0,34976.0859375,-1.864550232887268,-0.3078836500644684,-1.691501498222351
0.28,-0.01069965586066246,-0.017720689997076988,0.1248195543885231,0.0019849203526973724,0.007541470229625702,0.10858206450939178,-1.9151909351348877,-0.5197824835777283,-1.7085810899734497,0.021515026688575745,-1.0,0.12307669222354889,31572.0,36114.0,32556.0,34278.0,33630.02734375,-1.827644944190979,-0.6409900784492493,-1.789984107017517
0.3,-0.011985214427113533,-0.01822943426668644,0.13839595019817352,0.001605925615876913,0.00910237431526184,0.12362810969352722,-1.8055886030197144,-0.8369542360305786,-1.8082820177078247,0.020255738869309425,-1.0,0.13670839369297028,32435.0,37223.0,32115.0,33235.0,33752.7265625,-1.735722541809082,-1.089484453201294,-1.8809192180633545
0.32,-0.010427248664200306,-0.018133560195565224,0.15631182491779327,0.001605925615876913,0.00910237431526184,0.12362810969352722,-1.700486421585083,-1.2390302419662476,-1.8845317363739014,0.020771026611328125,-1.0,0.15631182491779327,32682.0,34278.0,30676.0,34464.0,33025.0703125,-1.7132234573364258,-1.3966717720031738,-1.7001937627792358
0.34,-0.009814320132136345,-0.016282495111227036,0.16886863112449646,0.003377024084329605,0.0078267902135849,0.14420156180858612,-1.706801414489746,-1.5551108121871948,-1.6960957050323486,0.019372332841157913,-1.0,0.16886863112449646,32139.0,34793.0,32155.0,35201.0,33572.03125,-1.6752004623413086,-1.555219292640686,-1.6950465440750122
0.36,-0.013605456799268723,-0.01690610870718956,0.18258339166641235,0.0014155087992548943,0.014534913003444672,0.1653895378112793,-1.675191879272461,-1.662278652191162,-1.7025285959243774,0.01830495335161686,-1.0,0.1820119321346283,30444.0,35568.0,34874.0,35066.0,33988.62890625,-1.7490580081939697,-1.7527508735656738,-1.770793080329895
0.38,-0.013636589981615543,-0.013999015092849731,0.1949388086795807,0.0014991355128586292,0.016820289194583893,0.17764458060264587,-1.7610077857971191,-1.7979705333709717,-1.7633780241012573,0.017150921747088432,-1.0,0.19320961833000183,31926.0,37356.0,35032.0,34518.0,34708.578125,-1.8362215757369995,-1.9269883632659912,-1.8142328262329102
0.4,-0.011539065279066563,-0.01103502232581377,0.20520442724227905,0.0014991355128586292,0.016820289194583893,0.17764458060264587,-1.8345686197280884,-1.966884732246399,-1.7934767007827759,0.01711900345981121,-1.0,0.20520420372486115,33619.0,37799.0,34397.0,35165.0,35245.76953125,-1.9781328439712524,-2.0298259258270264,-1.8262996673583984
0.42,-0.01154695451259613,-0.006961226463317871,0.2168702334165573,0.002325482666492462,0.021390043199062347,0.19985151290893555,-1.9306737184524536,-2.0786561965942383,-1.807356357574463,0.015911806374788284,-1.0,0.2152700424194336,33664.0,38530.0,35810.0,35592.0,35899.71875,-1.9249697923660278,-2.146320343017578,-1.8453083038330078
0.44,-0.010485025122761726,-0.0027357852086424828,0.22554530203342438,0.002325482666492462,0.021390043199062347,0.19985151290893555,-1.8140422105789185,-2.1810247898101807,-1.819045066833496,0.015844017267227173,-1.0,0.22554530203342438,34500.0,38982.0,36308.0,36010.0,36450.2578125,-1.731624722480774,-2.21667218208313,-1.6221405267715454
0.46,-0.009055246599018574,0.0011101537384092808,0.23114505410194397,0.00462242541834712,0.022239558398723602,0.21327729523181915,-1.5455559492111206,-2.176246166229248,-1.5909335613250732,0.01465227548032999,-1.0,0.2311447262763977,36462.0,40750.0,36142.0,36926.0,37570.33203125,-1.3692011833190918,-2.1124536991119385,-1.651018738746643
0.48,-0.009250222705304623,0.0028691510669887066,0.239737406373024,0.00462242541834712,0.022239558398723602,0.21327729523181915,-1.1427912712097168,-2.0395665168762207,-1.6396353244781494,0.014615293592214584,-1.0,0.239737406373024,37528.0,40336.0,36392.0,37984.0,38060.58203125,-0.9277240633964539,-1.9849094152450562,-1.6194164752960205
0.5,-0.008878535591065884,0.005098285619169474,0.24839013814926147,0.00462242541834712,0.022239558398723602,0.21327729523181915,-0.7085816860198975,-1.9243873357772827,-1.5978755950927734,0.014597323723137379,-1.0,0.24839013814926147,36755.0,41497.0,37829.0,37343.0,38356.62890625,-0.5027807354927063,-1.840130090713501,-1.5798059701919556
0.52,-0.008604543283581734,0.007196958176791668,0.2559551000595093,0.006931760348379612,0.03499263525009155,0.2424735724925995,-0.281737357378006,-1.7696301937103271,-1.5539785623550415,0.013787397183477879,-1.0,0.25473952293395996,38115.0,39609.0,37381.0,40011.0,38779.6875,-0.14485090970993042,-1.7126199007034302,-1.580133080482483
0.54,-0.006291086785495281,0.012795439921319485,0.2623976767063141,0.006931760348379612,0.03499263525009155,0.2424735724925995,0.04018504545092583,-1.6342440843582153,-1.5548884868621826,0.013780971057713032,-1.0,0.2623976767063141,37493.0,41875.0,38193.0,38103.0,38916.59765625,0.23228521645069122,-1.5549548864364624,-1.5301467180252075
0.56,-0.005282235331833363,0.015353826805949211,0.26920169591903687,0.006931760348379612,0.03499263525009155,0.2424735724925995,0.3928138017654419,-1.4752451181411743,-1.5129870176315308,0.013713283464312553,-1.0,0.26920169591903687,37970.0,41976.0,38020.0,38358.0,39081.26953125,0.6071460247039795,-1.381804347038269,-1.4951651096343994
0.58,-0.004562241490930319,0.017560992389917374,0.27579525113105774,0.006931760348379612,0.03499263525009155,0.2424735724925995,0.8133713603019714,-1.278870701789856,-1.4806948900222778,0.013630855828523636,-1.0,0.2748669981956482,37563.0,42121.0,39127.0,38589.0,39350.46875,1.0219320058822632,-1.1699403524398804,-1.4632432460784912
0.6,-0.0036196205765008926,0.020018527284264565,0.2811269760131836,0.006931760348379612,0.03499263525009155,0.2424735724925995,1.1975361108779907,-1.0669310092926025,-1.4441184997558594,0.013592406176030636,-1.0,0.2811269760131836,38793.0,40913.0,38187.0,39727.0,39405.87890625,1.3932565450668335,-0.9480220675468445,-1.4274433851242065
0.62,-0.002174445427954197,0.02235579676926136,0.2871941030025482,0.006931760348379612,0.03499263525009155,0.2424735724925995,1.5546436309814453,-0.8637123703956604,-1.4049328565597534,0.01354723609983921,-1.0,0.2871941030025482,38218.0,41890.0,38674.0,38990.0,39443.875,1.7096245288848877,-0.7641013264656067,-1.3872746229171753
0.64,-0.001232085283845663,0.024672366678714752,0.29170554876327515,0.006931760348379612,0.03499263525009155,0.2424735724925995,1.860978603363037,-0.6548506617546082,-1.3711713552474976,0.013437184505164623,-1.0,0.29170554876327515,38022.0,42986.0,39872.0,38156.0,39759.32421875,2.0088155269622803,-0.5458211898803711,-1.3595893383026123
0.661,-0.000567764276638627,0.02597901225090027,0.29480570554733276,0.006931760348379612,0.03499263525009155,0.2424735724925995,1.9998984336853027,-0.5407078266143799,-1.3596988916397095,0.013421015813946724,-1.0,0.29760709404945374,39117.0,42553.0,39303.0,38071.0,39761.3125,2.2551190853118896,-0.33710095286369324,-1.3865108489990234
0.682,0.0011657344875857234,0.028080224990844727,0.3007032573223114,0.02080541104078293,0.05691082775592804,0.29138320684432983,2.2451305389404297,-0.34715721011161804,-1.3864251375198364,0.0127628855407238,-1.0,0.302499383687973,38935.0,41047.0,40247.0,38835.0,39766.765625,2.391096591949463,-0.20734916627407074,-1.38613760471344
0.7,0.005618449300527573,0.03506668284535408,0.30525556206703186,0.02080541104078293,0.05691082775592804,0.29138320684432983,2.401068687438965,-0.20163801312446594,-1.386204481124878,0.012787064537405968,-1.0,0.3079645335674286,38008.0,42322.0,40480.0,37990.0,39700.6171875,2.61075758934021,0.020300809293985367,-1.3314157724380493
0.721,0.007270805072039366,0.03676583990454674,0.3086169958114624,0.024850446730852127,0.06138359755277634,0.30222588777542114,2.6133275032043457,0.026799211278557777,-1.3315284252166748,0.012413198128342628,-1.0,0.31093838810920715,38040.0,42254.0,40568.0,39414.0,40069.2109375,2.751903533935547,0.22451430559158325,-1.3561277389526367
0.741,0.012157697230577469,0.043476127088069916,0.31345799565315247,0.026942256838083267,0.06313693523406982,0.3074278235435486,2.751903533935547,0.22451430559158325,-1.3561277389526367,0.012117124162614346,-1.0,0.3155263066291809,38808.0,42788.0,40670.0,37970.0,40059.16796875,2.9302480220794678,0.44198107719421387,-1.3521018028259277
0.76,0.01609911024570465,0.04828949645161629,0.31862297654151917,0.026942256838083267,0.06313693523406982,0.3074278235435486,2.939232587814331,0.4444837272167206,-1.3521921634674072,0.012088943272829056,-1.0,0.3211502432823181,37776.0,42272.0,40884.0,38440.0,39843.7421875,3.180189847946167,0.7475616931915283,-1.3065747022628784
0.78,0.01762065663933754,0.050210561603307724,0.3236621022224426,0.026942256838083267,0.06313693523406982,0.3074278235435486,3.180189847946167,0.7475616931915283,-1.3065747022628784,0.012082042172551155,-1.0,0.32617413997650146,38832.0,41422.0,39664.0,39046.0,39741.73046875,3.4357967376708984,1.0473674535751343,-1.2793325185775757
0.8,0.019387591630220413,0.051685646176338196,0.328669935464859,0.026942256838083267,0.06313693523406982,0.3074278235435486,3.436171770095825,1.0546528100967407,-1.27953040599823,0.012055634520947933,-1.0,0.3316360414028168,39158.0,41518.0,38714.0,38822.0,39553.234375,3.626390218734741,1.2738512754440308,-1.2489351034164429
0.821,0.02088974229991436,0.052930254489183426,0.33414748311042786,0.03499038517475128,0.06868904829025269,0.3283247947692871,3.626390218734741,1.2738512754440308,-1.2489351034164429,0.011810345575213432,-1.0,0.33624914288520813,38346.0,41122.0,39666.0,38910.0,39511.1484375,3.700849771499634,1.419532299041748,-1.2292217016220093
0.84,0.025298945605754852,0.05704472213983536,0.33872342109680176,0.03499038517475128,0.06868904829025269,0.3283247947692871,3.700849771499634,1.419532299041748,-1.2292217016220093,0.011806927621364594,-1.0,0.3411865532398224,37220.0,41716.0,40358.0,38478.0,39443.8984375,3.7792916297912598,1.642075777053833,-1.1996806859970093
0.86,0.026718534529209137,0.05761583894491196,0.3454459011554718,0.03499038517475128,0.06868904829025269,0.3283247947692871,3.785168170928955,1.6361796855926514,-1.1995903253555298,0.011706309393048286,-1.0,0.34796783328056335,37751.0,41705.0,38935.0,37857.0,39062.07421875,3.835399866104126,1.8489658832550049,-1.1761113405227661
0.88,0.02831151895225048,0.05804334208369255,0.35046327114105225,0.03499038517475128,0.06868904829025269,0.3283247947692871,3.8336689472198486,1.8353116512298584,-1.1756784915924072,0.01170388050377369,-1.0,0.35293978452682495,37305.0,41807.0,39425.0,37535.0,39018.09765625,3.8801956176757812,1.995959997177124,-1.1561098098754883
0.9,0.030068332329392433,0.058373719453811646,0.35796162486076355,0.03499038517475128,0.06868904829025269,0.3283247947692871,3.8768839836120605,1.9805889129638672,-1.1556020975112915,0.011601950973272324,-1.0,0.36052417755126953,37314.0,39926.0,38672.0,38156.0,38517.6640625,3.8749032020568848,2.136596441268921,-1.1239933967590332
0.921,0.03402506560087204,0.061223216354846954,0.3623969256877899,0.04336193948984146,0.06994332373142242,0.35300713777542114,3.8363842964172363,2.0850443840026855,-1.143660306930542,0.01124931313097477,-1.0,0.3648688495159149,37455.0,41267.0,38581.0,37225.0,38632.1328125,3.7442214488983154,2.2084946632385254,-1.1190305948257446
0.94,0.03506505861878395,0.06103941425681114,0.36726701259613037,0.04336193948984146,0.06994332373142242,0.35300713777542114,3.754338264465332,2.203188180923462,-1.119075894355774,0.011250520125031471,-1.0,0.3696449100971222,37143.0,40357.0,38853.0,38499.0,38713.38671875,3.666767120361328,2.268079996109009,-1.0901782512664795
0.96,0.036039866507053375,0.060479555279016495,0.3719702661037445,0.04336193948984146,0.06994332373142242,0.35300713777542114,3.6754043102264404,2.267909288406372,-1.090358018875122,0.011248809285461903,-1.0,0.3742504417896271,37583.0,41235.0,38943.0,37479.0,38810.6640625,3.582526683807373,2.3554906845092773,-1.062936782836914
0.98,0.037091031670570374,0.0599786601960659,0.3742068111896515,0.04336193948984146,0.06994332373142242,0.35300713777542114,3.582526683807373,2.3554906845092773,-1.062936782836914,0.011330696754157543,-1.0,0.3762609362602234,36821.0,41727.0,40825.0,38067.0,39360.90234375,3.4882326126098633,2.4303300380706787,-1.033382534980774
1.0,0.037582870572805405,0.059120845049619675,0.3782661259174347,0.04336193948984146,0.06994332373142242,0.35300713777542114,3.4882326126098633,2.4303300380706787,-1.033382534980774,0.011330428533256054,-1.0,0.38022536039352417,37728.0,40624.0,40072.0,39512.0,39484.66796875,3.3269097805023193,2.504516363143921,-1.004913091659546
1.02,0.03795119747519493,0.05791580304503441,0.38213619589805603,0.04336193948984146,0.06994332373142242,0.35300713777542114,3.3269097805023193,2.504516363143921,-1.004913091659546,0.011333268135786057,-1.0,0.38376396894454956,38493.0,41791.0,40017.0,38223.0,39631.0703125,3.1419639587402344,2.4934325218200684,-0.9727150201797485
1.04,0.03814230114221573,0.05554293841123581,0.38556644320487976,0.04336193948984146,0.06994332373142242,0.35300713777542114,3.1646339893341064,2.494251012802124,-0.9733257293701172,0.011321448720991611,-1.0,0.38735413551330566,38208.0,41106.0,40608.0,38942.0,39716.8984375,2.9652795791625977,2.4553158283233643,-0.9334765672683716
1.06,0.038292426615953445,0.054417334496974945,0.38912147283554077,0.04336193948984146,0.06994332373142242,0.35300713777542114,2.9652795791625977,2.4553158283233643,-0.9334765672683716,0.011326145380735397,-1.0,0.39085477590560913,38351.0,40723.0,40387.0,39555.0,39754.28515625,2.749588966369629,2.425199031829834,-0.8983178734779358
1.08,0.03840291500091553,0.052503135055303574,0.3904360234737396,0.04336193948984146,0.06994332373142242,0.35300713777542114,2.7410261631011963,2.42341947555542,-0.8980591297149658,0.011341912671923637,-1.0,0.39201557636260986,39353.0,42067.0,39989.0,39239.0,40162.8984375,2.45470929145813,2.327397346496582,-0.8659703731536865
1.1,0.042406078428030014,0.052400995045900345,0.3932130038738251,0.050484586507081985,0.05710897594690323,0.388178288936615,2.426042318344116,2.2792768478393555,-0.8735551238059998,0.011155516840517521,-1.0,0.39474865794181824,38989.0,41463.0,40901.0,39535.0,40222.140625,2.1514947414398193,2.1818134784698486,-0.8398855924606323
1.12,0.04243222251534462,0.05051988363265991,0.3976920247077942,0.050484586507081985,0.05710897594690323,0.388178288936615,2.143510580062866,2.1797001361846924,-0.8396786451339722,0.011112784035503864,-1.0,0.3992830514907837,38747.0,40471.0,40603.0,39891.0,39928.87109375,1.8818128108978271,2.1334335803985596,-0.7905306220054626
1.14,0.042282454669475555,0.04786441847681999,0.4008599817752838,0.050484586507081985,0.05710897594690323,0.388178288936615,1.8720879554748535,2.130944013595581,-0.7902849912643433,0.01110699214041233,-1.0,0.4024451971054077,38785.0,41139.0,40587.0,38933.0,39861.35546875,1.5700560808181763,2.070192337036133,-0.7451605796813965
1.16,0.04208861291408539,0.04583081603050232,0.40429309010505676,0.05041844770312309,0.04985243082046509,0.39812523126602173,1.5700560808181763,2.070192337036133,-0.7451605796813965,0.01091078482568264,-1.0,0.40553778409957886,38767.0,40373.0,39891.0,40141.0,39793.08984375,1.2751437425613403,1.9660465717315674,-0.7398428320884705
1.18,0.04428493604063988,0.04424786940217018,0.4071115255355835,0.05041844770312309,0.04985243082046509,0.39812523126602173,1.2829267978668213,1.9626494646072388,-0.7399836182594299,0.010906419716775417,-1.0,0.40868860483169556,38658.0,40936.0,40452.0,38886.0,39733.5,0.979899525642395,1.881636381149292,-0.704557478427887
1.2,0.04373376443982124,0.04182681813836098,0.4107538163661957,0.05041844770312309,0.04985243082046509,0.39812523126602173,0.9875673055648804,1.8784840106964111,-0.7047011852264404,0.010889563709497452,-1.0,0.4123460650444031,37945.0,40913.0,40199.0,39295.0,39588.04296875,0.6977725625038147,1.8306865692138672,-0.6768938302993774
1.22,0.04281468689441681,0.03886966034770012,0.4139160215854645,0.04929477721452713,0.04163330793380737,0.40818268060684204,0.7177111506462097,1.8333232402801514,-0.6772854328155518,0.010708414018154144,-1.0,0.4151470959186554,38905.0,40319.0,39515.0,39697.0,39609.5546875,0.4242747724056244,1.73458993434906,-0.6913401484489441
1.24,0.04411995783448219,0.03706568479537964,0.41670286655426025,0.04929477721452713,0.04163330793380737,0.40818268060684204,0.43179959058761597,1.7287936210632324,-0.69148850440979,0.01072635781019926,-1.0,0.41796940565109253,38288.0,40944.0,40350.0,38986.0,39642.61328125,0.1746158003807068,1.598292350769043,-0.653867244720459
1.26,0.04323117434978485,0.034467920660972595,0.4194771349430084,0.04817841574549675,0.03597982972860336,0.41472986340522766,0.1746158003807068,1.598292350769043,-0.653867244720459,0.010589148849248886,-1.0,0.42070940136909485,37770.0,41028.0,41268.0,38534.0,39650.53125,-0.046558625996112823,1.485971450805664,-0.6485388875007629
1.28,0.0432707741856575,0.032170988619327545,0.42218145728111267,0.04817841574549675,0.03597982972860336,0.41472986340522766,-0.04361821338534355,1.49221670627594,-0.6485388278961182,0.01058551762253046,-1.0,0.42364826798439026,40099.0,40489.0,39121.0,38803.0,39628.53125,-0.2785959541797638,1.4382989406585693,-0.6000542640686035
1.3,0.0423545204102993,0.02917979285120964,0.4238954186439514,0.046599943190813065,0.030397318303585052,0.42092078924179077,-0.2642351984977722,1.4386489391326904,-0.6002604961395264,0.010563002899289131,-1.0,0.4252452850341797,39533.0,40503.0,39367.0,40101.0,39876.62109375,-0.4779115617275238,1.3031960725784302,-0.6114152073860168
1.32,0.042351134121418,0.02693837322294712,0.42660975456237793,0.046599943190813065,0.030397318303585052,0.42092078924179077,-0.48453348875045776,1.2971895933151245,-0.6113952994346619,0.010571014136075974,-1.0,0.4279489815235138,39426.0,40384.0,39728.0,39962.0,39875.890625,-0.6850108504295349,1.1884169578552246,-0.585074245929718
1.34,0.04119875282049179,0.02428387850522995,0.4302027225494385,0.0446772500872612,0.02505672723054886,0.4270280599594116,-0.6850108504295349,1.1884169578552246,-0.585074245929718,0.010430566966533661,-1.0,0.43140971660614014,38051.0,40251.0,41029.0,39445.0,39694.57421875,-0.8739935755729675,1.0784426927566528,-0.5939573645591736
1.36,0.04070081561803818,0.021836020052433014,0.43276625871658325,0.0446772500872612,0.02505672723054886,0.4270280599594116,-0.8739935755729675,1.0784426927566528,-0.5939573645591736,0.010429254733026028,-1.0,0.43411335349082947,38856.0,40984.0,40004.0,38880.0,39681.5625,-1.0495465993881226,1.0075368881225586,-0.5524335503578186
1.38,0.039438921958208084,0.019376663491129875,0.43576255440711975,0.0425562709569931,0.019812792539596558,0.4328041672706604,-1.054946780204773,1.0011757612228394,-0.5524742007255554,0.010334483347833157,-1.0,0.43695276975631714,39137.0,41233.0,39173.0,38969.0,39628.33203125,-1.1980483531951904,0.8719190955162048,-0.5394414663314819
1.4,0.03880029171705246,0.016874846071004868,0.43827611207962036,0.0425562709569931,0.019812792539596558,0.4328041672706604,-1.1872386932373047,0.8653539419174194,-0.5396479964256287,0.010332589969038963,-1.0,0.4395926594734192,38257.0,40519.0,39845.0,38782.0,39605.2265625,-1.3213653564453125,0.7354401350021362,-0.5133817791938782
1.42,0.037483811378479004,0.0148052629083395,0.4406462013721466,0.0425562709569931,0.019812792539596558,0.4328041672706604,-1.3262008428573608,0.7295897603034973,-0.5134475231170654,0.01035225111991167,-1.0,0.4419269561767578,38348.0,41120.0,40046.0,39030.0,39636.85546875,-1.4434634447097778,0.6336736083030701,-0.21252453327178955
1.44,0.03662480041384697,0.012369873002171516,0.44312214851379395,0.04032096639275551,0.013841360807418823,0.44060954451560974,-1.4434634447097778,0.6336736083030701,-0.21252453327178955,0.010312194935977459,-1.0,0.4443840980529785,37826.0,41250.0,39836.0,39576.0,39622.72265625,-1.5456597805023193,0.5325039029121399,-0.21751317381858826
1.46,0.03521013259887695,0.010156531818211079,0.44563472270965576,0.04032096639275551,0.013841360807418823,0.44060954451560974,-1.5456597805023193,0.5325039029121399,-0.21751317381858826,0.010286937467753887,-1.0,0.44735193252563477,39064.0,39648.0,38860.0,40496.0,39517.21875,-1.6309260129928589,0.40358683466911316,-0.24119947850704193
1.48,0.03387527912855148,0.007916538044810295,0.4486105144023895,0.04032096639275551,0.013841360807418823,0.44060954451560974,-1.6333229541778564,0.3956778049468994,-0.24134261906147003,0.010286766104400158,-1.0,0.4498591423034668,38373.0,40287.0,39633.0,39691.0,39496.546875,-1.7159229516983032,0.2781720459461212,-0.23895826935768127
1.5,0.03227629512548447,0.005751935765147209,0.4510926902294159,0.04032096639275551,0.013841360807418823,0.44060954451560974,-1.7159229516983032,0.2781720459461212,-0.23895826935768127,0.01028355211019516,-1.0,0.4523206651210785,37955.0,41863.0,39855.0,38599.0,39568.5546875,-1.7907768487930298,0.1940467208623886,-0.24010683596134186
1.52,0.030560921877622604,0.0037185181863605976,0.4530377984046936,0.04032096639275551,0.013841360807418823,0.44060954451560974,-1.785874366760254,0.19996176660060883,-0.24000494182109833,0.010294311679899693,-1.0,0.4542132019996643,39356.0,39936.0,38462.0,40534.0,39572.56640625,-1.8278841972351074,0.10909730941057205,-0.2597579061985016
1.54,0.029180023819208145,0.0020359728951007128,0.45537567138671875,0.033678144216537476,0.003077983856201172,0.45492666959762573,-1.8278841972351074,0.10909730941057205,-0.2597579061985016,0.010287118144333363,-1.0,0.45649099349975586,38813.0,41657.0,39241.0,38709.0,39605.40234375,-1.8813199996948242,-0.05012426897883415,-0.28520527482032776
1.56,0.02889968827366829,0.0006713783368468285,0.45894917845726013,0.033678144216537476,0.003077983856201172,0.45492666959762573,-1.8813199996948242,-0.05012426897883415,-0.28520527482032776,0.010236640460789204,-1.0,0.4601299464702606,37258.0,42042.0,40334.0,37842.0,39369.91796875,-1.8850321769714355,-0.16384759545326233,-0.2852790653705597
1.58,0.027694039046764374,-0.0008910282631404698,0.4612974524497986,0.033678144216537476,0.003077983856201172,0.45492666959762573,-1.8783093690872192,-0.1699838936328888,-0.2854020893573761,0.010238966904580593,-1.0,0.4624441862106323,38881.0,40251.0,38609.0,39815.0,39389.96484375,-1.8848533630371094,-0.2313784956932068,-0.29207849502563477
1.6,0.02625311352312565,-0.0021446452010422945,0.46488675475120544,0.033678144216537476,0.003077983856201172,0.45492666959762573,-1.883389949798584,-0.23759235441684723,-0.2921994626522064,0.010213418863713741,-1.0,0.4660748541355133,38458.0,40132.0,38568.0,39434.0,39148.3515625,-1.8794379234313965,-0.31806519627571106,-0.3026280105113983
1.62,0.02443920262157917,-0.003327776910737157,0.46724236011505127,0.029472967609763145,-0.0021870285272598267,0.4646283984184265,-1.8794379234313965,-0.31806519627571106,-0.3026280105113983,0.010147085413336754,-1.0,0.4682520925998688,38361.0,41837.0,38659.0,37879.0,39184.00390625,-1.851151943206787,-0.4001048803329468,-0.35610976815223694
1.64,0.024357376620173454,-0.004020391497761011,0.469567209482193,0.029472967609763145,-0.0021870285272598267,0.4646283984184265,-1.851151943206787,-0.4001048803329468,-0.35610976815223694,0.010141484439373016,-1.0,0.4706852436065674,43151.0,35219.0,44881.0,33509.0,39190.5546875,-1.8069275617599487,-0.4788050353527069,-0.10199247300624847
1.66,0.02416606806218624,-0.00500317569822073,0.471657931804657,0.028292445465922356,-0.003950588405132294,0.4682612419128418,-1.8069275617599487,-0.4788050353527069,-0.10199247300624847,0.010083338245749474,-1.0,0.47272083163261414,37018.0,41094.0,39784.0,39200.0,39274.53515625,-1.7629650831222534,-0.5105208158493042,-0.1479506641626358
1.68,0.022906985133886337,-0.0058494326658546925,0.47375693917274475,0.02683623507618904,-0.004819765686988831,0.47145774960517883,-1.7629650831222534,-0.5105208158493042,-0.1479506641626358,0.010050589218735695,-1.0,0.47433340549468994,37196.0,41900.0,40358.0,38230.0,39421.84375,-1.7022026777267456,-0.5559126138687134,-0.24622763693332672
1.7,0.022454725578427315,-0.006471866276115179,0.4752943813800812,0.02683623507618904,-0.004819765686988831,0.47145774960517883,-1.7022026777267456,-0.5559126138687134,-0.24622763693332672,0.010049359872937202,-1.0,0.47623154520988464,37479.0,41895.0,40185.0,38421.0,39495.296875,-1.616518497467041,-0.5244753956794739,-0.25793522596359253
1.72,0.021190738305449486,-0.007103476207703352,0.4771440625190735,0.02683623507618904,-0.004819765686988831,0.47145774960517883,-1.616518497467041,-0.5244753956794739,-0.25793522596359253,0.010048473253846169,-1.0,0.4780370593070984,38406.0,41084.0,39086.0,39404.0,39495.0546875,-1.552422046661377,-0.5300189256668091,-0.28494712710380554
1.74,0.020001381635665894,-0.007605250459164381,0.4792194366455078,0.02683623507618904,-0.004819765686988831,0.47145774960517883,-1.552422046661377,-0.5300189256668091,-0.28494712710380554,0.010036463849246502,-1.0,0.4800938069820404,39224.0,40444.0,38192.0,40284.0,39536.44921875,-1.4793314933776855,-0.5570123195648193,-0.3166819214820862
1.76,0.01900384947657585,-0.007845091633498669,0.4809514880180359,0.02384844794869423,-0.007028855383396149,0.478698194026947,-1.4793314933776855,-0.5570123195648193,-0.3166819214820862,0.009987504221498966,-1.0,0.48166748881340027,37030.0,41962.0,40660.0,38756.0,39602.2421875,-1.406736135482788,-0.6021747589111328,-0.395707905292511
1.78,0.019079072400927544,-0.007946019992232323,0.48253464698791504,0.023174360394477844,-0.0072681233286857605,0.48030251264572144,-1.406736135482788,-0.6021747589111328,-0.395707905292511,0.009936122223734856,-1.0,0.48323434591293335,38357.0,41523.0,39273.0,39407.0,39640.1640625,-1.3134511709213257,-0.5750062465667725,-0.4451253414154053
1.8,0.01905185356736183,-0.007725131697952747,0.48402169346809387,0.022568752989172935,-0.007419586181640625,0.4820070266723633,-1.3219172954559326,-0.5766296982765198,-0.44516199827194214,0.00989502016454935,-1.0,0.4846932291984558,39033.0,41137.0,38645.0,39933.0,39687.19140625,-1.2161877155303955,-0.5809076428413391,-0.5097532272338867
1.82,0.018656674772500992,-0.007782687433063984,0.4855594336986542,0.022568752989172935,-0.007419586181640625,0.4820070266723633,-1.2137131690979004,-0.5734869241714478,-0.5096123814582825,0.009886454790830612,-1.0,0.48631396889686584,37483.0,42035.0,40215.0,38979.0,39678.09765625,-1.0882633924484253,-0.5609182119369507,-0.5288475751876831
1.84,0.017721839249134064,-0.007535495795309544,0.4870583415031433,0.022568752989172935,-0.007419586181640625,0.4820070266723633,-1.0959080457687378,-0.5568390488624573,-0.5287789106369019,0.00988595001399517,-1.0,0.48779216408729553,43381.0,36545.0,45595.0,33291.0,39703.6796875,-0.9808102250099182,-0.5363782644271851,-0.2729780375957489
1.86,0.017963875085115433,-0.0076018874533474445,0.48920518159866333,0.02168799191713333,-0.007890298962593079,0.48560044169425964,-0.980358362197876,-0.5359554290771484,-0.29685163497924805,0.009789296425879002,-1.0,0.4899614453315735,37480.0,42302.0,39536.0,38986.0,39576.4609375,-0.8702399730682373,-0.45086246728897095,-0.3485625982284546
1.88,0.017420096322894096,-0.007355354260653257,0.4907058775424957,0.02168799191713333,-0.007890298962593079,0.48560044169425964,-0.8702399730682373,-0.45086246728897095,-0.3485625982284546,0.00978992972522974,-1.0,0.4914388954639435,39356.0,41146.0,38166.0,39704.0,39593.5078125,-0.7717884182929993,-0.40643665194511414,-0.37734031677246094
1.9,0.016558008268475533,-0.00729149067774415,0.4921641945838928,0.02168799191713333,-0.007890298962593079,0.48560044169425964,-0.7717884182929993,-0.40643665194511414,-0.37734031677246094,0.009780899621546268,-1.0,0.49309155344963074,37811.0,41915.0,39621.0,38905.0,39563.6875,-0.6522579789161682,-0.4107304811477661,-0.399103581905365
1.92,0.015966109931468964,-0.0069638025015592575,0.49380889534950256,0.02168799191713333,-0.007890298962593079,0.48560044169425964,-0.6522579789161682,-0.4107304811477661,-0.399103581905365,0.009781076572835445,-1.0,0.4945138394832611,38313.0,42423.0,39013.0,38607.0,39589.86328125,-0.539943516254425,-0.3684260845184326,-0.45141005516052246
1.94,0.015749333426356316,-0.0065390123054385185,0.49520817399024963,0.02168799191713333,-0.007890298962593079,0.48560044169425964,-0.5426419973373413,-0.37973496317863464,-0.45154061913490295,0.009782213717699051,-1.0,0.4958897531032562,38745.0,40579.0,38981.0,40787.0,39773.0703125,-0.4493964910507202,-0.3121972978115082,-0.5204355716705322
1.96,0.01521600503474474,-0.005873712245374918,0.4956895709037781,0.02168799191713333,-0.007890298962593079,0.48560044169425964,-0.4493964910507202,-0.3121972978115082,-0.5204355716705322,0.009798587299883366,-1.0,0.4963005483150482,38676.0,42134.0,39088.0,39302.0,39800.01171875,-0.3708238899707794,-0.2858903110027313,-0.5723145604133606
1.98,0.014501207508146763,-0.0048752776347100735,0.49690109491348267,0.02168799191713333,-0.007890298962593079,0.48560044169425964,-0.3708238899707794,-0.2858903110027313,-0.5723145604133606,0.009797792881727219,-1.0,0.4975510537624359,37985.0,41689.0,39857.0,39789.0,39830.9765625,-0.2640666365623474,-0.24710948765277863,-0.5934605002403259
2.0,0.01399423461407423,-0.004665393847972155,0.49943578243255615,0.02168799191713333,-0.007890298962593079,0.48560044169425964,-0.26015985012054443,-0.24125301837921143,-0.5934144258499146,0.00978807546198368,-1.0,0.500079870223999,25597.0,55497.0,51447.0,25827.0,39592.24609375,-0.15236493945121765,-0.2272534817457199,-0.6524218916893005
2.02,0.013573767617344856,-0.0042996760457754135,0.5007191300392151,0.02168799191713333,-0.007890298962593079,0.48560044169425964,-0.1471371203660965,-0.2341051995754242,-0.6524752974510193,0.009788328781723976,-1.0,0.5013526082038879,35873.0,44637.0,41627.0,36211.0,39587.30859375,-0.07247734069824219,-0.49282801151275635,-0.7206708192825317
2.04,0.014467911794781685,-0.0034730699844658375,0.5019028782844543,0.02168799191713333,-0.007890298962593079,0.48560044169425964,-0.06981208175420761,-0.5202482342720032,-0.7208345532417297,0.009790275245904922,-1.0,0.5025550723075867,42309.0,37355.0,34511.0,43733.0,39477.234375,-0.048634275794029236,-2.3079633712768555,-0.7263242602348328
2.06,0.015480303205549717,-0.0031485091894865036,0.5032239556312561,0.02168799191713333,-0.007890298962593079,0.48560044169425964,-0.046073973178863525,-2.33339524269104,-0.7264286279678345,0.009792035445570946,-1.0,0.5039101839065552,39909.0,40617.0,36363.0,40567.0,39364.9375,-0.013649935834109783,-5.147122859954834,-0.7927889227867126
2.08,0.014857733622193336,-0.002597136190161109,0.5027068257331848,0.02168799191713333,-0.007890298962593079,0.48560044169425964,-0.009810281917452812,-5.169118881225586,-0.7927427291870117,0.009781589731574059,-1.0,0.5027068257331848,40439.0,41411.0,36165.0,40605.0,39655.9609375,0.07607299834489822,-7.719236850738525,-0.8268192410469055
2.1,0.014191673137247562,-0.0018382529960945249,0.503910481929779,0.02168799191713333,-0.007890298962593079,0.48560044169425964,0.07411450892686844,-7.729579448699951,-0.8269950151443481,0.009781123138964176,-1.0,0.503910481929779,38749.0,41983.0,38251.0,39641.0,39656.2421875,0.12050004303455353,-8.781418800354004,-0.8364865779876709
2.12,0.014653000980615616,-0.0016253022477030754,0.5050814747810364,0.02168799191713333,-0.007890298962593079,0.48560044169425964,0.14353545010089874,-9.717838287353516,-0.8427253365516663,0.009776497259736061,-1.0,0.5045003890991211,36146.0,43242.0,41410.0,38502.0,39825.6171875,0.13901729881763458,-10.493245124816895,-0.8419574499130249
2.14,0.015351341105997562,-0.0004558015789370984,0.5055431723594666,0.02168799191713333,-0.007890298962593079,0.48560044169425964,0.12886732816696167,-11.222423553466797,-0.834919810295105,0.0097764628008008,-1.0,0.5055431723594666,38706.0,41700.0,38996.0,40370.0,39943.3046875,0.1072952002286911,-11.847826957702637,-0.8299038410186768
2.16,0.016784245148301125,-0.0003908220387529582,0.5064852833747864,0.02168799191713333,-0.007890298962593079,0.48560044169425964,0.09658635407686234,-12.492280960083008,-0.8180737495422363,0.009777186438441277,-1.0,0.5064852833747864,37905.0,42067.0,39619.0,39709.0,39825.9296875,0.07904118299484253,-13.105895042419434,-0.8221226930618286
2.18,0.019092615693807602,-0.0004245123127475381,0.5088379979133606,0.02168799191713333,-0.007890298962593079,0.48560044169425964,0.06573419272899628,-13.657333374023438,-0.8171753287315369,0.009791441261768341,-1.0,0.5088379979133606,38827.0,41547.0,39083.0,40291.0,39937.6171875,0.05588328838348389,-14.211252212524414,-0.8158246278762817
2.2,0.02192634344100952,-0.00014616311818826944,0.5097265839576721,0.02168799191713333,-0.007890298962593079,0.48560044169425964,0.049780745059251785,-14.708840370178223,-0.8084739446640015,0.00979477446526289,-1.0,0.5097265839576721,39369.0,41539.0,38929.0,40519.0,40089.921875,0.056119199842214584,-15.190768241882324,-0.8018704056739807
2.22,0.02647712081670761,3.9541841942991596e-06,0.5102851986885071,0.02168799191713333,-0.007890298962593079,0.48560044169425964,0.0683436468243599,-15.619373321533203,-0.7887123227119446,0.00979346502572298,-1.0,0.5102851986885071,38261.0,42743.0,40429.0,39783.0,40304.12109375,0.08380499482154846,-16.012298583984375,-0.7721191644668579
2.24,0.03204263001680374,0.0003607670951168984,0.5108522176742554,0.02168799191713333,-0.007890298962593079,0.48560044169425964,0.0884983241558075,-16.339292526245117,-0.7597947120666504,0.00979346502572298,-1.0,0.5108522176742554,37783.0,43649.0,41431.0,39181.0,40511.98046875,0.07448538392782211,-16.659833908081055,-0.7423723936080933
2.26,0.03868688642978668,0.0006994540453888476,0.512344479560852,0.02168799191713333,-0.007890298962593079,0.48560044169425964,0.08318134397268295,-16.957693099975586,-0.7283182144165039,0.009801260195672512,-1.0,0.512344479560852,39667.0,41505.0,39619.0,41293.0,40521.09375,0.07827015221118927,-17.228593826293945,-0.7210233807563782
2.28,0.047268353402614594,0.0009801984997466207,0.5126921534538269,0.02168799191713333,-0.007890298962593079,0.48560044169425964,0.06524544954299927,-17.499561309814453,-0.7118464112281799,0.009795964695513248,-1.0,0.5126921534538269,39575.0,42851.0,40227.0,40219.0,40718.41796875,0.06368646770715714,-17.717527389526367,-0.698706328868866
2.3,0.055302828550338745,0.0005788880516774952,0.5138515830039978,0.02168799191713333,-0.007890298962593079,0.48560044169425964,0.05682753771543503,-17.856203079223633,-0.6829954385757446,0.00980830006301403,-1.0,0.5138515830039978,37892.0,44374.0,41826.0,38880.0,40743.14453125,0.056064069271087646,-17.9168643951416,-0.6703510284423828
2.32,0.06580088287591934,0.0006162848439998925,0.5140383243560791,0.02168799191713333,-0.007890298962593079,0.48560044169425964,0.06338959187269211,-17.893478393554688,-0.6565536856651306,0.009805919602513313,-1.0,0.5140383243560791,39782.0,42974.0,40252.0,40712.0,40930.0390625,0.056608960032463074,-17.810897827148438,-0.651259183883667
2.34,0.0767899826169014,0.0009067679056897759,0.5141390562057495,0.02168799191713333,-0.007890298962593079,0.48560044169425964,0.035372719168663025,-17.6379337310791,-0.6403470635414124,0.009806831367313862,-1.0,0.5133417248725891,39368.0,43464.0,41286.0,40794.0,41228.36328125,0.023654531687498093,-17.478404998779297,-0.6325146555900574
2.36,0.0896172970533371,0.0004037271428387612,0.5132417678833008,0.02168799191713333,-0.007890298962593079,0.48560044169425964,0.01580023020505905,-17.250057220458984,-0.6313478350639343,0.009805945679545403,-1.0,0.5132417678833008,39826.0,43684.0,41014.0,40980.0,41376.984375,0.014444028027355671,-17.011362075805664,-0.6292901039123535
2.38,0.10197252780199051,-0.0001274403475690633,0.5131335854530334,0.02168799191713333,-0.007890298962593079,0.48560044169425964,0.006028955336660147,-16.683757781982422,-0.6252371072769165,0.009819957427680492,-1.0,0.5131335854530334,40050.0,43450.0,41154.0,41246.0,41475.86328125,-0.0004934462485834956,-16.40663719177246,-0.616359293460846
2.4,0.1186857745051384,-0.0007993938634172082,0.5127155780792236,0.02168799191713333,-0.007890298962593079,0.48560044169425964,-0.008497530594468117,-16.02611541748047,-0.6146690249443054,0.009804768487811089,-1.0,0.5127155780792236,37684.0,44762.0,43278.0,40256.0,41495.91796875,-0.011544975452125072,-15.668213844299316,-0.609245240688324
2.42,0.13426384329795837,-0.0007845608633942902,0.5125744342803955,0.02168799191713333,-0.007890298962593079,0.48560044169425964,-0.011845873668789864,-15.133587837219238,-0.6111276149749756,0.009811836294829845,-1.0,0.5125744342803955,40048.0,44340.0,40752.0,40732.0,41468.453125,-0.04678201302886009,-14.661582946777344,-0.6147693395614624
2.44,0.15241335332393646,-0.0004653710057027638,0.5118283033370972,0.02168799191713333,-0.007890298962593079,0.48560044169425964,-0.08796984702348709,-14.13552474975586,-0.6184942126274109,0.009804652072489262,-1.0,0.5118283033370972,38515.0,44381.0,42449.0,40607.0,41488.58203125,-0.13062268495559692,-13.66988754272461,-0.6261789798736572
2.46,0.16931398212909698,-0.00018346714205108583,0.5118086934089661,0.02168799191713333,-0.007890298962593079,0.48560044169425964,-0.1619865596294403,-13.092646598815918,-0.6270117163658142,0.00981844775378704,-1.0,0.5118086934089661,38792.0,44792.0,41786.0,40106.0,41369.9375,-0.15747155249118805,-12.586662292480469,-0.6325724124908447
2.48,0.18796110153198242,-0.0012785936705768108,0.5121136903762817,0.02168799191713333,-0.007890298962593079,0.48560044169425964,-0.14452479779720306,-12.011621475219727,-0.6382998824119568,0.009824037551879883,-1.0,0.5121136903762817,37220.0,46232.0,42760.0,38248.0,41115.0625,-0.133273184299469,-11.400139808654785,-0.6442605257034302
2.5,0.2061779499053955,-0.0012511592358350754,0.5124121904373169,0.02168799191713333,-0.007890298962593079,0.48560044169425964,-0.15130919218063354,-10.84307861328125,-0.651155412197113,0.009840675629675388,-1.0,0.5124121904373169,36929.0,44863.0,42329.0,39563.0,40921.984375,-0.18466725945472717,-10.1910400390625,-0.6661450862884521
2.52,0.22627362608909607,-7.785361958667636e-05,0.5131264925003052,0.02168799191713333,-0.007890298962593079,0.48560044169425964,-0.22655221819877625,-9.65242862701416,-0.6868127584457397,0.009846402332186699,-1.0,0.5131264925003052,37493.0,44473.0,41253.0,39509.0,40682.8515625,-0.2708844542503357,-9.015970230102539,-0.7069913744926453
2.54,0.24593091011047363,-1.195479944726685e-05,0.5137694478034973,0.02168799191713333,-0.007890298962593079,0.48560044169425964,-0.2923092544078827,-8.50079345703125,-0.7268732786178589,0.009862306527793407,-1.0,0.5137694478034973,37680.0,44656.0,40628.0,38956.0,40480.91796875,-0.3052939176559448,-7.927104473114014,-0.7452876567840576
2.56,0.2661067247390747,-9.984185453504324e-05,0.5145729780197144,0.02168799191713333,-0.007890298962593079,0.48560044169425964,-0.32054808735847473,-7.427956581115723,-0.7561594247817993,0.009874919429421425,-1.0,0.5156657695770264,36591.0,44153.0,40983.0,38625.0,40088.24609375,-0.3048171103000641,-6.8290510177612305,-0.7714277505874634
2.58,0.28715482354164124,-0.0004523293173406273,0.5167033076286316,0.02168799191713333,-0.007890298962593079,0.48560044169425964,-0.29155203700065613,-6.3450093269348145,-0.7834558486938477,0.009886909276247025,-1.0,0.5167033076286316,35840.0,43728.0,41106.0,38986.0,39915.359375,-0.2899074852466583,-5.768059253692627,-0.8020438551902771
2.6,0.3075941205024719,-0.0006246759439818561,0.517882227897644,0.02168799191713333,-0.007890298962593079,0.48560044169425964,-0.2854764759540558,-5.288913249969482,-0.8210874199867249,0.009906456805765629,-1.0,0.517882227897644,35937.0,43411.0,40779.0,38973.0,39775.28515625,-0.2834673523902893,-4.751391410827637,-0.8394410610198975
2.62,0.3276839852333069,-0.000863706402014941,0.519009530544281,0.02168799191713333,-0.007890298962593079,0.48560044169425964,-0.2809036374092102,-4.303216934204102,-0.8626267313957214,0.009930246509611607,-1.0,0.519009530544281,35683.0,43503.0,40795.0,38659.0,39660.87890625,-0.2789870500564575,-3.8010196685791016,-0.8768585324287415
2.64,0.3501901626586914,-0.0012209737906232476,0.5202845931053162,0.02168799191713333,-0.007890298962593079,0.48560044169425964,-0.2691187560558319,-3.388524293899536,-0.8926189541816711,0.009936997666954994,-1.0,0.5202845931053162,35205.0,43905.0,40993.0,38093.0,39549.12890625,-0.2684209644794464,-2.9176602363586426,-0.9069787263870239
2.66,0.364475280046463,-0.0022809836082160473,0.5203874111175537,0.02168799191713333,-0.007890298962593079,0.48560044169425964,-0.2672078013420105,-2.4515199661254883,-0.9230020642280579,0.01001010648906231,-1.0,0.5203874111175537,35509.0,44169.0,40737.0,38453.0,39717.7890625,-0.267616868019104,-2.115514039993286,-0.9411566853523254
2.68,0.38625314831733704,-0.002376243006438017,0.5216320753097534,0.02168799191713333,-0.007890298962593079,0.48560044169425964,-0.28180480003356934,-1.7033843994140625,-0.9591360688209534,0.010020175017416477,-1.0,0.5216320753097534,35103.0,44325.0,40967.0,37993.0,39597.34765625,-0.28495439887046814,-1.3837981224060059,-0.9816228747367859
2.7,0.406012624502182,-0.0026496427599340677,0.5229414701461792,0.02168799191713333,-0.007890298962593079,0.48560044169425964,-0.2874452471733093,-1.0457266569137573,-1.0026410818099976,0.010041235946118832,-1.0,0.5229414701461792,35173.0,44169.0,40649.0,37945.0,39484.41796875,-0.27618691325187683,-0.8028067946434021,-1.0286612510681152
2.72,0.4286137521266937,-0.00324549013748765,0.5242558121681213,0.02168799191713333,-0.007890298962593079,0.48560044169425964,-0.2648230195045471,-0.5341400504112244,-1.0466091632843018,0.010045423172414303,-1.0,0.5242558121681213,35127.0,43365.0,40419.0,38681.0,39398.4765625,-0.22891052067279816,-0.31506797671318054,-1.0618516206741333
2.74,0.45154279470443726,-0.0048272693529725075,0.5257691144943237,0.02168799191713333,-0.007890298962593079,0.48560044169425964,-0.22108954191207886,-0.0569344125688076,-1.0789042711257935,0.010047394782304764,-1.0,0.5257691144943237,35421.0,44241.0,39769.0,37709.0,39285.3828125,-0.21347826719284058,0.11746352910995483,-1.1002277135849
2.76,0.4719609022140503,-0.005216407589614391,0.5271840691566467,0.02168799191713333,-0.007890298962593079,0.48560044169425964,-0.21661441028118134,0.36616119742393494,-1.1302356719970703,0.010060988366603851,-1.0,0.5271840691566467,35919.0,42897.0,39063.0,38977.0,39214.53515625,-0.21893183887004852,0.5071541666984558,-1.1522339582443237
2.78,0.49614977836608887,-0.005726487375795841,0.528536319732666,0.02168799191713333,-0.007890298962593079,0.48560044169425964,-0.21333523094654083,0.7085800170898438,-1.1741058826446533,0.010056019760668278,-1.0,0.5291018486022949,36641.0,42989.0,38133.0,38565.0,39082.47265625,-0.20052947103977203,0.8316294550895691,-1.1982916593551636
2.8,0.5168593525886536,-0.006467799190431833,0.5305384993553162,0.02168799191713333,-0.007890298962593079,0.48560044169425964,-0.17639270424842834,1.058875560760498,-1.2173919677734375,0.010066051036119461,-1.0,0.5305384993553162,34645.0,44029.0,40061.0,37545.0,39070.41015625,-0.15457160770893097,1.316992998123169,-1.2327553033828735
2.82,0.5409875512123108,-0.007233229000121355,0.5318597555160522,0.02168799191713333,-0.007890298962593079,0.48560044169425964,-0.13270123302936554,1.526461124420166,-1.2476693391799927,0.010063287802040577,-1.0,0.5318597555160522,35470.0,43362.0,39192.0,38908.0,39233.30859375,-0.1313166618347168,1.8510349988937378,-1.2666441202163696
2.84,0.560953676700592,-0.007702699396759272,0.5324312448501587,0.02168799191713333,-0.007890298962593079,0.48560044169425964,-0.12431859970092773,2.1058201789855957,-1.2939231395721436,0.010074730031192303,-1.0,0.5324312448501587,36045.0,43065.0,38887.0,39231.0,39307.6875,-0.1219920963048935,2.4308507442474365,-1.313698172569275
2.86,0.5807905197143555,-0.008052106015384197,0.5335618257522583,0.02168799191713333,-0.007890298962593079,0.48560044169425964,-0.12949109077453613,2.7079403400421143,-1.33062744140625,0.010083485394716263,-1.0,0.5335618257522583,36511.0,42257.0,38579.0,39989.0,39334.6875,-0.13753709197044373,3.06190824508667,-1.354780912399292
2.882,0.6021646857261658,-0.0072840373031795025,0.5359270572662354,0.6415806412696838,-0.005052447319030762,0.5331387519836426,-0.1433618664741516,3.328366279602051,-1.3724123239517212,0.01021051499992609,-1.0,0.5360196828842163,36016.0,42506.0,38706.0,39192.0,39105.33203125,-0.14974693953990936,3.516697406768799,-1.4773077964782715
2.902,0.6562753915786743,-0.005525512155145407,0.5371729135513306,0.6619423031806946,-0.004982933402061462,0.5342873930931091,-0.14981648325920105,3.841538190841675,-1.4845530986785889,0.010185470804572105,-1.0,0.5370445847511292,36165.0,42899.0,38685.0,38779.0,39132.03515625,-0.14281389117240906,4.19590950012207,-1.5451288223266602
2.92,0.6810421943664551,-0.005365507211536169,0.5391697883605957,0.6619423031806946,-0.004982933402061462,0.5342873930931091,-0.1427525281906128,4.567386627197266,-1.5401350259780884,0.010185801424086094,-1.0,0.5391697883605957,34318.0,43732.0,39972.0,37962.0,38996.3125,-0.12583023309707642,5.038909912109375,-1.536679983139038
2.94,0.7033430337905884,-0.005399417132139206,0.5402684807777405,0.7013688087463379,-0.004818074405193329,0.5363112092018127,-0.11393720656633377,5.517640590667725,-1.5371060371398926,0.010115121491253376,-1.0,0.5400753021240234,34691.0,42665.0,39757.0,39243.0,39089.4921875,-0.1047786995768547,6.087045669555664,-1.6004180908203125
2.96,0.7243780493736267,-0.005278296303004026,0.5419779419898987,0.7013688087463379,-0.004818074405193329,0.5363112092018127,-0.08602004498243332,6.6182098388671875,-1.6042786836624146,0.010098920203745365,-1.0,0.5419779419898987,34501.0,43453.0,40007.0,38011.0,38993.73828125,-0.09000536054372787,7.1789116859436035,-1.6015561819076538
2.98,0.7444700002670288,-0.005239647347480059,0.5431087613105774,0.7013688087463379,-0.004818074405193329,0.5363112092018127,-0.09235367923974991,7.745029449462891,-1.5945183038711548,0.010177434422075748,-1.0,0.5431087613105774,35275.0,43865.0,39121.0,37959.0,39055.140625,-0.08511713147163391,8.247611045837402,-1.5920555591583252
3.0,0.7648125290870667,-0.00525744678452611,0.5440486669540405,0.756287157535553,-0.004454232752323151,0.5387332439422607,-0.06531710922718048,8.745709419250488,-1.5917211771011353,0.009988521225750446,-1.0,0.5454714894294739,34745.0,43687.0,39223.0,37689.0,38836.78125,-0.042747270315885544,9.163878440856934,-1.6345374584197998
3.02,0.7823971509933472,-0.005083142779767513,0.5464511513710022,0.756287157535553,-0.004454232752323151,0.5387332439422607,-0.028326166793704033,9.565445899963379,-1.6303048133850098,0.00999851431697607,-1.0,0.5464513301849365,34444.0,43438.0,39650.0,38136.0,38917.51171875,0.012421457096934319,9.901001930236816,-1.6838328838348389
3.04,0.8017715811729431,-0.005346018821001053,0.547322690486908,0.756287157535553,-0.004454232752323151,0.5387332439422607,0.04965496435761452,10.279666900634766,-1.6808655261993408,0.010006614029407501,-1.0,0.5473228096961975,35618.0,43730.0,39018.0,37966.0,39083.66796875,0.06815756857395172,10.56955623626709,-1.7061604261398315
3.06,0.8202291131019592,-0.0053107524290680885,0.547688364982605,0.756287157535553,-0.004454232752323151,0.5387332439422607,0.07921505719423294,10.88167667388916,-1.6915500164031982,0.010033804923295975,-1.0,0.547688364982605,35309.0,42981.0,39529.0,39065.0,39221.76171875,0.1060577854514122,11.15097427368164,-1.6764283180236816
3.08,0.8378421664237976,-0.005328924395143986,0.548274040222168,0.756287157535553,-0.004454232752323151,0.5387332439422607,0.12233567237854004,11.465044021606445,-1.6658049821853638,0.010047280229628086,-1.0,0.5482741594314575,35601.0,43445.0,39665.0,38789.0,39375.36328125,0.1366363763809204,11.708677291870117,-1.6972792148590088
3.1,0.854547917842865,-0.005261189304292202,0.5487529039382935,0.756287157535553,-0.004454232752323151,0.5387332439422607,0.13176113367080688,11.951226234436035,-1.6824803352355957,0.010059704072773457,-1.0,0.548753023147583,35639.0,44295.0,39711.0,38415.0,39515.9453125,0.15162192285060883,12.145834922790527,-1.7135168313980103
3.12,0.8700560927391052,-0.005416639149188995,0.5490730404853821,0.756287157535553,-0.004454232752323151,0.5387332439422607,0.16843849420547485,12.35657787322998,-1.7048479318618774,0.010076518170535564,-1.0,0.5490730404853821,35732.0,44224.0,39880.0,38732.0,39642.3671875,0.19754095375537872,12.517419815063477,-1.6954925060272217
3.14,0.8858656883239746,-0.005546887870877981,0.5487735867500305,0.756287157535553,-0.004454232752323151,0.5387332439422607,0.2240663766860962,12.625682830810547,-1.6810506582260132,0.010078385472297668,-1.0,0.5487736463546753,36818.0,43464.0,39366.0,39872.0,39880.85546875,0.25137585401535034,12.75749683380127,-1.704613208770752
3.16,0.8996507525444031,-0.0054651424288749695,0.5488024353981018,0.756287157535553,-0.004454232752323151,0.5387332439422607,0.259797066450119,12.802018165588379,-1.687964677810669,0.010090661235153675,-1.0,0.5488024353981018,36244.0,44086.0,40244.0,39466.0,40010.01953125,0.26702824234962463,12.827557563781738,-1.6652276515960693
3.18,0.9127412438392639,-0.005728374235332012,0.5481699705123901,0.756287157535553,-0.004454232752323151,0.5387332439422607,0.2699292302131653,12.834569931030273,-1.6474884748458862,0.010099153965711594,-1.0,0.5481699705123901,36660.0,44070.0,40294.0,39908.0,40233.55859375,0.2761335074901581,12.854559898376465,-1.6276544332504272
3.2,0.9252814650535583,-0.00577020226046443,0.5479434728622437,0.756287157535553,-0.004454232752323151,0.5387332439422607,0.2752918004989624,12.824776649475098,-1.6130439043045044,0.01010177657008171,-1.0,0.5479435324668884,36423.0,44365.0,40665.0,39927.0,40345.00390625,0.2840054929256439,12.807548522949219,-1.642928957939148
3.22,0.9363980889320374,-0.005617521703243256,0.5476475954055786,0.756287157535553,-0.004454232752323151,0.5387332439422607,0.26899003982543945,12.73896312713623,-1.629160761833191,0.010106891393661499,-1.0,0.5479792356491089,38207.0,43695.0,39139.0,40539.0,40395.13671875,0.2638873755931854,12.67993450164795,-1.6435109376907349
3.24,0.9463514685630798,-0.005741413217037916,0.547653079032898,0.756287157535553,-0.004454232752323151,0.5387332439422607,0.2610568106174469,12.581801414489746,-1.6207555532455444,0.010110881179571152,-1.0,0.547653079032898,37925.0,43827.0,39513.0,40587.0,40463.03125,0.2644244134426117,12.465897560119629,-1.6261897087097168
3.26,0.9561524987220764,-0.00585115747526288,0.5472880005836487,0.756287157535553,-0.004454232752323151,0.5387332439422607,0.264910489320755,12.32999324798584,-1.6043492555618286,0.010111398063600063,-1.0,0.5472880005836487,36611.0,45289.0,40645.0,39371.0,40479.90234375,0.2680106461048126,12.179947853088379,-1.616439700126648
3.28,0.965172290802002,-0.005957964342087507,0.5471671223640442,0.756287157535553,-0.004454232752323151,0.5387332439422607,0.24771568179130554,12.02823543548584,-1.6030261516571045,0.01011274941265583,-1.0,0.5471671223640442,36779.0,44403.0,40619.0,40243.0,40511.921875,0.2431010603904724,11.862993240356445,-1.6169897317886353
3.3,0.9728155732154846,-0.006328589748591185,0.5468015670776367,0.756287157535553,-0.004454232752323151,0.5387332439422607,0.22188104689121246,11.675634384155273,-1.60451340675354,0.010112625546753407,-1.0,0.5468015670776367,37565.0,44195.0,39817.0,40543.0,40530.21484375,0.1946539580821991,11.466832160949707,-1.61301589012146
3.32,0.9802312254905701,-0.006378436926752329,0.5450659394264221,0.756287157535553,-0.004454232752323151,0.5387332439422607,0.1771703064441681,11.232007026672363,-1.6006745100021362,0.010104585438966751,-1.0,0.5450659394264221,38257.0,44811.0,39579.0,40537.0,40796.1875,0.16294296085834503,10.986922264099121,-1.6065744161605835
3.34,0.9857926964759827,-0.006354175508022308,0.5445541143417358,0.756287157535553,-0.004454232752323151,0.5387332439422607,0.14359454810619354,10.71882438659668,-1.5906962156295776,0.010102330707013607,-1.0,0.5445541143417358,36804.0,43938.0,40988.0,41406.0,40784.8046875,0.13990996778011322,10.474958419799805,-1.605148196220398
3.36,0.9908328652381897,-0.006433125585317612,0.5431983470916748,0.756287157535553,-0.004454232752323151,0.5387332439422607,0.14092163741588593,10.2310209274292,-1.5964221954345703,0.010095170699059963,-1.0,0.5431983470916748,37183.0,43241.0,40817.0,42459.0,40925.90234375,0.10653102397918701,9.995189666748047,-1.607529878616333
3.38,0.9945966601371765,-0.00669345585629344,0.5427069067955017,0.756287157535553,-0.004454232752323151,0.5387332439422607,0.08243202418088913,9.70536994934082,-1.604514718055725,0.010091922245919704,-1.0,0.5427069067955017,37630.0,45490.0,40080.0,40276.0,40869.34765625,0.03647933155298233,9.405035972595215,-1.6203372478485107
3.4,0.997265636920929,-0.0066035035997629166,0.5402711629867554,0.756287157535553,-0.004454232752323151,0.5387332439422607,0.00647990545257926,9.12474536895752,-1.6313667297363281,0.010074974037706852,-1.0,0.5402711629867554,37531.0,44739.0,40799.0,41675.0,41186.59765625,-0.00542888417840004,8.86836051940918,-1.6263540983200073
3.42,0.9992731213569641,-0.007073525805026293,0.5397164821624756,0.756287157535553,-0.004454232752323151,0.5387332439422607,-0.004481115844100714,8.527412414550781,-1.6322323083877563,0.010070019401609898,-1.0,0.5397164821624756,38779.0,45107.0,39619.0,40967.0,41118.6328125,-0.013419132679700851,8.222966194152832,-1.6315419673919678
3.44,0.9992849826812744,-0.006987023167312145,0.5392425656318665,0.756287157535553,-0.004454232752323151,0.5387332439422607,-0.020268110558390617,7.876474857330322,-1.625746488571167,0.010048499330878258,-1.0,0.5372077822685242,39296.0,43394.0,39626.0,43316.0,41408.26171875,-0.03734014183282852,7.55833625793457,-1.6095796823501587
3.46,1.0001087188720703,-0.006233313586562872,0.5366315841674805,0.756287157535553,-0.004454232752323151,0.5387332439422607,-0.04548158869147301,7.224941253662109,-1.6023199558258057,0.010043838061392307,-1.0,0.5366315841674805,37045.0,45205.0,41513.0,41441.0,41301.69921875,-0.051309581845998764,6.875812530517578,-1.597767949104309
3.48,0.9996302723884583,-0.00611618859693408,0.5361698865890503,0.756287157535553,-0.004454232752323151,0.5387332439422607,-0.05972108989953995,6.513133525848389,-1.597762942314148,0.010035497136414051,-1.0,0.5361698865890503,37749.0,44955.0,40923.0,41477.0,41276.2421875,-0.07326092571020126,6.135955333709717,-1.6166349649429321
3.5,0.998279869556427,-0.006566798780113459,0.5352554321289062,0.756287157535553,-0.004454232752323151,0.5387332439422607,-0.08238068222999573,5.7712812423706055,-1.6116646528244019,0.010023409500718117,-1.0,0.5352554321289062,39152.0,44086.0,39186.0,42008.0,41108.09765625,-0.08919200301170349,5.386542320251465,-1.623197078704834
3.52,0.9972570538520813,-0.006378532387316227,0.5350353121757507,0.756287157535553,-0.004454232752323151,0.5387332439422607,-0.10309506207704544,5.043737411499023,-1.6144977807998657,0.010017025284469128,-1.0,0.5350353121757507,38565.0,43893.0,39135.0,42159.0,40938.87109375,-0.11971212923526764,4.620279788970947,-1.6190848350524902
