time,x_kalman,y_kalman,z_kalman,x_lh,y_lh,z_lh,roll,pitch,yaw,F,R,Z,B,C,X,S,T,Y,motor.m1,motor.m2,motor.m3,motor.m4,rpm.m1,rpm.m2,rpm.m3,rpm.m4,controller.cmd_thrust,controller.cmd_roll,controller.cmd_pitch,controller.cmd_yaw
0.0,-0.0004663002910092473,-0.00010273866791976616,0.009286966174840927,0.0,0.0,0.0,-1.4281173944473267,0.12160246819257736,0.004902967251837254,-0.006742893252521753,2.866899251937866,0.009341966360807419,-0.6424587965011597,0.22554118931293488,-0.00046627275878563523,-0.2230970561504364,0.47490304708480835,-0.00014716906298417598,28751.0,29481.0,31111.0,30465.0,0,0,0,0,29952.5390625,1819.0,-498.0,47.0
0.02,-0.0004661036073230207,-0.00018132865079678595,0.006542810704559088,0.0,0.0,0.0,-1.4243462085723877,0.12200841307640076,0.0047730449587106705,-0.006939094513654709,2.8670907020568848,0.006431307177990675,-0.6374661922454834,0.22453391551971436,-0.0004646365123335272,-0.21718138456344604,0.3588187098503113,-0.00020161052816547453,28186.0,29536.0,31206.0,30856.0,0,0,0,0,29946.302734375,186.0,122.0,18.0
0.04,-0.00014651802484877408,-0.00022484810324385762,0.006323256064206362,0.0,0.0,0.0,-1.4102140665054321,0.11470235139131546,0.006161373108625412,-0.0069389380514621735,2.8670907020568848,0.006215204019099474,-0.6375178098678589,0.22448225319385529,-0.0005279754986986518,-0.21713712811470032,0.3588629364967346,-0.0001851378328865394,28197.0,29405.0,30433.0,29449.0,0,0,0,0,29371.29296875,582.0,-426.0,120.0
0.06,-0.000866458925884217,-0.001232366543263197,0.008969638496637344,0.0,0.0,0.0,-1.343029260635376,0.1629352867603302,-0.0016333558596670628,-0.007018095813691616,2.8671722412109375,0.009035762399435043,-0.6373054385185242,0.22469468414783478,-0.00025794870452955365,-0.21795257925987244,0.3580475151538849,-0.0012329812161624432,28843.0,29127.0,29883.0,29599.0,0,0,0,0,29363.001953125,-637.0,-3393.0,-11.0
0.08,-0.00025298044783994555,-0.0012414575321599841,0.008554373867809772,0.0,0.0,0.0,-1.3340439796447754,0.1495528519153595,-0.000490519858431071,-0.0070924777537584305,2.8672473430633545,0.00858053844422102,-0.6370283961296082,0.2309715449810028,0.0010472892317920923,-0.23331411182880402,0.40668535232543945,-0.0012964585330337286,27677.0,30101.0,31113.0,29013.0,0,0,0,0,29476.91796875,1565.0,5.0,78.0
0.1,-0.0002634057600516826,-0.0012967581860721111,0.010689662769436836,0.0,0.0,0.0,-1.3221580982208252,0.15758687257766724,-0.001017496339045465,-0.007161275949329138,2.8673205375671387,0.010846272110939026,-0.6387771368026733,0.22922278940677643,-0.000885009067133069,-0.23269464075565338,0.4073048233985901,-0.00045400639646686614,29587.0,30925.0,34149.0,31555.0,0,0,0,0,31554.193359375,2303.0,88.0,-202.0
0.12,-0.000586733513046056,-0.0005617229617200792,0.01099854614585638,0.0,0.0,0.0,-1.3371953964233398,0.17766274511814117,-0.0019148009596392512,-0.007162022404372692,2.8673198223114014,0.011159625835716724,-0.6385060548782349,0.2294938564300537,-0.0006152346031740308,-0.23288138210773468,0.4071180522441864,-0.0004233144863974303,30006.0,30332.0,32950.0,32844.0,0,0,0,0,31533.13671875,3597.0,2630.0,62.0
0.142,-0.00028172374004498124,-0.0005458375671878457,0.010103192180395126,0.0,0.0,0.0,-1.3184547424316406,0.1733226776123047,0.0017208021599799395,-0.007304781582206488,2.867464065551758,0.010222552344202995,-0.638563334941864,0.23243668675422668,-0.0005998421111144125,-0.22579286992549896,0.45520684123039246,-0.0006056875572539866,30235.0,31559.0,32987.0,31927.0,0,0,0,0,31677.71875,3383.0,-510.0,-100.0
0.16,-0.0006374760414473712,-0.00040692524635232985,0.010908759199082851,0.0,0.0,0.0,-1.3022449016571045,0.18759086728096008,-0.025823773816227913,-0.007323655299842358,2.8674845695495605,0.011038295924663544,-0.638782262802124,0.23221774399280548,-0.0009380030678585172,-0.2260533571243286,0.4549463391304016,-0.0005397070199251175,29165.0,31721.0,33483.0,32575.0,0,0,0,0,31736.640625,1920.0,2768.0,-19.0
0.18,-0.0006213279557414353,-0.00034977306495420635,0.01117029320448637,0.0,0.0,0.0,-1.2824124097824097,0.18303494155406952,-0.03204721957445145,-0.007321392185986042,2.867485761642456,0.01129230484366417,-0.6382619142532349,0.23273806273937225,-0.00034977178438566625,-0.22634156048297882,0.4546581506729126,-0.0005002206307835877,31846.0,30514.0,31894.0,32574.0,0,0,0,0,31707.6171875,2977.0,-2421.0,88.0
0.203,-0.000375220988644287,0.00017958968237508088,0.009485562331974506,0.0,0.0,0.0,-1.2612988948822021,0.17704442143440247,-0.045655496418476105,-0.007526859175413847,2.8676888942718506,0.009490709751844406,-0.6360429525375366,0.235957071185112,-5.121439244248904e-05,-0.22448815405368805,0.4075123369693756,-0.0002294511505169794,32995.0,33479.0,35355.0,36215.0,0,0,0,0,34511.98046875,1865.0,-5352.0,-281.0
0.22,0.00018748108414001763,0.003234662115573883,0.010296210646629333,0.0,0.0,0.0,-1.36925208568573,0.157244011759758,-0.02489718794822693,-0.0075692348182201385,2.8677124977111816,0.010372437536716461,-0.6353117823600769,0.23668818175792694,0.0008032764890231192,-0.22223065793514252,0.40976983308792114,0.0030008216854184866,33275.0,37719.0,34815.0,32227.0,0,0,0,0,34509.6953125,-1093.0,-1529.0,-556.0
0.24,0.0007769432268105447,0.004622720181941986,0.010435708798468113,0.0,0.0,0.0,-1.3215888738632202,0.12805207073688507,-0.06266757100820541,-0.007570571731775999,2.8677115440368652,0.010572214610874653,-0.6351215243339539,0.23687845468521118,0.0011289524845778942,-0.2215014398097992,0.4104990065097809,0.004898176062852144,34364.0,35932.0,32928.0,33748.0,0,0,0,0,34069.046875,-2556.0,-3227.0,-561.0
0.26,0.0009984045755118132,0.005511235445737839,0.010749478824436665,0.0,0.0,0.0,-1.0627676248550415,0.21725797653198242,-0.12926793098449707,-0.007571120280772448,2.867711305618286,0.011011520400643349,-0.6350846886634827,0.2389153391122818,0.003050211351364851,-0.20815366506576538,0.4328463077545166,0.00959122646600008,34378.0,37866.0,32248.0,30588.0,0,0,0,0,33770.94140625,-5310.0,-4070.0,-459.0
0.28,0.0021982805337756872,0.01051061786711216,0.012002386152744293,0.0,0.0,0.0,-0.6631594300270081,0.30575573444366455,-0.20244456827640533,-0.007542860694229603,2.867568254470825,0.01234571821987629,-0.6361554265022278,0.23784463107585907,0.001978305634111166,-0.20625899732112885,0.43474099040031433,0.012479035183787346,32763.0,37417.0,33021.0,30623.0,0,0,0,0,33456.4296875,-5262.0,-4999.0,-683.0
0.3,0.0026260605081915855,0.012730586342513561,0.012928768992424011,0.0,0.0,0.0,0.061223238706588745,0.5011048316955566,-0.2579866945743561,-0.007531517185270786,2.86757493019104,0.013480287976562977,-0.6357778310775757,0.23822224140167236,0.0025561642833054066,-0.206694558262825,0.43430542945861816,0.013716929592192173,35286.0,40740.0,34796.0,32442.0,0,0,0,0,35816.1875,-6433.0,-5582.0,-816.0
0.32,0.00345769920386374,0.013303766958415508,0.014214524067938328,0.0,0.0,0.0,0.9062245488166809,0.7633246779441833,-0.32823118567466736,-0.007509851828217506,2.8675875663757324,0.01483851671218872,-0.6364086866378784,0.23759149014949799,0.0017422041855752468,-0.20855861902236938,0.4324413239955902,0.012736794538795948,33178.0,38270.0,37910.0,35982.0,0,0,0,0,36335.87890625,-194.0,-3508.0,-851.0
0.34,0.002856639213860035,0.011929677799344063,0.012582942843437195,0.0,0.0,0.0,1.7884577512741089,1.0755014419555664,-0.42399027943611145,-0.007490196265280247,2.867621421813965,0.013082978315651417,-0.6329848170280457,0.25601503252983093,0.00518475566059351,-0.1760610044002533,2.7889394760131836,0.01143308449536562,35996.0,37634.0,34386.0,36632.0,0,0,0,0,36162.14453125,-197.0,-1782.0,-1108.0
0.36,0.005258121993392706,0.010532245971262455,0.01364037673920393,0.0,0.0,0.0,2.4247887134552,1.1810476779937744,-0.519558846950531,-0.00749166077002883,2.8676207065582275,0.014250306412577629,-0.6322683691978455,0.25673142075538635,0.0063417027704417706,-0.17984353005886078,2.7851569652557373,0.007710527628660202,34174.0,38154.0,38832.0,39580.0,0,0,0,0,37685.46875,628.0,-1981.0,-1183.0
0.38,0.006321756634861231,0.006111514754593372,0.0055708372965455055,0.0,0.0,0.0,2.7269301414489746,1.1958677768707275,-0.6362550854682922,-0.007304063066840172,2.8673551082611084,0.005756944417953491,-0.6319267749786377,0.25707298517227173,0.007119076792150736,-0.18323367834091187,2.781766653060913,0.0032192447688430548,34731.0,40679.0,38085.0,37165.0,0,0,0,0,37665.65625,-1989.0,-5290.0,-1189.0
0.401,0.0072174593806266785,0.002098789904266596,0.004527034237980843,0.0,0.0,0.0,2.7357594966888428,1.2341716289520264,-0.7688508033752441,-0.0076845488511025906,2.867326498031616,0.004023056942969561,-0.6241640448570251,0.3838360011577606,0.004794430453330278,-0.18100135028362274,2.86099910736084,-0.0026612430810928345,37481.0,49727.0,42741.0,35727.0,0,0,0,0,41419.14453125,-2415.0,-7893.0,-1368.0
0.42,0.0038252740632742643,-0.0059205652214586735,-0.0008980332058854401,0.0,0.0,0.0,2.878596544265747,1.5866146087646484,-0.8779221773147583,-0.007662574760615826,2.867105007171631,-0.0009300244273617864,-0.6253941059112549,0.38260596990585327,0.003124802839010954,-0.18491414189338684,2.857086420059204,-0.008891127072274685,38010.0,46226.0,41510.0,39050.0,0,0,0,0,41199.08203125,-484.0,-2906.0,-1545.0
0.44,0.0026761097833514214,-0.011932313442230225,-0.0018570537213236094,0.0,0.0,0.0,2.863832712173462,2.075425624847412,-1.0177223682403564,-0.007914857938885689,2.866955280303955,-0.0017613491509109735,-0.6263083219528198,0.38169166445732117,0.0013493738370016217,-0.18659429252147675,2.8554060459136963,-0.013512741774320602,36758.0,43880.0,39984.0,40778.0,0,0,0,0,40350.296875,1500.0,1556.0,-1564.0
0.461,0.0023525054566562176,-0.0162308681756258,0.0009908509673550725,0.0,0.0,0.0,2.4677605628967285,2.3474791049957275,-1.1610822677612305,-0.007724521681666374,2.866621494293213,0.0017533765640109777,-0.6253837943077087,0.9726163148880005,0.00013319746358320117,-0.24408096075057983,2.846919059753418,-0.018649915233254433,36801.0,42357.0,38347.0,38967.0,0,0,0,0,39118.078125,-334.0,-3700.0,-1602.0
0.48,-0.0012003821320831776,-0.023700427263975143,-0.0029647741466760635,0.0,0.0,0.0,2.0065627098083496,2.3500335216522217,-1.2716408967971802,-0.007936738431453705,2.8662710189819336,-0.0020749387331306934,-0.6263667941093445,0.97163325548172,-0.002205229364335537,-0.24688464403152466,2.8441154956817627,-0.025369897484779358,35369.0,42515.0,38977.0,38391.0,0,0,0,0,38813.875,2046.0,-5155.0,-1686.0
0.5,-0.0042638955637812614,-0.027606751769781113,-0.0012254067696630955,0.0,0.0,0.0,1.117580533027649,2.110755681991577,-1.3407598733901978,-0.007947356440126896,2.866265058517456,0.0002993122907355428,-0.6275058388710022,0.9704942107200623,-0.005299233831465244,-0.246639221906662,2.8443610668182373,-0.02886827103793621,37441.0,43871.0,40271.0,40465.0,0,0,0,0,40512.88671875,-289.0,-3119.0,-1656.0
0.527,-0.007580736186355352,-0.0321381501853466,0.003211316652595997,0.0,0.0,0.0,0.20434661209583282,1.8815233707427979,-1.4217591285705566,-0.007836725562810898,2.8660101890563965,0.00553498137742281,-0.6418200731277466,1.0771797895431519,-0.009087605401873589,-0.43951332569122314,2.8114871978759766,-0.033887963742017746,37718.0,40538.0,37120.0,41324.0,0,0,0,0,39175.9765625,-2691.0,153.0,-1815.0
0.54,-0.011137831956148148,-0.03667484596371651,0.00748086255043745,0.0,0.0,0.0,-0.7468900680541992,1.6250089406967163,-1.5162217617034912,-0.007927983067929745,2.8659703731536865,0.00748086255043745,-0.642164409160614,1.0768353939056396,-0.011738317087292671,-0.4392487406730652,2.8117516040802,-0.0374772883951664,36383.0,41645.0,35769.0,38535.0,0,0,0,0,38083.4453125,-1544.0,-895.0,-1937.0
0.56,-0.013712608255445957,-0.03909415379166603,0.012316571548581123,0.0,0.0,0.0,-1.5351766347885132,1.0638197660446167,-1.6188969612121582,-0.007850175723433495,2.8660168647766113,0.012316571548581123,-0.6443765759468079,1.0746232271194458,-0.017337962985038757,-0.43853849172592163,2.812462091445923,-0.04024496674537659,32841.0,40511.0,37397.0,38011.0,0,0,0,0,37253.5703125,-235.0,-2209.0,-1685.0
0.58,-0.018036676570773125,-0.04075261950492859,0.017639052122831345,0.0,0.0,0.0,-2.2228481769561768,0.5128448009490967,-1.7310384511947632,-0.0077932607382535934,2.8660993576049805,0.022309832274913788,-0.6761365532875061,1.1018630266189575,-0.0203922837972641,-3.166361093521118,2.756639242172241,-0.04070302098989487,29931.0,41307.0,32875.0,37051.0,0,0,0,0,35291.0,-84.0,-2539.0,-2191.0
0.6,-0.02050884999334812,-0.04164236783981323,0.02858498878777027,0.0,0.0,0.0,-2.8432700634002686,-0.041506558656692505,-1.8355308771133423,-0.008058599196374416,2.866290330886841,0.031822506338357925,-0.6762914657592773,1.101708173751831,-0.021958209574222565,-3.168239116668701,2.754761219024658,-0.044280074536800385,31714.0,42586.0,35024.0,39360.0,0,0,0,0,37171.796875,-89.0,-3469.0,-2345.0
0.62,-0.02318154275417328,-0.04517265036702156,0.035368338227272034,0.0,0.0,0.0,-3.3324315547943115,-0.6216734051704407,-1.9930452108383179,-0.008043519221246243,2.8662993907928467,0.038876011967659,-0.6767618656158447,1.1012377738952637,-0.02542167715728283,-3.166861057281494,2.7561392784118652,-0.045217372477054596,30382.0,43046.0,35206.0,38274.0,0,0,0,0,36727.203125,1290.0,-2625.0,-2475.0
0.64,-0.02633826993405819,-0.046388719230890274,0.042535200715065,0.0,0.0,0.0,-3.825866222381592,-1.0589009523391724,-2.1316471099853516,-0.008041487075388432,2.866299867630005,0.046115245670080185,-0.6759697794914246,1.102029800415039,-0.02694150246679783,-3.167724847793579,2.7552754878997803,-0.04899941012263298,33161.0,39921.0,35125.0,38141.0,0,0,0,0,36587.3515625,-659.0,-1943.0,-2475.0
0.66,-0.027454139664769173,-0.04877658933401108,0.04968872666358948,0.0,0.0,0.0,-4.208635330200195,-1.5965815782546997,-2.3065085411071777,-0.008490820415318012,2.866748332977295,0.05840010195970535,-0.7083701491355896,1.1046298742294312,-0.030455918982625008,-3.2374305725097656,2.735569953918457,-0.05095551535487175,32165.0,38279.0,31705.0,35491.0,0,0,0,0,34410.68359375,-2132.0,-3110.0,-2513.0
0.68,-0.030427193269133568,-0.05099302902817726,0.06671035289764404,0.0,0.0,0.0,-4.440701961517334,-2.0058884620666504,-2.442713499069214,-0.008492441847920418,2.866746425628662,0.06671035289764404,-0.7063045501708984,1.1066954135894775,-0.030017064884305,-3.2373180389404297,2.735682487487793,-0.052581269294023514,31773.0,37963.0,31399.0,35557.0,0,0,0,0,34173.4453125,-1727.0,-1707.0,-2556.0
0.7,-0.029787035658955574,-0.052716441452503204,0.07512962073087692,0.0,0.0,0.0,-4.5052170753479,-2.511197805404663,-2.5580663681030273,-0.00847750622779131,2.8667547702789307,0.07512962073087692,-0.7052492499351501,1.1077507734298706,-0.03018062561750412,-3.236311674118042,2.7366888523101807,-0.05242078751325607,33154.0,42098.0,33048.0,38588.0,0,0,0,0,36722.12890625,-1195.0,-1519.0,-2623.0
0.722,-0.03018062561750412,-0.05242078751325607,0.07920496165752411,0.0,0.0,0.0,-4.550660610198975,-2.675079107284546,-2.619912624359131,-0.034024033695459366,2.866755485534668,0.08292978256940842,-0.7046031355857849,1.1103969812393188,-0.029136553406715393,-3.2443957328796387,2.7506041526794434,-0.0549624003469944,33847.0,40273.0,34687.0,38785.0,0,0,0,0,36898.2421875,-2165.0,-2692.0,-2580.0
0.74,-0.029619157314300537,-0.05546191334724426,0.09063463658094406,0.0,0.0,0.0,-4.414356231689453,-3.0984907150268555,-2.749966621398926,-0.033984698355197906,2.866771936416626,0.09063463658094406,-0.704529881477356,1.110470175743103,-0.029958968982100487,-3.243828296661377,2.751171588897705,-0.05518155172467232,34935.0,41819.0,33663.0,37579.0,0,0,0,0,36999.0390625,-1398.0,-2569.0,-2702.0
0.76,-0.029524898156523705,-0.05613715946674347,0.0979982390999794,0.0,0.0,0.0,-4.340343475341797,-3.2205417156219482,-2.820181131362915,-0.03400599956512451,2.8667588233947754,0.0979982390999794,-0.7040348649024963,1.1109651327133179,-0.029933761805295944,-3.243000030517578,2.751999855041504,-0.054529573768377304,33053.0,42677.0,36641.0,40561.0,0,0,0,0,37087.60546875,737.0,-2853.0,-3386.0
0.788,-0.029035530984401703,-0.049494508653879166,0.09878496080636978,0.0,0.0,0.0,-4.630613327026367,-3.1819636821746826,-2.9522013664245605,-0.0390980988740921,2.866762161254883,0.10178476572036743,-0.6946168541908264,1.1193829774856567,-0.028693491593003273,-3.268038749694824,2.782960891723633,-0.04869236797094345,33599.0,41729.0,37267.0,40477.0,0,0,0,0,38268.4453125,-679.0,-1915.0,-2865.0
0.8,-0.02869400940835476,-0.04816185683012009,0.10485347360372543,0.0,0.0,0.0,-4.5571699142456055,-3.0701818466186523,-3.008512496948242,-0.038828276097774506,2.8667454719543457,0.10431897640228271,-0.6939331293106079,1.12006676197052,-0.027834001928567886,-3.268010139465332,2.782989501953125,-0.04774695634841919,37343.0,46441.0,38743.0,41445.0,0,0,0,0,40993.8828125,-1286.0,-1255.0,-2970.0
0.82,-0.028217671439051628,-0.0460965670645237,0.1099807396531105,0.0,0.0,0.0,-4.3981218338012695,-2.884333372116089,-3.073793649673462,-0.039088137447834015,2.8666999340057373,0.1099807396531105,-0.6941700577735901,1.119829773902893,-0.02783113904297352,-3.2670650482177734,2.7839345932006836,-0.04520263150334358,38104.0,45770.0,37872.0,42102.0,0,0,0,0,40876.046875,-1951.0,-1718.0,-2974.0
0.84,-0.027612335979938507,-0.044793177396059036,0.11591360718011856,0.0,0.0,0.0,-3.952763080596924,-2.6845874786376953,-3.1296403408050537,-0.04040174186229706,2.8667097091674805,0.11808151006698608,-0.684380054473877,1.1406199932098389,-0.026921983808279037,-3.2561726570129395,2.8178274631500244,-0.04283074662089348,37795.0,46681.0,38575.0,41209.0,0,0,0,0,41065.29296875,-2347.0,-2457.0,-2894.0
0.86,-0.026859920471906662,-0.04292360693216324,0.11809994280338287,0.0,0.0,0.0,-3.58970308303833,-2.5137836933135986,-3.1818020343780518,-0.040438953787088394,2.8667287826538086,0.12170872837305069,-0.6839225888252258,1.1410772800445557,-0.02601136639714241,-3.255944013595581,2.818056106567383,-0.04158672317862511,36103.0,45221.0,39065.0,41431.0,0,0,0,0,40455.84375,-1542.0,-2862.0,-2865.0
0.88,-0.02560609020292759,-0.04069185629487038,0.124656081199646,0.0,0.0,0.0,-3.079025983810425,-2.2797155380249023,-3.218381643295288,-0.04051584005355835,2.866713285446167,0.1277778148651123,-0.6841723918914795,1.1408274173736572,-0.0253982562571764,-3.2560219764709473,2.8179781436920166,-0.03952530771493912,36443.0,45629.0,37475.0,39725.0,0,0,0,0,42007.28125,-104.0,-2694.0,-3228.0
0.9,-0.025183947756886482,-0.03873084485530853,0.1311890035867691,0.0,0.0,0.0,-2.570336103439331,-1.9857875108718872,-3.24672269821167,-0.040379930287599564,2.866738796234131,0.13450393080711365,-0.6782718896865845,1.1487282514572144,-0.023540837690234184,-3.234975576400757,2.836024761199951,-0.03545461595058441,38124.0,46178.0,38978.0,43236.0,0,0,0,0,41629.078125,-3119.0,-2459.0,-2940.0
0.92,-0.023730553686618805,-0.036262981593608856,0.13844212889671326,0.0,0.0,0.0,-2.0317862033843994,-1.725929856300354,-3.268070936203003,-0.04049272462725639,2.866746664047241,0.14195935428142548,-0.6783528327941895,1.1486473083496094,-0.022984961047768593,-3.235358715057373,2.835641622543335,-0.03458600491285324,37135.0,46641.0,38597.0,41567.0,0,0,0,0,40985.7265625,-1547.0,-2711.0,-2788.0
0.94,-0.02223604917526245,-0.03350862115621567,0.14551326632499695,0.0,0.0,0.0,-1.5877187252044678,-1.4887982606887817,-3.2915241718292236,-0.0405336357653141,2.866737127304077,0.14922650158405304,-0.6781156659126282,1.1488845348358154,-0.021287236362695694,-3.235429286956787,2.835571050643921,-0.03201550245285034,37025.0,45003.0,38001.0,40799.0,0,0,0,0,40207.94140625,-1872.0,-4170.0,-2704.0
0.96,-0.020772568881511688,-0.030869606882333755,0.15306422114372253,0.0,0.0,0.0,-1.121273398399353,-1.2471966743469238,-3.307220697402954,-0.040527816861867905,2.8667380809783936,0.1570069044828415,-0.6781469583511353,1.1488531827926636,-0.019793743267655373,-3.235616683959961,2.835383653640747,-0.029540622606873512,36743.0,43343.0,37965.0,41453.0,0,0,0,0,39876.359375,-1145.0,-4701.0,-2683.0
0.98,-0.01897241361439228,-0.028279408812522888,0.16444256901741028,0.0,0.0,0.0,-0.6377540230751038,-0.9846287965774536,-3.2951793670654297,-0.038937490433454514,2.866694688796997,0.16875213384628296,-0.6691645979881287,1.1618351936340332,-0.017280951142311096,-3.2338666915893555,2.851133346557617,-0.026446402072906494,34780.0,41732.0,35996.0,39720.0,0,0,0,0,38057.8515625,-371.0,-2450.0,-2739.0
1.0,-0.01627030223608017,-0.025801921263337135,0.17311601340770721,0.0,0.0,0.0,-0.20661351084709167,-0.7561051249504089,-3.27213978767395,-0.038975946605205536,2.8666841983795166,0.17761825025081635,-0.66890949010849,1.1620903015136719,-0.01514976192265749,-3.2342803478240967,2.850719690322876,-0.024083683267235756,37348.0,45290.0,36794.0,39932.0,0,0,0,0,39841.0234375,30.0,-4055.0,-2705.0
1.02,-0.01449420116841793,-0.023164058104157448,0.1822267770767212,0.0,0.0,0.0,0.16535501182079315,-0.5006595253944397,-3.2670085430145264,-0.038965366780757904,2.866687297821045,0.18688564002513885,-0.6688516139984131,1.162148356437683,-0.013158014044165611,-3.234586715698242,2.8504133224487305,-0.02169378474354744,34988.0,43446.0,37942.0,40484.0,0,0,0,0,39215.89453125,357.0,-1177.0,-2722.0
1.043,-0.012416888028383255,-0.020555181428790092,0.19385935366153717,0.0,0.0,0.0,0.5426139235496521,-0.24690033495426178,-3.2632389068603516,-0.03839520364999771,2.866682291030884,0.19925090670585632,-0.6668968796730042,1.1671031713485718,-0.01080208271741867,-3.236745595932007,2.84525465965271,-0.019274091348052025,33951.0,44741.0,37497.0,36167.0,0,0,0,0,38089.36328125,-2800.0,-4290.0,-2723.0
1.06,-0.01002981886267662,-0.018518274649977684,0.2042359709739685,0.0,0.0,0.0,0.9004970192909241,0.03637518733739853,-3.2560901641845703,-0.038397155702114105,2.8666818141937256,0.20925025641918182,-0.66716068983078,1.166839361190796,-0.009117661975324154,-3.2367711067199707,2.845229148864746,-0.01666991226375103,33970.0,42274.0,35642.0,37814.0,0,0,0,0,37425.33984375,-435.0,-3248.0,-2610.0
1.08,-0.007970144040882587,-0.015280953608453274,0.21432708203792572,0.0,0.0,0.0,1.1629135608673096,0.29633137583732605,-3.238950490951538,-0.038402751088142395,2.8666796684265137,0.21946141123771667,-0.6667287349700928,1.1672711372375488,-0.006583488080650568,-3.2367584705352783,2.8452417850494385,-0.014090733602643013,33295.0,40729.0,34193.0,36227.0,0,0,0,0,36658.29296875,-1802.0,-2701.0,-2367.0
1.1,-0.005806702189147472,-0.013198046013712883,0.22555947303771973,0.0,0.0,0.0,1.4527291059494019,0.5714693069458008,-3.2150118350982666,-0.03793942928314209,2.8666634559631348,0.2349911332130432,-0.6727355122566223,1.163264513015747,-0.004173579625785351,-3.2163312435150146,2.8526694774627686,-0.010337479412555695,32879.0,41379.0,33591.0,35659.0,0,0,0,0,35877.765625,-1283.0,-2475.0,-2645.0
1.12,-0.0029606111347675323,-0.009787844493985176,0.24029016494750977,0.0,0.0,0.0,1.6497441530227661,0.8462003469467163,-3.191138505935669,-0.037941884249448776,2.866663694381714,0.24029016494750977,-0.6726824641227722,1.1633175611495972,-0.0022050507832318544,-3.2167892456054688,2.8522114753723145,-0.008489225059747696,32771.0,40281.0,33821.0,36019.0,0,0,0,0,35723.84375,-2213.0,-2587.0,-2571.0
1.14,-0.0021631561685353518,-0.009060617536306381,0.2455933541059494,0.0,0.0,0.0,1.7503807544708252,0.9534737467765808,-3.181898832321167,-0.038317251950502396,2.8667075634002686,0.2545674443244934,-0.671836256980896,1.1641637086868286,0.0007432979182340205,-3.217360019683838,2.8516407012939453,-0.007049949839711189,31208.0,38916.0,32620.0,35040.0,0,0,0,0,34481.8828125,-1963.0,-3342.0,-2532.0
1.16,0.0020402842201292515,-0.006064079236239195,0.26550930738449097,0.0,0.0,0.0,1.9949592351913452,1.1836800575256348,-3.142648220062256,-0.03786788880825043,2.8666832447052,0.2735855281352997,-0.6703604459762573,1.1616395711898804,0.0028326907195150852,-3.2374467849731445,2.852553367614746,-0.005180510692298412,30563.0,39803.0,32851.0,33599.0,0,0,0,0,34204.0859375,-2742.0,-4273.0,-2485.0
1.18,0.0026919322554022074,-0.005619405303150415,0.2735876441001892,0.0,0.0,0.0,2.1159441471099854,1.3243370056152344,-3.118509531021118,-0.03787139058113098,2.866683006286621,0.27894461154937744,-0.6700451970100403,1.1619547605514526,0.0040732743218541145,-3.2382209300994873,2.8517792224884033,-0.0051117027178406715,29024.0,38818.0,33314.0,33552.0,0,0,0,0,33677.3046875,-2319.0,-2249.0,-2461.0
1.2,0.0056917411275208,-0.0046415445394814014,0.2861922085285187,0.0,0.0,0.0,2.278186559677124,1.4457416534423828,-3.0849387645721436,-0.0381457656621933,2.86670184135437,0.2915191352367401,-0.6697497963905334,1.1622501611709595,0.006181926000863314,-3.238978624343872,2.8510215282440186,-0.004355824552476406,28603.0,39389.0,34013.0,32759.0,0,0,0,0,33691.23046875,-1208.0,-2939.0,-2352.0
1.22,0.007239618804305792,-0.00356066832318902,0.2967475652694702,0.0,0.0,0.0,2.374044895172119,1.616723656654358,-3.0448718070983887,-0.03815074637532234,2.866701364517212,0.30187296867370605,-0.671962559223175,1.158037543296814,0.008037452585995197,-3.2248387336730957,2.8461618423461914,-0.002838501241058111,30095.0,37111.0,31879.0,34287.0,0,0,0,0,33343.0546875,-1267.0,-2421.0,-2370.0
1.24,0.009029779583215714,-0.00222876388579607,0.30979683995246887,0.0,0.0,0.0,2.4004616737365723,1.775490403175354,-2.993043899536133,-0.03711193427443504,2.866640567779541,0.31481143832206726,-0.6717906594276428,1.1582094430923462,0.00981680117547512,-3.2248809337615967,2.8461196422576904,-0.0015562082407996058,31420.0,37644.0,31444.0,34628.0,0,0,0,0,33784.33984375,-1000.0,176.0,-2320.0
1.26,0.010578376241028309,-0.0009455594117753208,0.3185010254383087,0.0,0.0,0.0,2.3149619102478027,1.6784858703613281,-2.925114631652832,-0.03694792091846466,2.8666293621063232,0.32318115234375,-0.6717569828033447,1.1582430601119995,0.011352651752531528,-3.2247986793518066,2.8462018966674805,-0.00027017234242521226,32389.0,38227.0,31173.0,34319.0,0,0,0,0,34027.46484375,337.0,-895.0,-2235.0
1.28,0.011142234317958355,-0.0001440005871700123,0.32772955298423767,0.0,0.0,0.0,2.195082902908325,1.419263243675232,-2.849151134490967,-0.0369550846517086,2.8666281700134277,0.332144170999527,-0.6800597906112671,1.1559401750564575,0.012573220767080784,-3.2730071544647217,2.8479926586151123,0.00044364965287968516,31673.0,38071.0,31481.0,34007.0,0,0,0,0,33808.70703125,-1591.0,-2897.0,-2217.0
1.3,0.01167229376733303,-2.979860255436506e-05,0.339668869972229,0.0,0.0,0.0,2.100114107131958,1.1038521528244019,-2.768711805343628,-0.03595178574323654,2.86655855178833,0.34394416213035583,-0.6808322668075562,1.155167579650879,0.01235255692154169,-3.274158000946045,2.846841812133789,-0.0003826228203251958,29845.0,40849.0,34795.0,32643.0,0,0,0,0,34533.640625,-1257.0,-4673.0,-2100.0
1.32,0.0125705786049366,-0.00017062161350622773,0.3460409939289093,0.0,0.0,0.0,2.0391149520874023,0.8253400325775146,-2.692821979522705,-0.035670649260282516,2.8665409088134766,0.3499257266521454,-0.6823760867118835,1.1536237001419067,0.011658561415970325,-3.2742865085601807,2.8467133045196533,0.00011995193926850334,31607.0,38725.0,33713.0,35435.0,0,0,0,0,34870.25,436.0,-2005.0,-2179.0
1.34,0.012212462723255157,-0.0003216200275346637,0.35367006063461304,0.0,0.0,0.0,1.968300700187683,0.6652246117591858,-2.625063896179199,-0.035687126219272614,2.866537094116211,0.35728877782821655,-0.6823056936264038,1.1536940336227417,0.012671641074120998,-3.2748754024505615,2.8461244106292725,-0.00010142034443560988,31343.0,37243.0,33381.0,36469.0,0,0,0,0,34609.46484375,1439.0,-1640.0,-2182.0
1.36,0.012153754010796547,0.00941201951354742,0.36459118127822876,0.0,0.0,0.0,1.5487571954727173,0.3760715425014496,-2.5478932857513428,-0.034524105489254,2.8665032386779785,0.3681218922138214,-0.6918462514877319,1.151153802871704,0.012559174560010433,-3.2195887565612793,2.8604118824005127,0.009918039664626122,34743.0,38873.0,32913.0,37023.0,0,0,0,0,35888.74609375,-322.0,-20.0,-2057.0
1.38,0.013518271967768669,0.01066516526043415,0.3669550120830536,0.0,0.0,0.0,1.3539283275604248,-0.15835130214691162,-2.4938759803771973,-0.033885564655065536,2.8664681911468506,0.3699505627155304,-0.6916909217834473,1.1513090133666992,0.013537097722291946,-3.219405174255371,2.860595464706421,0.011063278652727604,34105.0,40361.0,34237.0,36197.0,0,0,0,0,36225.28515625,-141.0,-1084.0,-2003.0
1.4,0.013890390284359455,0.011296015232801437,0.3728312849998474,0.0,0.0,0.0,1.2063698768615723,-0.7453159689903259,-2.421389102935791,-0.033890847116708755,2.866466760635376,0.37560710310935974,-0.6914471387863159,1.1515527963638306,0.014656801708042622,-3.219862222671509,2.860138416290283,0.011390535160899162,32046.0,42320.0,36680.0,35002.0,0,0,0,0,36512.390625,-1745.0,-4612.0,-2093.0
1.422,0.015301397070288658,0.011125389486551285,0.38321685791015625,0.0,0.0,0.0,1.2260489463806152,-1.3063690662384033,-2.355025053024292,-0.03250289708375931,2.86637544631958,0.3860341012477875,-0.6952759623527527,1.1577239036560059,0.016204115003347397,-3.2478604316711426,2.849139451980591,0.011484920047223568,33878.0,40352.0,34678.0,36816.0,0,0,0,0,36431.1484375,-1499.0,-1654.0,-2192.0
1.44,0.0172846969217062,0.012501126155257225,0.3862549662590027,0.0,0.0,0.0,1.310569167137146,-1.7122646570205688,-2.3049983978271484,-0.03215006738901138,2.866358995437622,0.3887431025505066,-0.6947363018989563,1.1582635641098022,0.01783096231520176,-3.2472140789031982,2.849785804748535,0.012827840633690357,34592.0,39004.0,34266.0,38542.0,0,0,0,0,36601.35546875,-1282.0,-695.0,-2169.0
1.46,0.016239359974861145,0.013423938304185867,0.39117151498794556,0.0,0.0,0.0,1.3712608814239502,-2.1123201847076416,-2.254265308380127,-0.03215630725026131,2.8663573265075684,0.39352044463157654,-0.6966246366500854,1.1563752889633179,0.016771754249930382,-3.246960163116455,2.8500397205352783,0.013715417124330997,35491.0,40051.0,35023.0,36451.0,0,0,0,0,36754.359375,-2035.0,-1566.0,-1497.0
1.487,0.017434820532798767,0.014558281749486923,0.40032055974006653,0.0,0.0,0.0,1.35574471950531,-2.6802752017974854,-2.2187118530273438,-0.030928781256079674,2.8662800788879395,0.4032491445541382,-0.7122095823287964,1.1547901630401611,0.018542811274528503,-3.2416069507598877,2.851393222808838,0.01469501480460167,33158.0,39006.0,34736.0,37284.0,0,0,0,0,36046.2265625,-1064.0,-1116.0,-1618.0
1.5,0.01886824332177639,0.014792749658226967,0.4056371748447418,0.0,0.0,0.0,1.3490068912506104,-3.2877700328826904,-2.1668293476104736,-0.030698491260409355,2.8662664890289307,0.4059771001338959,-0.7125245928764343,1.1544750928878784,0.01959632895886898,-3.2416138648986816,2.851386308670044,0.015114053152501583,32660.0,42010.0,36532.0,35010.0,0,0,0,0,36553.72265625,-584.0,-5073.0,-1527.0
1.52,0.02010728418827057,0.015138286165893078,0.40813419222831726,0.0,0.0,0.0,1.3314621448516846,-3.6967010498046875,-2.1226110458374023,-0.0307003203779459,2.8662657737731934,0.41023871302604675,-0.712751030921936,1.1542487144470215,0.020926907658576965,-3.2417476177215576,2.851252555847168,0.015287029556930065,33344.0,40778.0,35322.0,36440.0,0,0,0,0,36644.02734375,-1180.0,-3158.0,-2138.0
1.54,0.021806927397847176,0.015411810018122196,0.4122946858406067,0.0,0.0,0.0,1.323560118675232,-3.95074725151062,-2.081322431564331,-0.030410123988986015,2.866246223449707,0.41671478748321533,-0.7418208122253418,1.1531790494918823,0.023737052455544472,-3.237058639526367,2.8489415645599365,0.015066079795360565,35481.0,38679.0,34811.0,38941.0,0,0,0,0,36978.546875,-1756.0,-247.0,-2110.0
1.56,0.024778595194220543,0.015229878015816212,0.41468220949172974,0.0,0.0,0.0,1.285602331161499,-4.244288921356201,-2.0630486011505127,-0.030160875990986824,2.8662326335906982,0.4165332019329071,-0.7403178811073303,1.1546820402145386,0.027593687176704407,-3.2378907203674316,2.848109483718872,0.014209294691681862,35754.0,39580.0,34712.0,38298.0,0,0,0,0,37086.171875,-1666.0,-161.0,-2117.0
1.58,0.02737230807542801,0.014420735649764538,0.41833043098449707,0.0,0.0,0.0,1.2171218395233154,-4.702329158782959,-2.0359890460968018,-0.030165664851665497,2.8662309646606445,0.4200892150402069,-0.7405165433883667,1.154483437538147,0.02993765100836754,-3.237700939178467,2.848299264907837,0.01435691025108099,34696.0,40692.0,36044.0,37300.0,0,0,0,0,37183.33984375,-1655.0,-3266.0,-2039.0
1.6,0.02998855896294117,0.013791967183351517,0.4218013882637024,0.0,0.0,0.0,1.154965877532959,-5.156001091003418,-2.010943651199341,-0.030168995261192322,2.866229772567749,0.42348015308380127,-0.7645619511604309,1.1574379205703735,0.03243786096572876,-3.2580223083496094,2.847977876663208,0.013977708294987679,33535.0,42421.0,37661.0,35507.0,0,0,0,0,37281.50390625,-710.0,-7371.0,-2023.0
1.621,0.03243786096572876,0.013977708294987679,0.4249359369277954,0.0,0.0,0.0,1.105209231376648,-5.435847759246826,-1.9852310419082642,-0.030126657336950302,2.8662283420562744,0.42579707503318787,-0.7629831433296204,1.159016728401184,0.037332870066165924,-3.2583742141723633,2.847625970840454,0.013354972936213017,33659.0,41089.0,37347.0,37957.0,0,0,0,0,37513.05078125,232.0,-3763.0,-2123.0
1.64,0.037908751517534256,0.012869317084550858,0.42877885699272156,0.0,0.0,0.0,0.969562292098999,-5.493504047393799,-1.9543328285217285,-0.03012915328145027,2.866227149963379,0.42877885699272156,-0.763052761554718,1.1589471101760864,0.039052046835422516,-3.2594447135925293,2.846555471420288,0.012021616101264954,35392.0,40468.0,35404.0,38872.0,0,0,0,0,37534.25390625,-187.0,-463.0,-2125.0
1.66,0.04116422310471535,0.012460896745324135,0.43024930357933044,0.0,0.0,0.0,0.8993414044380188,-5.485201358795166,-1.9481730461120605,-0.03013031557202339,2.8662269115448,0.43169915676116943,-0.7618741393089294,1.1601258516311646,0.04427138343453407,-3.2608790397644043,2.845121145248413,0.00990975834429264,36281.0,40919.0,34425.0,38511.0,0,0,0,0,37534.6015625,-250.0,-595.0,-2222.0
1.682,0.04621125012636185,0.010153524577617645,0.43499231338500977,0.0,0.0,0.0,0.7591052055358887,-5.633293628692627,-1.9397883415222168,-0.03015584498643875,2.8662240505218506,0.4368407428264618,-0.7964959144592285,1.1625038385391235,0.04916408285498619,-3.2497684955596924,2.8512320518493652,0.008832242339849472,34823.0,41157.0,34905.0,37323.0,0,0,0,0,37052.7265625,-1251.0,-3053.0,-2152.0
1.7,0.05148531496524811,0.008316717110574245,0.43836510181427,0.0,0.0,0.0,0.634443998336792,-5.839814186096191,-1.933613657951355,-0.03016122803092003,2.8662221431732178,0.4398938715457916,-0.7960712909698486,1.1629284620285034,0.054373182356357574,-3.250091075897217,2.850909471511841,0.007763397879898548,32166.0,42568.0,37364.0,35830.0,0,0,0,0,36982.27734375,-1234.0,-7619.0,-2196.0
1.72,0.057145100086927414,0.007358971983194351,0.44155940413475037,0.0,0.0,0.0,0.5093660354614258,-5.896823406219482,-1.9308083057403564,-0.03016217239201069,2.8662216663360596,0.44306516647338867,-0.795207142829895,1.1637924909591675,0.06080896034836769,-3.2513837814331055,2.849616765975952,0.005438579712063074,33187.0,41107.0,35515.0,37123.0,0,0,0,0,36733.9453125,-829.0,-3157.0,-2382.0
1.74,0.06192748621106148,0.005230523645877838,0.4456286132335663,0.0,0.0,0.0,0.35032370686531067,-5.701944351196289,-1.921821117401123,-0.030144359916448593,2.866217851638794,0.4481765925884247,-0.8316325545310974,1.1653672456741333,0.06769929081201553,-3.2355399131774902,2.8564605712890625,0.004778354894369841,33381.0,40531.0,35355.0,37293.0,0,0,0,0,36640.83984375,1139.0,-1926.0,-2265.0
1.76,0.07011678814888,0.0044673895463347435,0.4497152268886566,0.0,0.0,0.0,0.08514009416103363,-5.386565685272217,-1.9333593845367432,-0.03014671616256237,2.8662166595458984,0.4512120187282562,-0.8312081694602966,1.1657917499542236,0.07426987588405609,-3.235990285873413,2.8560101985931396,0.003350198967382312,34111.0,41439.0,35171.0,36823.0,0,0,0,0,36886.3984375,-1490.0,-1787.0,-2332.0
1.78,0.07623832672834396,0.0023502446711063385,0.4515175223350525,0.0,0.0,0.0,-0.104283906519413,-5.280778408050537,-1.9330874681472778,-0.030074963346123695,2.8662118911743164,0.4515175223350525,-0.8305850028991699,1.166414737701416,0.08146414160728455,-3.2363317012786865,2.855668783187866,0.001983906142413616,34312.0,40432.0,35070.0,37830.0,0,0,0,0,36911.94921875,-1326.0,-4193.0,-2124.0
1.8,0.08335419744253159,0.0015061955200508237,0.45427799224853516,0.0,0.0,0.0,-0.288167804479599,-5.213122844696045,-1.9334716796875,-0.030696922913193703,2.8662495613098145,0.45360368490219116,-0.8520983457565308,1.1629014015197754,0.08841083943843842,-3.2545149326324463,2.859485149383545,-0.00018983386689797044,33114.0,44652.0,37838.0,33820.0,0,0,0,0,37356.7890625,-512.0,-7434.0,-2203.0
1.82,0.08770639449357986,-0.0009571934933774173,0.4536095857620239,0.0,0.0,0.0,-0.35198232531547546,-5.137768268585205,-1.920649766921997,-0.03068298101425171,2.866248369216919,0.4546130895614624,-0.8521571755409241,1.1628425121307373,0.09191662818193436,-3.254626989364624,2.859373092651367,-0.0008249421371147037,33363.0,42167.0,37745.0,36465.0,0,0,0,0,37435.2734375,956.0,-4748.0,-2151.0
1.84,0.09433779120445251,-0.00048811649321578443,0.45579367876052856,0.0,0.0,0.0,-0.4899379312992096,-4.812248706817627,-1.9017302989959717,-0.030678285285830498,2.866250514984131,0.456938236951828,-0.8519775867462158,1.1630220413208008,0.0995049849152565,-3.254605293273926,2.8593947887420654,-0.0018270456930622458,34921.0,40783.0,35537.0,38639.0,0,0,0,0,37463.6328125,-264.0,-2588.0,-2227.0
1.86,0.10252153873443604,-0.0021908143535256386,0.45805278420448303,0.0,0.0,0.0,-0.62529057264328,-4.463281154632568,-1.8806952238082886,-0.03068145550787449,2.8662493228912354,0.45916232466697693,-0.870214581489563,1.1627854108810425,0.11154969781637192,-3.2545242309570312,2.860476016998291,-0.004128709901124239,34493.0,41105.0,36005.0,38241.0,0,0,0,0,37461.5859375,-1032.0,-2592.0,-2171.0
1.88,0.1103057786822319,-0.0032081615645438433,0.460323691368103,0.0,0.0,0.0,-0.7985256314277649,-4.267724990844727,-1.8816496133804321,-0.030717015266418457,2.8662524223327637,0.46140965819358826,-0.8693882822990417,1.1636117696762085,0.11647643893957138,-3.254628896713257,2.8603713512420654,-0.0047318353317677975,34881.0,41359.0,35349.0,37467.0,0,0,0,0,37264.65625,235.0,-2570.0,-2177.0
1.9,0.11808651685714722,-0.004469749052077532,0.4633190929889679,0.0,0.0,0.0,-0.9219312071800232,-4.166690349578857,-1.8722847700119019,-0.030774038285017014,2.866255760192871,0.464442640542984,-0.8702204823493958,1.1627795696258545,0.12392394244670868,-3.2542355060577393,2.860764741897583,-0.005251942668110132,31439.0,43393.0,38621.0,35423.0,0,0,0,0,37219.75390625,-401.0,-8115.0,-2201.0
1.92,0.12682753801345825,-0.00605184817686677,0.4655562937259674,0.0,0.0,0.0,-1.0001609325408936,-3.977008819580078,-1.8541475534439087,-0.030779700726270676,2.866253137588501,0.4666464924812317,-0.8779159188270569,1.1660839319229126,0.13750609755516052,-3.2607932090759277,2.8572070598602295,-0.007226746529340744,32322.0,41310.0,37000.0,37072.0,0,0,0,0,36926.234375,-969.0,-4835.0,-2264.0
1.94,0.13460668921470642,-0.006520009599626064,0.46907469630241394,0.0,0.0,0.0,-1.0589708089828491,-3.613797903060913,-1.8386644124984741,-0.030408961698412895,2.8662326335906982,0.46866941452026367,-0.8790108561515808,1.1649889945983887,0.1408400535583496,-3.2595434188842773,2.85845685005188,-0.006337010767310858,33461.0,40443.0,36317.0,38535.0,0,0,0,0,37189.875,-1369.0,-2928.0,-2329.0
1.96,0.14272361993789673,-0.0070040165446698666,0.46975305676460266,0.0,0.0,0.0,-1.1434752941131592,-3.2394707202911377,-1.8378970623016357,-0.030407240614295006,2.8662335872650146,0.47082802653312683,-0.8800458312034607,1.1639540195465088,0.14880190789699554,-3.2608802318573,2.8571200370788574,-0.008530424907803535,34586.0,41970.0,35226.0,36826.0,0,0,0,0,37152.07421875,-2545.0,-2901.0,-2211.0
1.98,0.15415693819522858,-0.010181710124015808,0.4718669652938843,0.0,0.0,0.0,-1.2267805337905884,-3.078474760055542,-1.8407294750213623,-0.030415017157793045,2.866230010986328,0.4729273021221161,-0.8803735971450806,1.1636263132095337,0.15769284963607788,-3.2608160972595215,2.8571841716766357,-0.009177643805742264,34340.0,40990.0,35234.0,37928.0,0,0,0,0,37123.24609375,-1088.0,-5079.0,-2289.0
2.003,0.16524697840213776,-0.010073237121105194,0.47547096014022827,0.0,0.0,0.0,-1.298048496246338,-2.9757821559906006,-1.8435543775558472,-0.029913047328591347,2.866197109222412,0.47657692432403564,-0.8612008690834045,1.1657993793487549,0.16756439208984375,-3.263730049133301,2.8552703857421875,-0.01004588883370161,32366.0,42764.0,36538.0,35792.0,0,0,0,0,36865.92578125,-638.0,-7750.0,-2433.0
2.02,0.17423424124717712,-0.010196873918175697,0.4776782691478729,0.0,0.0,0.0,-1.3344943523406982,-2.78448486328125,-1.841287612915039,-0.029911287128925323,2.8661980628967285,0.4787609279155731,-0.8615015745162964,1.1654986143112183,0.17691820859909058,-3.2642147541046143,2.854785680770874,-0.011134088970720768,32374.0,41964.0,36442.0,36628.0,0,0,0,0,36852.74609375,-1174.0,-3525.0,-2488.0
2.04,0.18330951035022736,-0.01118340902030468,0.47983840107917786,0.0,0.0,0.0,-1.3547946214675903,-2.443235397338867,-1.8521002531051636,-0.02991100400686264,2.8661983013153076,0.4808952510356903,-0.8648045063018799,1.1621955633163452,0.183065727353096,-3.2636284828186035,2.8553719520568848,-0.010986988432705402,33750.0,40124.0,35388.0,38418.0,0,0,0,0,36920.4609375,-35.0,-1672.0,-2351.0
2.06,0.1907927393913269,-0.012179962359368801,0.4815778136253357,0.0,0.0,0.0,-1.3772944211959839,-2.064728021621704,-1.8652970790863037,-0.029678652063012123,2.8661861419677734,0.4840155839920044,-0.8746752738952637,1.1623246669769287,0.19728988409042358,-3.248837471008301,2.85416316986084,-0.012146971188485622,33967.0,41393.0,34841.0,36843.0,0,0,0,0,36761.3671875,-681.0,-2205.0,-2388.0
2.08,0.20293857157230377,-0.012116579338908195,0.48503807187080383,0.0,0.0,0.0,-1.4304752349853516,-1.829481601715088,-1.873957872390747,-0.029678955674171448,2.8661861419677734,0.48503807187080383,-0.8764371275901794,1.1605627536773682,0.2054605782032013,-3.2485578060150146,2.854442834854126,-0.012150842696428299,33974.0,40864.0,34756.0,37758.0,0,0,0,0,36838.8671875,-1392.0,-3957.0,-2395.0
2.1,0.21199463307857513,-0.012425409629940987,0.48675575852394104,0.0,0.0,0.0,-1.4257773160934448,-1.688068151473999,-1.8754644393920898,-0.029662879183888435,2.8661856651306152,0.48675575852394104,-0.8775438666343689,1.1594560146331787,0.21432356536388397,-3.24888277053833,2.8541178703308105,-0.01272069662809372,31596.0,44068.0,37290.0,34534.0,0,0,0,0,36872.21875,-897.0,-7302.0,-2390.0
2.12,0.22052934765815735,-0.013116264715790749,0.48866021633148193,0.0,0.0,0.0,-1.3607927560806274,-1.4706876277923584,-1.8815854787826538,-0.02929046005010605,2.866162061691284,0.4914538860321045,-0.8955066800117493,1.1694930791854858,0.22459226846694946,-3.2522311210632324,2.8437693119049072,-0.014329873025417328,32237.0,42883.0,35931.0,35425.0,0,0,0,0,36619.7265625,-1183.0,-3865.0,-2490.0
2.14,0.22626259922981262,-0.013666115701198578,0.4914400279521942,0.0,0.0,0.0,-1.3211129903793335,-1.2863445281982422,-1.8810365200042725,-0.029290691018104553,2.866161823272705,0.49241143465042114,-0.8959910273551941,1.1690086126327515,0.2291928082704544,-3.251828193664551,2.844172239303589,-0.013965768739581108,33363.0,40623.0,34527.0,37931.0,0,0,0,0,36611.02734375,494.0,-1794.0,-2513.0
2.16,0.23675315082073212,-0.014361606910824776,0.4934825599193573,0.0,0.0,0.0,-1.2679309844970703,-1.000687599182129,-1.8895694017410278,-0.02929817885160446,2.866162061691284,0.494426429271698,-0.8957802653312683,1.1692193746566772,0.23967717587947845,-3.252304792404175,2.843695640563965,-0.014523223973810673,32883.0,40745.0,35285.0,37647.0,0,0,0,0,36640.83203125,-1078.0,-1418.0,-2400.0
2.18,0.24605366587638855,-0.014729875139892101,0.4953579902648926,0.0,0.0,0.0,-1.2448445558547974,-0.9138383865356445,-1.9056416749954224,-0.02929767593741417,2.8661625385284424,0.49625852704048157,-0.8862600326538086,1.1737401485443115,0.2544182240962982,-3.2405922412872314,2.8494081497192383,-0.014547727070748806,32719.0,41207.0,34417.0,35749.0,0,0,0,0,36023.37890625,-1340.0,-1888.0,-2462.0
2.2,0.2565600872039795,-0.0151754729449749,0.5008408427238464,0.0,0.0,0.0,-1.217234492301941,-0.9226861596107483,-1.9104119539260864,-0.028653264045715332,2.8661208152770996,0.5018875598907471,-0.886713981628418,1.1732861995697021,0.2591188848018646,-3.2415897846221924,2.8484106063842773,-0.01553241815418005,30478.0,43740.0,37282.0,34456.0,0,0,0,0,36489.66015625,-2149.0,-6641.0,-2485.0
2.22,0.2647956311702728,-0.01609363779425621,0.5009050369262695,0.0,0.0,0.0,-1.1330928802490234,-0.8437947034835815,-1.9105397462844849,-0.028538182377815247,2.8661134243011475,0.5017682313919067,-0.8871663212776184,1.172833800315857,0.2690044343471527,-3.2417168617248535,2.848283529281616,-0.015537962317466736,31225.0,42535.0,36745.0,35775.0,0,0,0,0,36570.7265625,-1242.0,-3763.0,-2485.0
2.24,0.2743265926837921,-0.015995847061276436,0.5026089549064636,0.0,0.0,0.0,-1.0446116924285889,-0.6405305862426758,-1.9169535636901855,-0.028537917882204056,2.8661136627197266,0.503411054611206,-0.9047741889953613,1.1792256832122803,0.28446343541145325,-3.25519061088562,2.8458096981048584,-0.016060490161180496,32947.0,39227.0,34581.0,37825.0,0,0,0,0,36145.41796875,-140.0,-3243.0,-2288.0
2.26,0.286283016204834,-0.016520056873559952,0.5071622729301453,0.0,0.0,0.0,-0.9696749448776245,-0.47501930594444275,-1.9214040040969849,-0.028095418587327003,2.866084575653076,0.5080530643463135,-0.9029577374458313,1.1810420751571655,0.29157277941703796,-3.255803108215332,2.8451972007751465,-0.016575468704104424,33281.0,40781.0,35947.0,37999.0,0,0,0,0,37002.56640625,-1489.0,-3932.0,-2434.0
2.28,0.29562821984291077,-0.01653299294412136,0.5051329731941223,0.0,0.0,0.0,-0.9856684803962708,-0.4501849412918091,-1.9127243757247925,-0.027881266549229622,2.8660707473754883,0.5057292580604553,-0.9048604965209961,1.179139256477356,0.300007700920105,-3.256074905395508,2.8449254035949707,-0.01661055162549019,34369.0,41933.0,35021.0,37293.0,0,0,0,0,37154.2734375,-1182.0,-3110.0,-2416.0
2.3,0.3040370047092438,-0.017128566280007362,0.5062919855117798,0.0,0.0,0.0,-0.9722617864608765,-0.4592577815055847,-1.9070512056350708,-0.027881739661097527,2.86607027053833,0.5068230032920837,-0.9070119261741638,1.1769880056381226,0.30802229046821594,-3.2572901248931885,2.84371018409729,-0.017674732953310013,32318.0,41748.0,35972.0,36302.0,0,0,0,0,36585.33984375,-1378.0,-6437.0,-2500.0
2.32,0.31048083305358887,-0.01818055473268032,0.5105040073394775,0.0,0.0,0.0,-0.9140719175338745,-0.44218316674232483,-1.905541181564331,-0.0273037888109684,2.866032600402832,0.5116062760353088,-0.9122061133384705,1.1787937879562378,0.3160945177078247,-3.26568341255188,2.8413166999816895,-0.01846661977469921,32232.0,42710.0,37166.0,36232.0,0,0,0,0,37085.7109375,-1135.0,-4218.0,-2360.0
2.34,0.3247671127319336,-0.018964486196637154,0.510101318359375,0.0,0.0,0.0,-0.798797070980072,-0.32405564188957214,-1.8973350524902344,-0.027171775698661804,2.8660240173339844,0.5105947256088257,-0.9128150343894958,1.178184986114502,0.326355516910553,-3.2667436599731445,2.840256452560425,-0.019272305071353912,34637.0,41369.0,35361.0,37253.0,0,0,0,0,37155.953125,-1379.0,-2330.0,-2356.0
2.36,0.3339169919490814,-0.019528787583112717,0.5110775232315063,0.0,0.0,0.0,-0.7317512631416321,-0.22497782111167908,-1.8883087635040283,-0.027172008529305458,2.8660240173339844,0.511529266834259,-0.9142088890075684,1.1767911911010742,0.3351775109767914,-3.2672383785247803,2.839761734008789,-0.0195000022649765,34024.0,41484.0,35678.0,37834.0,0,0,0,0,37255.75,-195.0,-2952.0,-2080.0
2.388,0.33981069922447205,-0.01887446641921997,0.5131005644798279,0.0,0.0,0.0,-0.7448569536209106,-0.22583051025867462,-1.8696762323379517,-0.026514627039432526,2.865981101989746,0.5138514637947083,-0.8951894640922546,1.1818106174468994,0.3485826849937439,-3.2528746128082275,2.8261256217956543,-0.01854378543794155,33461.0,41787.0,36037.0,37367.0,0,0,0,0,37163.95703125,-369.0,-2245.0,-2443.0
2.4,0.35653743147850037,-0.01888372376561165,0.5142569541931152,0.0,0.0,0.0,-0.7282864451408386,-0.37044161558151245,-1.8489387035369873,-0.026513881981372833,2.8659815788269043,0.5142569541931152,-0.8952890038490295,1.181710958480835,0.3588130474090576,-3.2536978721618652,2.8253023624420166,-0.018996715545654297,32252.0,43328.0,37360.0,35868.0,0,0,0,0,37202.21875,-1541.0,-5651.0,-2380.0
2.42,0.36505141854286194,-0.019451791420578957,0.5150763392448425,0.0,0.0,0.0,-0.7004657983779907,-0.40047967433929443,-1.8422399759292603,-0.02651459164917469,2.865981340408325,0.5150763392448425,-0.8965083360671997,1.18049156665802,0.3678019940853119,-3.254762649536133,2.824237585067749,-0.01974574849009514,31868.0,42510.0,38976.0,37538.0,0,0,0,0,37723.4453125,-1810.0,-3813.0,-2302.0
2.44,0.3739405870437622,-0.019215524196624756,0.5158436894416809,0.0,0.0,0.0,-0.6408390998840332,-0.32046419382095337,-1.8220993280410767,-0.026454215869307518,2.8659770488739014,0.5136855840682983,-0.9137924909591675,1.1822073459625244,0.38456013798713684,-3.2585833072662354,2.830416679382324,-0.019266948103904724,34837.0,40721.0,35749.0,38005.0,0,0,0,0,37328.40234375,-1057.0,-3101.0,-2354.0
2.46,0.3810637593269348,-0.01963394694030285,0.5165376663208008,0.0,0.0,0.0,-0.614208459854126,-0.22689996659755707,-1.8012036085128784,-0.025933019816875458,2.865943193435669,0.5168628692626953,-0.9165518283843994,1.1794480085372925,0.38692307472229004,-3.259345769882202,2.8296542167663574,-0.019829032942652702,34448.0,40084.0,36140.0,38584.0,0,0,0,0,37314.8046875,-1114.0,-2678.0,-2331.0
2.48,0.3897489309310913,-0.018774475902318954,0.5172091126441956,0.0,0.0,0.0,-0.616252064704895,-0.2636170983314514,-1.7779405117034912,-0.025845041498541832,2.8659369945526123,0.5151622891426086,-0.9178460240364075,1.1781538724899292,0.39592355489730835,-3.258990526199341,2.8300094604492188,-0.018971199169754982,35482.0,42486.0,35988.0,37340.0,0,0,0,0,37824.16015625,-2408.0,-3640.0,-2288.0
2.5,0.3984309434890747,-0.01928029954433441,0.5153509974479675,0.0,0.0,0.0,-0.6058399081230164,-0.4323693513870239,-1.7543057203292847,-0.025845957919955254,2.865936279296875,0.5155254602432251,-0.9373809695243835,1.1816189289093018,0.4097921550273895,-3.265662908554077,2.8183372020721436,-0.017311464995145798,31700.0,42764.0,37532.0,35400.0,0,0,0,0,36849.96875,-1427.0,-6020.0,-2233.0
2.52,0.4097921550273895,-0.017311464995145798,0.52112877368927,0.0,0.0,0.0,-0.5685091018676758,-0.5263468027114868,-1.7290146350860596,-0.024895375594496727,2.8658745288848877,0.5215873718261719,-0.9362547993659973,1.182745099067688,0.4161226451396942,-3.266284227371216,2.817715883255005,-0.01765700988471508,33241.0,43411.0,37383.0,36205.0,0,0,0,0,37560.2890625,-210.0,-5660.0,-2230.0
2.54,0.41852959990501404,-0.017972370609641075,0.5184921622276306,0.0,0.0,0.0,-0.5220698714256287,-0.48255956172943115,-1.6960746049880981,-0.024736331775784492,2.865863561630249,0.5187225341796875,-0.9378761053085327,1.1811238527297974,0.424742192029953,-3.26637864112854,2.8176214694976807,-0.01715867407619953,33521.0,41215.0,36985.0,38419.0,0,0,0,0,37535.2265625,-2243.0,-3084.0,-2268.0
2.56,0.42765769362449646,-0.017261531203985214,0.5189768075942993,0.0,0.0,0.0,-0.5052720904350281,-0.3983171284198761,-1.6637403964996338,-0.024737350642681122,2.8658628463745117,0.519217312335968,-0.9382763504981995,1.1807236671447754,0.434638112783432,-3.2671310901641846,2.816869020462036,-0.017374107614159584,34533.0,41721.0,35139.0,36955.0,0,0,0,0,37087.80859375,-1966.0,-1530.0,-2303.0
2.58,0.44165539741516113,-0.0172710157930851,0.5220864415168762,0.0,0.0,0.0,-0.4939618706703186,-0.5068738460540771,-1.630622386932373,-0.024376779794692993,2.8658394813537598,0.5220864415168762,-0.9560815095901489,1.175918459892273,0.44788187742233276,-3.2625248432159424,2.8224751949310303,-0.017784878611564636,34708.0,41126.0,35798.0,38408.0,0,0,0,0,37510.5859375,-597.0,-3039.0,-2260.0
2.6,0.4490596354007721,-0.01828887313604355,0.5205974578857422,0.0,0.0,0.0,-0.4145972728729248,-0.6320183277130127,-1.609825611114502,-0.02428050898015499,2.8658323287963867,0.5205925107002258,-0.9589791297912598,1.173020839691162,0.4551308751106262,-3.2617673873901367,2.823232650756836,-0.016334814950823784,32436.0,44780.0,38280.0,34552.0,0,0,0,0,37512.6640625,-1139.0,-8329.0,-2177.0
2.62,0.4584300220012665,-0.016925349831581116,0.5210708379745483,0.0,0.0,0.0,-0.36299529671669006,-0.7106334567070007,-1.585814356803894,-0.0242814552038908,2.8658316135406494,0.5210704207420349,-0.9605606198310852,1.1714394092559814,0.46367374062538147,-3.2632970809936523,2.8217029571533203,-0.017389774322509766,33206.0,42396.0,36970.0,34392.0,0,0,0,0,36741.96484375,-855.0,-4860.0,-2122.0
2.641,0.46367374062538147,-0.017389774322509766,0.5213046669960022,0.0,0.0,0.0,-0.32358625531196594,-0.6989234089851379,-1.5678491592407227,-0.02374717779457569,2.8657968044281006,0.5256767272949219,-0.947697639465332,1.1803025007247925,0.4715211093425751,-3.2656962871551514,2.801304340362549,-0.018348421901464462,32971.0,41271.0,37413.0,36125.0,0,0,0,0,36945.16796875,-426.0,-2608.0,-2150.0
2.66,0.4733114540576935,-0.01603497751057148,0.5248815417289734,0.0,0.0,0.0,-0.27997979521751404,-0.5686121582984924,-1.527036190032959,-0.02368725650012493,2.8657920360565186,0.5252648591995239,-0.950498104095459,1.177501916885376,0.4789416790008545,-3.264202833175659,2.802797794342041,-0.01616632379591465,34384.0,40880.0,35486.0,36914.0,0,0,0,0,36916.328125,-1695.0,-2276.0,-2201.0
2.68,0.48166078329086304,-0.01613718271255493,0.5256631970405579,0.0,0.0,0.0,-0.2856183648109436,-0.5708647966384888,-1.4948947429656982,-0.02368842624127865,2.8657913208007812,0.5260509848594666,-0.9516422152519226,1.1763577461242676,0.48800304532051086,-3.2649905681610107,2.8020100593566895,-0.016366513445973396,33518.0,41132.0,35226.0,36192.0,0,0,0,0,36517.5625,-2109.0,-3679.0,-2095.0
2.702,0.4911639988422394,-0.016479041427373886,0.5286169648170471,0.0,0.0,0.0,-0.2790723443031311,-0.7232831716537476,-1.474874496459961,-0.023393530398607254,2.8657729625701904,0.5291363000869751,-0.9616958498954773,1.1763041019439697,0.5000105500221252,-3.251326084136963,2.813673973083496,-0.01699085347354412,32240.0,44048.0,38040.0,34784.0,0,0,0,0,37278.1796875,-850.0,-6314.0,-2156.0
2.72,0.5030017495155334,-0.016126491129398346,0.5259644985198975,0.0,0.0,0.0,-0.23119409382343292,-0.8539046049118042,-1.4448213577270508,-0.02320409193634987,2.8657593727111816,0.5262092351913452,-0.963788628578186,1.1742113828659058,0.5082062482833862,-3.250333070755005,2.814666986465454,-0.015319517813622952,33419.0,41625.0,36851.0,37465.0,0,0,0,0,37340.71484375,612.0,-5878.0,-2174.0
2.74,0.5106066465377808,-0.015801243484020233,0.5264551043510437,0.0,0.0,0.0,-0.17622825503349304,-0.802661120891571,-1.4188895225524902,-0.02320578135550022,2.8657584190368652,0.5266675353050232,-0.9639665484428406,1.174033522605896,0.5184028744697571,-3.2505316734313965,2.8144683837890625,-0.014866365119814873,34443.0,40271.0,35949.0,39045.0,0,0,0,0,37427.98828125,-674.0,-2992.0,-2233.0
2.76,0.5202162265777588,-0.014900915324687958,0.5268683433532715,0.0,0.0,0.0,-0.14479923248291016,-0.7261576056480408,-1.395530104637146,-0.022703785449266434,2.8657264709472656,0.5315441489219666,-0.9822733402252197,1.185726523399353,0.5287265777587891,-3.2547478675842285,2.79925274848938,-0.014747650362551212,34985.0,40763.0,35197.0,38267.0,0,0,0,0,37303.98828125,-653.0,-913.0,-2189.0
2.78,0.5337936282157898,-0.013520406559109688,0.5286349654197693,0.0,0.0,0.0,-0.17183917760849,-0.8454323410987854,-1.382676601409912,-0.022527992725372314,2.8657145500183105,0.5288353562355042,-0.9824129939079285,1.185586929321289,0.5390579700469971,-3.2532997131347656,2.8007009029388428,-0.01258799247443676,33992.0,42180.0,36272.0,36872.0,0,0,0,0,37329.06640625,-1294.0,-2846.0,-2165.0
2.8,0.5418477058410645,-0.012882120907306671,0.5290430188179016,0.0,0.0,0.0,-0.16673555970191956,-1.0171763896942139,-1.3689199686050415,-0.022529814392328262,2.865713357925415,0.5292330384254456,-0.9852777123451233,1.1827222108840942,0.5464957356452942,-3.2547082901000977,2.7992923259735107,-0.013387184590101242,33502.0,42338.0,36900.0,36692.0,0,0,0,0,37358.61328125,-930.0,-4892.0,-2169.0
2.82,0.5518127083778381,-0.012618497014045715,0.5294116735458374,0.0,0.0,0.0,-0.11114808171987534,-1.1140652894973755,-1.3554563522338867,-0.02252977341413498,2.865713357925415,0.52958744764328,-0.9907684922218323,1.1802316904067993,0.5615137219429016,-3.2531769275665283,2.806823253631592,-0.011760911904275417,32715.0,43551.0,37077.0,35189.0,0,0,0,0,37133.83203125,-1194.0,-6041.0,-2193.0
2.84,0.5615137219429016,-0.011760911904275417,0.5313113331794739,0.0,0.0,0.0,-0.05997249856591225,-0.9497274160385132,-1.333818793296814,-0.02212066389620304,2.8656861782073975,0.5315356850624084,-0.9891008734703064,1.1818993091583252,0.5685063600540161,-3.2539219856262207,2.8060781955718994,-0.012190780602395535,33815.0,41129.0,35803.0,37813.0,0,0,0,0,37140.40234375,-2023.0,-1173.0,-2339.0
2.86,0.5741645693778992,-0.012593559920787811,0.531762421131134,0.0,0.0,0.0,-0.02269267477095127,-0.7803506851196289,-1.3300797939300537,-0.022120404988527298,2.8656864166259766,0.5319891571998596,-0.9887593984603882,1.1822407245635986,0.5794948935508728,-3.255115509033203,2.804884672164917,-0.01281815767288208,34218.0,40934.0,35422.0,37950.0,0,0,0,0,37131.36328125,-1839.0,-1717.0,-2282.0
2.88,0.5807188749313354,-0.010369610972702503,0.5322433710098267,0.0,0.0,0.0,-0.031526703387498856,-0.693329393863678,-1.3360556364059448,-0.022120701149106026,2.8656864166259766,0.5324397683143616,-0.9894371032714844,1.1815630197525024,0.5894173383712769,-3.2537577152252197,2.8062424659729004,-0.01067056693136692,33053.0,41335.0,35781.0,36191.0,0,0,0,0,36590.23828125,-377.0,-2991.0,-2122.0
2.9,0.5988926887512207,-0.010700820945203304,0.5358001589775085,0.0,0.0,0.0,-0.007122457027435303,-0.8858367800712585,-1.3265533447265625,-0.021611373871564865,2.8656530380249023,0.5314722657203674,-1.0027222633361816,1.1812775135040283,0.6005539894104004,-3.263831377029419,2.7871689796447754,-0.011050671339035034,33204.0,43898.0,37862.0,35228.0,0,0,0,0,37548.94921875,-610.0,-7860.0,-2160.0
2.92,0.6019119024276733,-0.011745030991733074,0.5315758585929871,0.0,0.0,0.0,0.025788091123104095,-0.8912941217422485,-1.3166773319244385,-0.02161245048046112,2.865652322769165,0.5316599011421204,-1.004211664199829,1.1797881126403809,0.6096133589744568,-3.26505970954895,2.785940647125244,-0.011767718940973282,33298.0,44084.0,37474.0,35556.0,0,0,0,0,37603.8671875,420.0,-4186.0,-2197.0
2.94,0.6178466081619263,-0.010797821916639805,0.5317968726158142,0.0,0.0,0.0,0.0602724589407444,-0.7190942764282227,-1.2899854183197021,-0.021612457931041718,2.865652322769165,0.5317968726158142,-1.0012625455856323,1.1827372312545776,0.6236331462860107,-3.2638862133026123,2.787114143371582,-0.009869719855487347,34922.0,42256.0,35898.0,37416.0,0,0,0,0,37623.27734375,-682.0,-2598.0,-2227.0
2.962,0.6232976317405701,-0.010228048078715801,0.531854510307312,0.0,0.0,0.0,0.06033525988459587,-0.6321676969528198,-1.2833775281906128,-0.02091488242149353,2.8656065464019775,0.5344201326370239,-1.0231343507766724,1.1868654489517212,0.6278319358825684,-3.246291399002075,2.7787091732025146,-0.00990827102214098,35039.0,40737.0,34987.0,38085.0,0,0,0,0,37212.56640625,-1379.0,-1567.0,-2226.0
2.98,0.6349323391914368,-0.010068523697555065,0.5345956087112427,0.0,0.0,0.0,0.04642655327916145,-0.5777403116226196,-1.2689064741134644,-0.020915821194648743,2.8656060695648193,0.5347650647163391,-1.024143934249878,1.1858558654785156,0.6375035047531128,-3.2471156120300293,2.7778849601745605,-0.010201393626630306,34299.0,41795.0,35651.0,37035.0,0,0,0,0,37195.31640625,-1289.0,-2226.0,-2202.0
3.0,0.6446512341499329,-0.010520629584789276,0.5349424481391907,0.0,0.0,0.0,0.05341712757945061,-0.6782024502754211,-1.259314775466919,-0.020916372537612915,2.8656058311462402,0.5351142883300781,-1.0233681201934814,1.186631679534912,0.6491082906723022,-3.2482898235321045,2.7767107486724854,-0.01095431949943304,32527.0,43621.0,38603.0,36433.0,0,0,0,0,37796.484375,-1559.0,-7483.0,-2204.0
