time,x_kalman,y_kalman,z_kalman,x_lh,y_lh,z_lh,roll,pitch,yaw,motor.m1,motor.m2,motor.m3,motor.m4,stabilizer.thrust,stabilizer.roll,stabilizer.pitch,stabilizer.yaw
0.0,0.08070144057273865,-0.1338094025850296,0.01189875416457653,0.0,0.0,0.0,0.018313884735107422,-0.004508750047534704,0.008358394727110863,65535.0,55081.0,38797.0,48719.0,55019.8671875,0.025457708165049553,0.0029578383546322584,0.014140659943223
0.02,0.08361591398715973,-0.138599693775177,0.01190878078341484,0.0,0.0,0.0,0.025457708165049553,0.0029578383546322584,0.014140659943223,65535.0,51885.0,34935.0,48205.0,55492.04296875,0.030947968363761902,0.05346599593758583,0.015850575640797615
0.04,0.08668190240859985,-0.1436382383108139,0.011573292315006256,0.0,0.0,0.0,0.030947968363761902,0.05346599593758583,0.015850575640797615,64661.0,57285.0,46661.0,54949.0,55889.94140625,-0.12884697318077087,0.007835459895431995,0.018879104405641556
0.06,0.08959926664829254,-0.14844055473804474,0.01159418374300003,0.0,0.0,0.0,-0.12884697318077087,0.007835459895431995,0.018879104405641556,48804.0,59942.0,61962.0,51684.0,55598.60546875,-1.127193808555603,0.5301337838172913,-0.019429609179496765
0.08,0.09405914694070816,-0.15574485063552856,0.008330799639225006,0.0,0.0,0.0,-1.1027947664260864,0.5151389241218567,-0.01967701129615307,39767.0,59721.0,65535.0,47537.0,54139.32421875,-3.35831356048584,2.342196226119995,0.004427684936672449
0.1,0.0957745835185051,-0.15856985747814178,0.012948769144713879,0.0,0.0,0.0,-3.35831356048584,2.342196226119995,0.004427684936672449,28931.0,47919.0,65535.0,49047.0,51868.71484375,-6.061885833740234,4.28251314163208,0.13186101615428925
0.12,-0.009914816357195377,0.02181767113506794,0.017542922869324684,0.0,0.0,0.0,-7.008279800415039,5.095208644866943,0.17196612060070038,36526.0,54252.0,59026.0,46064.0,48967.55078125,-7.915855884552002,6.12362813949585,0.21669016778469086
0.14,-0.05374705791473389,0.06449685990810394,0.022817641496658325,0.0,0.0,0.0,-8.326963424682617,6.727670192718506,0.17283010482788086,51226.0,46722.0,39908.0,47012.0,46217.1640625,-7.526028156280518,6.277503490447998,0.010604647919535637
0.16,-0.025966428220272064,0.09444770961999893,0.03171093389391899,0.0,0.0,0.0,-7.526028156280518,6.277503490447998,0.010604647919535637,48060.0,44740.0,34916.0,41060.0,42194.3046875,-4.738514423370361,4.385439872741699,-0.331375390291214
0.18,0.014788705855607986,0.03424239158630371,0.03805195540189743,0.0,0.0,0.0,-4.6913323402404785,4.355339527130127,-0.33355772495269775,39783.0,42537.0,42205.0,41731.0,41564.41796875,-3.7649452686309814,3.651362180709839,-0.37595584988594055
0.2,-0.0012213267618790269,0.06543777137994766,0.049315717071294785,0.0,0.0,0.0,-2.624511480331421,3.2116410732269287,-0.4447343349456787,35020.0,41824.0,43220.0,38472.0,39634.1015625,-1.6349629163742065,2.8501429557800293,-0.4800616204738617
0.22,-0.006679834797978401,0.06763532757759094,0.06361640989780426,0.0,0.0,0.0,-0.7988815307617188,2.5546998977661133,-0.5005520582199097,36447.0,38977.0,38667.0,37189.0,37820.6953125,-0.1581580489873886,2.3418772220611572,-0.5032284259796143
0.24,-0.012186053209006786,0.0718846544623375,0.07943183183670044,0.0,0.0,0.0,0.570877194404602,2.0018928050994873,-0.5011084079742432,36565.0,38917.0,36451.0,34559.0,36623.65625,1.2315447330474854,1.6739568710327148,-0.48743903636932373
0.26,-0.014299250207841396,0.07044239342212677,0.09546783566474915,0.0,0.0,0.0,2.011786937713623,1.274715542793274,-0.4712807238101959,36723.0,37787.0,34205.0,33609.0,35581.62109375,2.7183785438537598,0.9064309597015381,-0.4417596757411957
0.28,-0.015330939553678036,0.06762409210205078,0.1115734726190567,0.0,0.0,0.0,3.428079128265381,0.5082042813301086,-0.4067734479904175,35427.0,37957.0,33309.0,31179.0,34468.67578125,4.0070061683654785,0.1413724720478058,-0.3669915795326233
0.3,-0.01873694360256195,0.0721629410982132,0.13013426959514618,0.0,0.0,0.0,4.6056413650512695,-0.2744528651237488,-0.3320610821247101,35728.0,35618.0,32908.0,32718.0,34243.8359375,5.101069927215576,-0.6503790020942688,-0.2854304611682892
0.32,-0.019180065020918846,0.07357115298509598,0.14502406120300293,0.0,0.0,0.0,5.574822902679443,-1.013533592224121,-0.23651698231697083,34101.0,35025.0,33361.0,31793.0,33570.765625,5.934991359710693,-1.351497769355774,-0.1795559674501419
0.34,-0.023795122280716896,0.0796605721116066,0.16345195472240448,0.0,0.0,0.0,6.26095724105835,-1.6729822158813477,-0.11771751940250397,34346.0,33896.0,33920.0,32998.0,33790.5703125,6.563462734222412,-1.9795987606048584,-0.06406166404485703
0.36,-0.023424264043569565,0.08004536479711533,0.17722274363040924,0.0,0.0,0.0,6.7926836013793945,-2.2363767623901367,-0.012301862239837646,34853.0,34063.0,34173.0,33483.0,34143.875,7.028384208679199,-2.4748971462249756,0.034871939569711685
0.38,-0.023837976157665253,0.07954202592372894,0.19010613858699799,0.0,0.0,0.0,7.170426845550537,-2.651705265045166,0.08351648598909378,36143.0,35263.0,33663.0,32971.0,34510.17578125,7.466668605804443,-2.8832266330718994,0.12124213576316833
0.4,-0.02034011296927929,0.07280091196298599,0.20213855803012848,0.0,0.0,0.0,7.548670768737793,-3.021435499191284,0.16116730868816376,35247.0,37491.0,35641.0,31717.0,35024.359375,7.626898765563965,-3.1173524856567383,0.2033436894416809
0.42,-0.02090914361178875,0.07230143994092941,0.21350044012069702,0.0,0.0,0.0,7.651486396789551,-3.2195653915405273,0.22801309823989868,36044.0,37016.0,36024.0,33544.0,35657.37109375,7.6576642990112305,-3.277890920639038,0.24586494266986847
0.44,-0.019676771014928818,0.06646791100502014,0.22285877168178558,0.0,0.0,0.0,7.664466381072998,-3.3433990478515625,0.27286213636398315,36989.0,36353.0,36237.0,35417.0,36249.73046875,7.535709857940674,-3.364912509918213,0.29075539112091064
0.46,-0.021009866148233414,0.06594076007604599,0.23286911845207214,0.0,0.0,0.0,7.384035110473633,-3.3602359294891357,0.3056468069553375,36143.0,36989.0,38223.0,35673.0,36757.65625,7.199221134185791,-3.3523056507110596,0.316837877035141
0.48,-0.02115248329937458,0.06477344781160355,0.24124419689178467,0.0,0.0,0.0,6.973356246948242,-3.3420817852020264,0.32746633887290955,37372.0,37744.0,38156.0,36268.0,37385.8046875,6.716943264007568,-3.295421600341797,0.3319641649723053
0.5,-0.020983831956982613,0.07023189216852188,0.25083792209625244,0.0,0.0,0.0,6.3127360343933105,-3.284601926803589,0.29097095131874084,36755.0,38451.0,39223.0,36503.0,37733.578125,6.107820510864258,-3.170693874359131,0.32091405987739563
0.52,-0.021964173763990402,0.06701789051294327,0.25863391160964966,0.0,0.0,0.0,5.808377742767334,-3.127993583679199,0.29952892661094666,38914.0,39310.0,37778.0,36534.0,38134.66015625,5.548734188079834,-3.0097928047180176,0.29713043570518494
0.54,-0.02266368456184864,0.06515755504369736,0.26593032479286194,0.0,0.0,0.0,5.303168773651123,-2.924691915512085,0.2832596004009247,39226.0,39524.0,37922.0,37016.0,38422.7734375,5.101780891418457,-2.856163501739502,0.27962633967399597
0.56,-0.023023052141070366,0.06205279007554054,0.2729196846485138,0.0,0.0,0.0,4.870757579803467,-2.799715280532837,0.2672158181667328,38603.0,37883.0,38915.0,39059.0,38615.4140625,4.656028747558594,-2.7300100326538086,0.2580069601535797
0.58,-0.023556895554065704,0.05967323109507561,0.27915632724761963,0.0,0.0,0.0,4.4239726066589355,-2.6287848949432373,0.25090956687927246,38025.0,40375.0,40699.0,37641.0,39185.6640625,4.183104038238525,-2.5351548194885254,0.24541495740413666
0.6,-0.02332398295402527,0.056406352669000626,0.2834545373916626,0.0,0.0,0.0,3.9204416275024414,-2.45027232170105,0.24383629858493805,38733.0,40313.0,40123.0,37947.0,39279.9609375,3.6576266288757324,-2.317889451980591,0.241387277841568
0.62,-0.023710165172815323,0.053412631154060364,0.2895880937576294,0.0,0.0,0.0,3.3567538261413574,-2.18640398979187,0.23247580230236053,38989.0,40625.0,39875.0,37883.0,39343.15625,3.0841786861419678,-2.0882372856140137,0.22538411617279053
0.64,-0.02359005995094776,0.049894336611032486,0.2952156662940979,0.0,0.0,0.0,2.7912628650665283,-1.9825807809829712,0.21419131755828857,38516.0,39422.0,40368.0,38946.0,39313.85546875,2.540719509124756,-1.871890664100647,0.21570871770381927
0.66,-0.023491136729717255,0.04617183655500412,0.30101242661476135,0.0,0.0,0.0,2.267512321472168,-1.749243140220642,0.2033557891845703,38701.0,40245.0,39953.0,38089.0,39247.4765625,2.008049249649048,-1.6508265733718872,0.19263175129890442
0.68,-0.023034993559122086,0.04216194525361061,0.30848100781440735,0.0,0.0,0.0,1.6864639520645142,-1.5780376195907593,0.18598532676696777,37246.0,39538.0,40754.0,38598.0,39034.53515625,1.4221677780151367,-1.5162725448608398,0.1811893880367279
0.7,-0.02249525673687458,0.03840449079871178,0.31294092535972595,0.0,0.0,0.0,1.1363708972930908,-1.416827917098999,0.1679612547159195,37664.0,39820.0,40082.0,37962.0,38882.58984375,0.8658612966537476,-1.3272353410720825,0.15596507489681244
0.72,-0.021488547325134277,0.03397068381309509,0.3185789883136749,0.0,0.0,0.0,0.6241560578346252,-1.2578855752944946,0.14666959643363953,38333.0,39583.0,39915.0,38445.0,39069.59375,0.3464777171611786,-1.1290392875671387,0.13967697322368622
0.74,-0.021443581208586693,0.030477706342935562,0.3225181996822357,0.0,0.0,0.0,0.11919891834259033,-1.0063395500183105,0.14092016220092773,37373.0,39911.0,40411.0,38205.0,38975.171875,-0.13166400790214539,-0.9088184237480164,0.13201600313186646
0.76,-0.019905559718608856,0.02655510976910591,0.3279343545436859,0.0,0.0,0.0,-0.3586149215698242,-0.8203370571136475,0.12270992994308472,38400.0,39596.0,39188.0,38324.0,38877.83984375,-0.6089946627616882,-0.7340624928474426,0.10882208496332169
0.78,-0.01921665482223034,0.022569110617041588,0.3349410891532898,0.0,0.0,0.0,-0.8152586221694946,-0.6669472455978394,0.09785307198762894,38064.0,40782.0,39426.0,36920.0,38798.0859375,-1.03938889503479,-0.6170712113380432,0.08278847485780716
0.8,-0.01840909756720066,0.01942046917974949,0.33852726221084595,0.0,0.0,0.0,-1.2300000190734863,-0.5852527618408203,0.07432705909013748,37540.0,39760.0,39960.0,37744.0,38751.49609375,-1.415542483329773,-0.5280590057373047,0.07078590244054794
0.82,-0.017889851704239845,0.015187149867415428,0.34375348687171936,0.0,0.0,0.0,-1.5678186416625977,-0.450062096118927,0.07179290801286697,37075.0,40089.0,40097.0,37183.0,38611.4765625,-1.7722184658050537,-0.38689643144607544,0.06045910343527794
0.84,-0.016785813495516777,0.011975963599979877,0.3492966294288635,0.0,0.0,0.0,-1.9101765155792236,-0.3085193932056427,0.06143658235669136,37086.0,39878.0,39928.0,37228.0,38530.2578125,-2.09306001663208,-0.23344480991363525,0.05732140690088272
0.86,-0.01638897694647312,0.00924091599881649,0.3545061945915222,0.0,0.0,0.0,-2.237361192703247,-0.16024094820022583,0.06096728518605232,37853.0,39481.0,38925.0,37749.0,38502.6796875,-2.3817098140716553,-0.10486499220132828,0.05194919556379318
0.88,-0.01538047380745411,0.00690233800560236,0.36091068387031555,0.0,0.0,0.0,-2.520867347717285,-0.04342629760503769,0.04291605204343796,36659.0,40203.0,39757.0,36645.0,38316.70703125,-2.62054705619812,-0.013300428166985512,0.030584711581468582
0.9,-0.014452564530074596,0.003240803489461541,0.3652327358722687,0.0,0.0,0.0,-2.7480077743530273,0.044909823685884476,0.021871604025363922,37067.0,38963.0,39233.0,37925.0,38297.62890625,-2.8618972301483154,0.0905294418334961,0.011611978523433208
0.92,-0.013532440178096294,0.0010988713474944234,0.37017378211021423,0.0,0.0,0.0,-2.9625372886657715,0.14162860810756683,0.004545434843748808,37126.0,38632.0,39200.0,37886.0,38211.46875,-3.02107310295105,0.20642921328544617,0.01203271746635437
0.94,-0.012421805411577225,-0.0025483286008238792,0.37572354078292847,0.0,0.0,0.0,-3.103534698486328,0.23822762072086334,0.009120223112404346,37736.0,39238.0,38754.0,37272.0,38250.33203125,-3.163939952850342,0.2690008878707886,0.00703654857352376
0.96,-0.01261995267122984,-0.004422803875058889,0.3804313838481903,0.0,0.0,0.0,-3.2202706336975098,0.31948575377464294,0.010109197348356247,36597.0,39045.0,39839.0,37719.0,38300.453125,-3.2521231174468994,0.34087032079696655,0.00256740627810359
0.98,-0.011706585995852947,-0.006633717566728592,0.3876121938228607,0.0,0.0,0.0,-3.2844605445861816,0.3653530478477478,-0.002005940768867731,37463.0,40721.0,39601.0,36511.0,38574.59765625,-3.3036587238311768,0.38951554894447327,-0.007383792661130428
1.0,-0.011103242635726929,-0.00798344798386097,0.3877676725387573,0.0,0.0,0.0,-3.353884220123291,0.38132354617118835,-0.0151915168389678,36876.0,39624.0,40374.0,37686.0,38640.88671875,-3.3751933574676514,0.3870914578437805,-0.014663824811577797
1.02,-0.010347908362746239,-0.010271476581692696,0.39181193709373474,0.0,0.0,0.0,-3.3732142448425293,0.4011608064174652,-0.009907908737659454,37907.0,39255.0,40403.0,39123.0,39172.8515625,-3.3866844177246094,0.4145379066467285,-0.015569264069199562
1.04,-0.01019469927996397,-0.011790480464696884,0.39323869347572327,0.0,0.0,0.0,-3.362457275390625,0.4342416226863861,-0.0170279573649168,38037.0,39797.0,40283.0,38859.0,39244.09375,-3.328573703765869,0.4483630955219269,-0.02494550310075283
1.06,-0.009762687608599663,-0.012343079783022404,0.39675629138946533,0.0,0.0,0.0,-3.29426908493042,0.4651760458946228,-0.03015766106545925,39187.0,40887.0,39039.0,37947.0,39264.63671875,-3.238762378692627,0.460538774728775,-0.03769770264625549
1.08,-0.00935136154294014,-0.014701567590236664,0.40014734864234924,0.0,0.0,0.0,-3.1607353687286377,0.4471972584724426,-0.04759667068719864,38016.0,40596.0,39710.0,37566.0,38945.10546875,-3.093320846557617,0.4191557765007019,-0.05566899850964546
1.1,-0.008270899765193462,-0.015690889209508896,0.40495431423187256,0.0,0.0,0.0,-3.0428380966186523,0.4044710397720337,-0.06104867532849312,37882.0,41004.0,39892.0,36902.0,38893.40234375,-2.9798777103424072,0.3795478343963623,-0.06016646698117256
1.12,-0.007321873214095831,-0.016405310481786728,0.4084433913230896,0.0,0.0,0.0,-2.90199875831604,0.387014776468277,-0.05475027114152908,37769.0,41553.0,39997.0,36097.0,39059.31640625,-2.8351151943206787,0.4150092899799347,-0.04516087844967842
1.14,-0.0070396545343101025,-0.016476701945066452,0.41064444184303284,0.0,0.0,0.0,-2.766092538833618,0.43181082606315613,-0.04029997065663338,38834.0,40466.0,39184.0,37672.0,39012.67578125,-2.7008655071258545,0.4678454101085663,-0.0372781977057457
1.16,-0.006980471778661013,-0.015652557834982872,0.41394609212875366,0.0,0.0,0.0,-2.6046814918518066,0.47393569350242615,-0.03844248130917549,37041.0,41667.0,40807.0,36425.0,38957.59375,-2.4995696544647217,0.46011629700660706,-0.04497803375124931
1.18,-0.006179340183734894,-0.01591397263109684,0.41993770003318787,0.0,0.0,0.0,-2.4074509143829346,0.4617302715778351,-0.05009246617555618,37606.0,40122.0,39942.0,37754.0,38821.4921875,-2.309695243835449,0.45469987392425537,-0.053021300584077835
1.2,-0.006009963806718588,-0.01603303663432598,0.4207473397254944,0.0,0.0,0.0,-2.2373645305633545,0.46578264236450195,-0.055889394134283066,37022.0,40544.0,40574.0,37036.0,38761.50390625,-2.174729585647583,0.45925846695899963,-0.057219818234443665
1.22,-0.005452101584523916,-0.013156280852854252,0.4239994287490845,0.0,0.0,0.0,-2.0978035926818848,0.4837256073951721,-0.052832089364528656,38322.0,40798.0,39156.0,36648.0,38947.8828125,-1.9932101964950562,0.514958918094635,-0.044223345816135406
1.24,-0.004929561633616686,-0.012791026383638382,0.4259110391139984,0.0,0.0,0.0,-1.896260380744934,0.5326511263847351,-0.037462666630744934,37895.0,40033.0,39717.0,38099.0,38932.1484375,-1.7826018333435059,0.5215278267860413,-0.042635101824998856
1.26,-0.005106091033667326,-0.011755332350730896,0.4289257526397705,0.0,0.0,0.0,-1.6812243461608887,0.47828054428100586,-0.0511397123336792,38948.0,41174.0,38704.0,36898.0,38927.3359375,-1.5715306997299194,0.4340170919895172,-0.056236959993839264
1.28,-0.004601546563208103,-0.010858471505343914,0.4336239993572235,0.0,0.0,0.0,-1.4508503675460815,0.4007144570350647,-0.062069106847047806,38132.0,38574.0,39526.0,39192.0,38850.234375,-1.3386280536651611,0.37275615334510803,-0.07006590813398361
1.3,-0.004703617189079523,-0.009235468693077564,0.4350833594799042,0.0,0.0,0.0,-1.2228455543518066,0.3328516185283661,-0.07138874381780624,38103.0,39605.0,39415.0,38237.0,38833.58203125,-1.1289596557617188,0.29402413964271545,-0.07654757797718048
1.32,-0.004393350798636675,-0.0065581537783145905,0.43794968724250793,0.0,0.0,0.0,-1.005098581314087,0.25377631187438965,-0.0781991109251976,38238.0,40778.0,39248.0,37092.0,39031.76953125,-0.9146667718887329,0.192129448056221,-0.07907503843307495
1.34,-0.0038616459351032972,-0.0036666628438979387,0.43967562913894653,0.0,0.0,0.0,-0.779281735420227,0.16418638825416565,-0.08373050391674042,37559.0,41483.0,40357.0,36781.0,39056.46875,-0.621195375919342,0.17416483163833618,-0.08656588941812515
1.36,-0.004566184710711241,-0.002893217373639345,0.4422917068004608,0.0,0.0,0.0,-0.4810609221458435,0.1716729998588562,-0.08747108280658722,38679.0,39505.0,39131.0,38977.0,39080.2890625,-0.340556800365448,0.15119805932044983,-0.09155254065990448
1.38,-0.003876463742926717,-4.701167927123606e-05,0.44734054803848267,0.0,0.0,0.0,-0.22187146544456482,0.09358558058738708,-0.09890444576740265,38514.0,41450.0,38870.0,36766.0,38889.0,-0.09179249405860901,0.03763061761856079,-0.1140015572309494
1.4,-0.003916962072253227,0.001565460697747767,0.44827187061309814,0.0,0.0,0.0,0.03159882873296738,-0.018607597798109055,-0.12442788481712341,37231.0,40229.0,40423.0,37713.0,38897.20703125,0.1660710722208023,-0.05867964029312134,-0.1253347545862198
1.42,-0.0038114222697913647,0.004716220777481794,0.4507904350757599,0.0,0.0,0.0,0.26172539591789246,-0.06803853064775467,-0.12462035566568375,37738.0,39664.0,39610.0,38660.0,38869.7734375,0.37150534987449646,-0.0680423453450203,-0.12304370105266571
1.44,-0.003627068130299449,0.006454883608967066,0.4535740911960602,0.0,0.0,0.0,0.484436571598053,-0.07901306450366974,-0.13266754150390625,39069.0,40981.0,38259.0,37203.0,38884.76171875,0.5860396027565002,-0.10729598999023438,-0.14898380637168884
1.46,-0.004832770209759474,0.009145129472017288,0.45598629117012024,0.0,0.0,0.0,0.6746907234191895,-0.10406792163848877,-0.1608341932296753,37131.0,40251.0,40145.0,38041.0,38893.02734375,0.8078520894050598,-0.11456707864999771,-0.17306576669216156
1.48,-0.004572645295411348,0.011594069190323353,0.460747092962265,0.0,0.0,0.0,0.9099587202072144,-0.13065390288829803,-0.18414881825447083,38082.0,40116.0,38732.0,37626.0,38645.7734375,1.02910578250885,-0.1379387229681015,-0.19580425322055817
1.5,-0.0044468906708061695,0.013283289968967438,0.4621051847934723,0.0,0.0,0.0,1.1503040790557861,-0.13681180775165558,-0.2037510871887207,37966.0,40028.0,38890.0,37732.0,38670.2109375,1.2383348941802979,-0.16344381868839264,-0.21120917797088623
1.52,-0.004108324181288481,0.015129285864531994,0.4644637405872345,0.0,0.0,0.0,1.315108299255371,-0.20424291491508484,-0.21475636959075928,38248.0,39902.0,38770.0,37812.0,38616.07421875,1.4208084344863892,-0.20389491319656372,-0.217280313372612
1.54,-0.005039405543357134,0.017111413180828094,0.46720263361930847,0.0,0.0,0.0,1.5176608562469482,-0.19044457376003265,-0.2189132273197174,37627.0,40789.0,38993.0,37127.0,38663.80859375,1.6049728393554688,-0.20758534967899323,-0.22135786712169647
1.56,-0.003325868397951126,0.01884499192237854,0.4694325923919678,0.0,0.0,0.0,1.68821120262146,-0.1876310110092163,-0.23445060849189758,38187.0,39563.0,38689.0,38341.0,38727.45703125,1.7571454048156738,-0.16511544585227966,-0.2443953901529312
1.58,-0.0033379795495420694,0.020428938791155815,0.47298717498779297,0.0,0.0,0.0,1.8259754180908203,-0.1559171974658966,-0.25140559673309326,39423.0,39179.0,37581.0,38913.0,38807.890625,1.8910632133483887,-0.15316398441791534,-0.2630549967288971
1.6,-0.004104394931346178,0.02129215933382511,0.47341349720954895,0.0,0.0,0.0,1.9573793411254883,-0.160543754696846,-0.2695024311542511,37671.0,41153.0,39479.0,37109.0,38875.21484375,1.9952492713928223,-0.1738661676645279,-0.2776030898094177
1.62,-0.0031520549673587084,0.022319534793496132,0.47534066438674927,0.0,0.0,0.0,2.050401210784912,-0.18406429886817932,-0.2860678434371948,37649.0,41103.0,39571.0,37217.0,39241.0390625,2.1084141731262207,-0.17240016162395477,-0.28883469104766846
1.64,-0.0030931730289012194,0.023178990930318832,0.4752754867076874,0.0,0.0,0.0,2.153182029724121,-0.1652614176273346,-0.2928173542022705,38442.0,40292.0,39512.0,38842.0,39306.27734375,2.182018995285034,-0.13691303133964539,-0.2982770800590515
1.66,-0.0033331909216940403,0.024775398895144463,0.4768582880496979,0.0,0.0,0.0,2.1935720443725586,-0.1280028373003006,-0.3030029833316803,38344.0,41468.0,39538.0,38034.0,39363.2734375,2.1958563327789307,-0.13525176048278809,-0.3132792115211487
1.68,-0.0030411083716899157,0.025267308577895164,0.4810948669910431,0.0,0.0,0.0,2.2010185718536377,-0.1421995908021927,-0.32610973715782166,38237.0,42543.0,39343.0,36553.0,39157.05859375,2.2001876831054688,-0.1536247283220291,-0.3374834656715393
1.7,-0.0030801647808402777,0.024305114522576332,0.4810236990451813,0.0,0.0,0.0,2.2259411811828613,-0.14795668423175812,-0.34663495421409607,38769.0,40619.0,39001.0,38235.0,39163.49609375,2.242115020751953,-0.1343563348054886,-0.3508172631263733
1.72,-0.002861896762624383,0.02452472783625126,0.4825996458530426,0.0,0.0,0.0,2.2513022422790527,-0.11742688715457916,-0.3513423204421997,37295.0,39843.0,40547.0,38999.0,39302.6953125,2.242143392562866,-0.11172978579998016,-0.3518829941749573
1.74,-0.0011303368955850601,0.024967310950160027,0.48339077830314636,0.0,0.0,0.0,2.208672285079956,-0.09129461646080017,-0.3516915440559387,38256.0,41572.0,39694.0,37702.0,39308.41796875,2.1516003608703613,-0.07190117239952087,-0.3520382344722748
1.76,-0.001638371730223298,0.024682408198714256,0.48482948541641235,0.0,0.0,0.0,2.1069443225860596,-0.04808322340250015,-0.3540511429309845,38229.0,41221.0,39877.0,37873.0,39284.6953125,2.046538829803467,-0.03802236542105675,-0.3518090546131134
1.78,0.0004053981974720955,0.023834584280848503,0.48824581503868103,0.0,0.0,0.0,2.000155448913574,-0.02221071720123291,-0.35116642713546753,37744.0,40846.0,39456.0,37626.0,38883.03125,1.9343281984329224,0.006866300944238901,-0.3522025942802429
1.8,0.00031964073423296213,0.023178638890385628,0.48967164754867554,0.0,0.0,0.0,1.8723701238632202,0.03273142874240875,-0.3553668260574341,38277.0,41505.0,39221.0,36397.0,38824.81640625,1.823246717453003,0.06321249157190323,-0.34814149141311646
1.82,-0.0003000144788529724,0.02157839946448803,0.49132752418518066,0.0,0.0,0.0,1.7879416942596436,0.09203127771615982,-0.3371066451072693,38432.0,41100.0,38986.0,36698.0,39211.3515625,1.773597240447998,0.12547117471694946,-0.3244074881076813
1.84,-0.000444123987108469,0.01923021487891674,0.49065619707107544,0.0,0.0,0.0,1.7436952590942383,0.15531890094280243,-0.31071189045906067,38877.0,41219.0,39645.0,37159.0,39240.9453125,1.733371615409851,0.18487165868282318,-0.29057538509368896
1.86,-0.0002117798285325989,0.015828514471650124,0.4920029044151306,0.0,0.0,0.0,1.7154525518417358,0.17699037492275238,-0.2661176025867462,39191.0,40769.0,39675.0,37449.0,39305.21484375,1.624392032623291,0.1497400403022766,-0.23895759880542755
1.88,0.0012936663115397096,0.016394279897212982,0.495481014251709,0.0,0.0,0.0,1.5384204387664795,0.1292218565940857,-0.2075597196817398,39479.0,41087.0,39835.0,36595.0,39263.05859375,1.429718017578125,0.0920976996421814,-0.1697172075510025
1.9,0.0027503978926688433,0.01695086434483528,0.49496525526046753,0.0,0.0,0.0,1.3402106761932373,0.07802912592887878,-0.12457685172557831,39736.0,41096.0,39900.0,36376.0,39279.90234375,1.257822036743164,0.07682795077562332,-0.07053389400243759
1.92,0.0013681272976100445,0.013982316479086876,0.4962001144886017,0.0,0.0,0.0,1.1987700462341309,0.09720885753631592,-0.018365833908319473,39453.0,40643.0,40617.0,36423.0,39132.79296875,1.1111127138137817,0.10985443741083145,0.04900801181793213
1.94,0.0013531747972592711,0.013611271046102047,0.4982854425907135,0.0,0.0,0.0,1.0119961500167847,0.10440530627965927,0.1147676482796669,38708.0,40734.0,41362.0,35724.0,39120.4921875,0.9502221345901489,0.10814351588487625,0.1820293515920639
1.96,0.0009135928703472018,0.010933122597634792,0.49956971406936646,0.0,0.0,0.0,0.828641414642334,0.14487989246845245,0.2493143528699875,40586.0,39402.0,39790.0,36646.0,39094.8203125,0.7328466773033142,0.1706785261631012,0.3147643804550171
1.98,0.0009460936416871846,0.008989963680505753,0.502970814704895,0.0,0.0,0.0,0.6196131110191345,0.16107238829135895,0.38865020871162415,39521.0,39483.0,40295.0,36489.0,38920.02734375,0.5304088592529297,0.1546657830476761,0.4541865885257721
2.0,0.0012854337692260742,0.005467268638312817,0.5028431415557861,0.0,0.0,0.0,0.4140252470970154,0.13666968047618866,0.514580249786377,27341.0,50385.0,52375.0,25471.0,38865.5859375,0.3162854313850403,0.1479400396347046,0.5776269435882568
2.02,0.00011164226452820003,0.002198078902438283,0.5042147636413574,0.0,0.0,0.0,0.19192729890346527,0.13250446319580078,0.6269636750221252,39658.0,39768.0,40606.0,35328.0,38777.5078125,0.05850118771195412,-0.07178154587745667,0.676148533821106
2.04,0.006217397749423981,0.00030640728073194623,0.5056714415550232,0.0,0.0,0.0,-0.07360508292913437,-0.6543794870376587,0.7451179027557373,43217.0,32343.0,36631.0,42573.0,38594.5390625,-0.1738223135471344,-1.6579879522323608,0.8084092140197754
2.06,0.009914961643517017,-0.002807974349707365,0.507183313369751,0.0,0.0,0.0,-0.29283571243286133,-3.0224123001098633,0.8575360178947449,41007.0,34409.0,38711.0,39925.0,38448.1796875,-0.47825461626052856,-4.488883972167969,0.8975063562393188
2.08,0.01146512571722269,-0.0007480112253688276,0.5116006135940552,0.0,0.0,0.0,-0.7156713604927063,-6.045841217041016,0.9376631379127502,39067.0,36099.0,40813.0,37581.0,38333.42578125,-0.9377235770225525,-7.331161022186279,0.9863219261169434
2.1,0.008449653163552284,-0.0007835954893380404,0.5104779601097107,0.0,0.0,0.0,-1.1794458627700806,-8.530694961547852,1.0315746068954468,38594.0,39230.0,40886.0,34538.0,38310.82421875,-1.3710154294967651,-9.53371524810791,1.063009262084961
2.12,0.0073005203157663345,-0.002607886213809252,0.5120888948440552,0.0,0.0,0.0,-1.4743572473526,-10.340686798095703,1.0977940559387207,38688.0,40072.0,40858.0,33670.0,38240.234375,-1.5241100788116455,-11.135754585266113,1.1402688026428223
2.14,0.00939495861530304,-0.006532434374094009,0.5143235921859741,0.0,0.0,0.0,-1.532466173171997,-11.844273567199707,1.174810767173767,39524.0,39128.0,40224.0,34264.0,38350.796875,-1.5147178173065186,-12.510973930358887,1.2089333534240723
2.16,0.009687110781669617,-0.006994509603828192,0.5157874822616577,0.0,0.0,0.0,-1.472822904586792,-13.047446250915527,1.2469031810760498,39048.0,37260.0,40760.0,36528.0,38494.22265625,-1.4712141752243042,-13.615873336791992,1.2821440696716309
2.18,0.013790203258395195,-0.007661344949156046,0.52222740650177,0.0,0.0,0.0,-1.4794257879257202,-14.098153114318848,1.3119003772735596,38792.0,36768.0,40272.0,36916.0,38304.84375,-1.505007028579712,-14.5830659866333,1.3338842391967773
2.2,0.015681840479373932,-0.007763666100800037,0.5205633640289307,0.0,0.0,0.0,-1.5388789176940918,-15.022337913513184,1.3488686084747314,39127.0,36805.0,40215.0,37501.0,38553.0390625,-1.5452367067337036,-15.481157302856445,1.3720729351043701
2.22,0.019811753183603287,-0.009267083369195461,0.5216531753540039,0.0,0.0,0.0,-1.592253565788269,-15.87502670288086,1.3735204935073853,38839.0,38443.0,41139.0,36371.0,39363.96875,-1.6064355373382568,-16.250286102294922,1.3916733264923096
2.24,0.025997646152973175,-0.010023473761975765,0.5194923281669617,0.0,0.0,0.0,-1.608086347579956,-16.526769638061523,1.404371738433838,39553.0,39595.0,41629.0,37315.0,39680.234375,-1.6123775243759155,-16.70060920715332,1.4077492952346802
2.26,0.03275737166404724,-0.010195774957537651,0.519763708114624,0.0,0.0,0.0,-1.6106702089309692,-16.792530059814453,1.406884789466858,40015.0,40881.0,41595.0,36881.0,39994.5546875,-1.5762228965759277,-16.810625076293945,1.4028871059417725
2.28,0.04022550582885742,-0.010868432931602001,0.5163838267326355,0.0,0.0,0.0,-1.5200194120407104,-16.761911392211914,1.4017181396484375,39630.0,41366.0,43342.0,38910.0,40947.6796875,-1.4655120372772217,-16.641611099243164,1.389642596244812
2.3,0.04618095979094505,-0.011428198777139187,0.515631377696991,0.0,0.0,0.0,-1.4346492290496826,-16.443771362304688,1.362398624420166,40224.0,41024.0,43112.0,39844.0,41158.28515625,-1.4212422370910645,-16.22279930114746,1.329583764076233
2.32,0.05637754872441292,-0.011293959803879261,0.5149966478347778,0.0,0.0,0.0,-1.4175275564193726,-15.947994232177734,1.2939989566802979,40868.0,42160.0,42258.0,39638.0,41226.4375,-1.4320387840270996,-15.647482872009277,1.2423043251037598
2.34,0.06816482543945312,-0.008838767185807228,0.5146723985671997,0.0,0.0,0.0,-1.4178775548934937,-15.268183708190918,1.1915760040283203,40016.0,42766.0,43044.0,39070.0,41234.86328125,-1.3854771852493286,-14.886322975158691,1.135621190071106
2.36,0.07875579595565796,-0.00868165586143732,0.5141321420669556,0.0,0.0,0.0,-1.3146460056304932,-14.389168739318848,1.09849214553833,39449.0,43309.0,42943.0,39111.0,41184.80078125,-1.2705497741699219,-13.918210983276367,1.0454576015472412
2.38,0.08884483575820923,-0.009641708806157112,0.5137333869934082,0.0,0.0,0.0,-1.2217991352081299,-13.358512878417969,0.9862349629402161,39405.0,43805.0,42515.0,38015.0,40902.0546875,-1.1204898357391357,-12.820015907287598,0.9468538165092468
2.4,0.10279715061187744,-0.013307708315551281,0.5144989490509033,0.0,0.0,0.0,-0.9881666302680969,-12.08486557006836,0.8911150693893433,39384.0,43346.0,42102.0,38328.0,40717.9296875,-0.8696547150611877,-11.475153923034668,0.8441402316093445
2.42,0.1199941411614418,-0.013808123767375946,0.514396071434021,0.0,0.0,0.0,-0.8067153096199036,-10.801225662231445,0.786254346370697,38471.0,42963.0,42611.0,38431.0,40342.02734375,-0.7552631497383118,-10.139567375183105,0.7256017327308655
2.44,0.13528543710708618,-0.01222686655819416,0.5156742334365845,0.0,0.0,0.0,-0.6973179578781128,-9.36512279510498,0.6753003001213074,37579.0,42011.0,42699.0,38535.0,40102.2578125,-0.6466079950332642,-8.629846572875977,0.6331645250320435
2.46,0.15086869895458221,-0.011778905056416988,0.5161119103431702,0.0,0.0,0.0,-0.6044490933418274,-7.853391170501709,0.5889555811882019,37709.0,41639.0,42067.0,38505.0,39835.84765625,-0.5632959008216858,-6.995758056640625,0.5521949529647827
2.48,0.16119149327278137,-0.012337052263319492,0.5167739987373352,0.0,0.0,0.0,-0.5403924584388733,-6.233694553375244,0.5149775147438049,37208.0,41672.0,41556.0,37504.0,39365.12890625,-0.5209746360778809,-5.412609577178955,0.4756935238838196
2.5,0.17266710102558136,-0.011302586644887924,0.5192510485649109,0.0,0.0,0.0,-0.5043529272079468,-4.69632625579834,0.4346367120742798,36475.0,41045.0,42033.0,37543.0,39188.71484375,-0.48495808243751526,-3.9995055198669434,0.3977183699607849
2.52,0.18788832426071167,-0.012803290970623493,0.5203331112861633,0.0,0.0,0.0,-0.46616917848587036,-3.310926675796509,0.3768920600414276,36955.0,42111.0,41091.0,36367.0,39076.68359375,-0.4613262116909027,-2.6319527626037598,0.3465549647808075
2.54,0.20468571782112122,-0.01182755921036005,0.5214408040046692,0.0,0.0,0.0,-0.4414380192756653,-1.9648244380950928,0.3148130178451538,36523.0,41751.0,41117.0,36785.0,39012.25390625,-0.4229520261287689,-1.2799071073532104,0.27858129143714905
2.56,0.22319801151752472,-0.012129177339375019,0.5225388407707214,0.0,0.0,0.0,-0.40377289056777954,-0.6477946639060974,0.24261590838432312,35486.0,41822.0,41814.0,36874.0,38999.3203125,-0.3775256276130676,0.07638080418109894,0.19743646681308746
2.58,0.2405514270067215,-0.010925529524683952,0.5236597657203674,0.0,0.0,0.0,-0.384467214345932,0.6300655603408813,0.15448462963104248,36574.0,41604.0,40672.0,37002.0,38963.73828125,-0.37477463483810425,1.2792785167694092,0.10854510217905045
2.6,0.2543669044971466,-0.017996788024902344,0.5248980522155762,0.0,0.0,0.0,-0.3059426546096802,1.8944534063339233,0.08933347463607788,36715.0,42163.0,40213.0,36521.0,38903.43359375,-0.300728440284729,2.4725120067596436,0.028154481202363968
2.62,0.25981783866882324,-0.009320796467363834,0.5262882709503174,0.0,0.0,0.0,-0.2985425889492035,3.1000733375549316,-0.035642314702272415,35334.0,41368.0,41510.0,37096.0,38817.1640625,-0.20003549754619598,3.789755344390869,-0.06037244573235512
2.64,0.23930427432060242,-0.009645175188779831,0.5280173420906067,0.0,0.0,0.0,-0.24871695041656494,4.477617263793945,-0.13100498914718628,33656.0,43500.0,43014.0,34910.0,38716.7109375,-0.20372556149959564,5.1685638427734375,-0.1762976348400116
2.66,0.22435978055000305,-0.012644902803003788,0.5297946333885193,0.0,0.0,0.0,-0.19302743673324585,5.740030765533447,-0.21591608226299286,34793.0,43403.0,41497.0,35087.0,38655.3828125,-0.20567819476127625,6.282990455627441,-0.2723025977611542
2.68,0.20668643712997437,0.0039470321498811245,0.5313970446586609,0.0,0.0,0.0,-0.2757134735584259,6.657278060913086,-0.3420461118221283,34556.0,41044.0,41410.0,37690.0,38667.83203125,-0.2563580274581909,6.765073299407959,-0.38766321539878845
2.7,0.22433635592460632,0.0033598332665860653,0.5321336984634399,0.0,0.0,0.0,-0.22926032543182373,6.664738655090332,-0.42438939213752747,37863.0,39927.0,37903.0,39003.0,38691.41796875,-0.16668067872524261,6.471360206604004,-0.4592549502849579
2.72,0.2356104552745819,-0.0021784836426377296,0.5332021117210388,0.0,0.0,0.0,-0.06804696470499039,6.192053318023682,-0.5017966032028198,38294.0,41970.0,37606.0,36934.0,38159.62109375,0.06053735688328743,5.7917046546936035,-0.5351277589797974
2.74,0.2571277320384979,-0.00930796843022108,0.5378484725952148,0.0,0.0,0.0,0.251218318939209,5.494302749633789,-0.5645225644111633,36327.0,41947.0,38455.0,35987.0,38207.75,0.365718811750412,5.227102756500244,-0.6084122061729431
2.76,0.2664039134979248,-0.005523098167032003,0.5390447974205017,0.0,0.0,0.0,0.4880550503730774,5.040219783782959,-0.6439005136489868,34712.0,42744.0,40484.0,35004.0,38297.3515625,0.5466924905776978,4.826971054077148,-0.6688617467880249
2.78,0.2873302102088928,-0.0054257893934845924,0.5393480658531189,0.0,0.0,0.0,0.5852759480476379,4.762361526489258,-0.6881456971168518,35212.0,40502.0,39502.0,37060.0,38129.19140625,0.6180636882781982,4.633788585662842,-0.6951879858970642
2.8,0.31168481707572937,-0.008185083046555519,0.5426685214042664,0.0,0.0,0.0,0.602813184261322,4.614269733428955,-0.7181048393249512,36466.0,40776.0,38602.0,36812.0,38211.4140625,0.6196127533912659,4.6373090744018555,-0.7392503619194031
2.82,0.32518914341926575,-0.009701068513095379,0.5435965061187744,0.0,0.0,0.0,0.61314457654953,4.618816375732422,-0.7521823048591614,36296.0,41532.0,38848.0,36464.0,36874.83203125,0.5916751027107239,4.66854190826416,-0.7670385241508484
2.84,0.3445039689540863,-0.006855140905827284,0.5549798011779785,0.0,0.0,0.0,0.5746802091598511,4.693899154663086,-0.7834674119949341,34819.0,38563.0,37715.0,36555.0,36940.24609375,0.560230016708374,4.7823967933654785,-0.7972752451896667
2.86,0.36058881878852844,-0.006504116114228964,0.5563548803329468,0.0,0.0,0.0,0.5280279517173767,4.83317756652832,-0.8049789667129517,35574.0,39956.0,37278.0,35172.0,37085.66796875,0.5003011226654053,4.975285053253174,-0.8095808625221252
2.88,0.3697472810745239,-0.005361140239983797,0.5546817779541016,0.0,0.0,0.0,0.49458688497543335,5.1024088859558105,-0.8135669231414795,34996.0,41212.0,39030.0,35302.0,37767.046875,0.4751532971858978,5.2537384033203125,-0.8249558806419373
2.9,0.38443201780319214,-0.0026219161227345467,0.5554038286209106,0.0,0.0,0.0,0.45083653926849365,5.376252174377441,-0.8298798203468323,35483.0,40087.0,39211.0,36895.0,37919.17578125,0.44542354345321655,5.569444179534912,-0.8408434391021729
2.92,0.39213088154792786,-0.0026563226711004972,0.5559632778167725,0.0,0.0,0.0,0.43670588731765747,5.738308906555176,-0.8442952632904053,35842.0,42084.0,39234.0,35656.0,38204.96484375,0.4251035749912262,5.874764919281006,-0.8497408628463745
2.94,0.4045718312263489,-0.0028529425617307425,0.5562036037445068,0.0,0.0,0.0,0.42113760113716125,5.99868106842041,-0.8591800332069397,37303.0,41277.0,38517.0,36863.0,38615.10546875,0.43692848086357117,6.1160407066345215,-0.8668747544288635
2.96,0.4165339171886444,-0.003447843249887228,0.5562259554862976,0.0,0.0,0.0,0.45658227801322937,6.198988914489746,-0.8690662980079651,36835.0,41149.0,39447.0,37533.0,38857.16015625,0.47318705916404724,6.3062825202941895,-0.8751711845397949
2.98,0.4242297112941742,-0.002528752898797393,0.5532412528991699,0.0,0.0,0.0,0.4681455194950104,6.411935329437256,-0.8764505386352539,36520.0,41098.0,39598.0,37536.0,38781.765625,0.456548273563385,6.522766590118408,-0.8740555644035339
3.0,0.43196389079093933,-0.0010329729411751032,0.5572059750556946,0.0,0.0,0.0,0.43806198239326477,6.6283440589904785,-0.8808914422988892,36261.0,42963.0,40083.0,36161.0,38948.4375,0.4100518524646759,6.732786655426025,-0.8942577838897705
3.02,0.43893879652023315,-0.0007359326118603349,0.5569647550582886,0.0,0.0,0.0,0.3946608901023865,6.8529229164123535,-0.903668224811554,36716.0,41968.0,39912.0,37508.0,38078.12109375,0.39776360988616943,6.898266792297363,-0.9085199236869812
3.04,0.4506595730781555,0.0016608918085694313,0.5636435747146606,0.0,0.0,0.0,0.38897374272346497,6.963489532470703,-0.9099481701850891,35986.0,39360.0,38768.0,38414.0,38132.4140625,0.4193192422389984,6.9912519454956055,-0.9190456867218018
3.06,0.4596407413482666,-9.314528870163485e-05,0.5637191534042358,0.0,0.0,0.0,0.4295131266117096,7.008271217346191,-0.9248065948486328,36309.0,41113.0,38841.0,36709.0,38243.29296875,0.43860113620758057,7.022366523742676,-0.9289211630821228
3.08,0.46785616874694824,-0.0002114851668011397,0.5561860203742981,0.0,0.0,0.0,0.45731186866760254,7.052083492279053,-0.9301285147666931,36808.0,40824.0,39724.0,38372.0,38932.96484375,0.46901246905326843,7.059096813201904,-0.9277112483978271
3.1,0.47734716534614563,-0.0003879117430187762,0.5584724545478821,0.0,0.0,0.0,0.46476253867149353,7.087774753570557,-0.9270001649856567,37468.0,40610.0,39428.0,39038.0,39227.6796875,0.45404502749443054,7.119134902954102,-0.9216135144233704
3.12,0.4816795587539673,0.0023259571753442287,0.5579288601875305,0.0,0.0,0.0,0.44560617208480835,7.1308393478393555,-0.9218491315841675,36960.0,41100.0,40160.0,39064.0,39332.3515625,0.42356184124946594,7.1192193031311035,-0.9169990420341492
3.14,0.4876181483268738,0.002679816447198391,0.5577621459960938,0.0,0.0,0.0,0.4070853590965271,7.12819766998291,-0.9225230813026428,37645.0,40681.0,39831.0,39447.0,39401.23828125,0.39935052394866943,7.098649024963379,-0.9288116693496704
3.16,0.49228352308273315,0.002787819132208824,0.557038426399231,0.0,0.0,0.0,0.3926663398742676,7.0531535148620605,-0.9312185645103455,37827.0,42243.0,39907.0,38119.0,39562.62890625,0.38342607021331787,6.9855852127075195,-0.9289273619651794
3.18,0.49882152676582336,0.003853054717183113,0.548225462436676,0.0,0.0,0.0,0.3916548490524292,6.8966217041015625,-0.9259052872657776,39401.0,42189.0,40577.0,40213.0,40595.42578125,0.4113960564136505,6.826160907745361,-0.9206656813621521
3.2,0.5032269358634949,0.0037249932065606117,0.5470308661460876,0.0,0.0,0.0,0.4242517650127411,6.737334728240967,-0.9123878479003906,38576.0,45142.0,41320.0,37622.0,40681.546875,0.4228079617023468,6.634039878845215,-0.9114516377449036
3.22,0.5071574449539185,0.006123177707195282,0.5458531975746155,0.0,0.0,0.0,0.42305195331573486,6.550973892211914,-0.9067550301551819,38898.0,42848.0,41038.0,39868.0,41258.2109375,0.4327515959739685,6.48500919342041,-0.9050856232643127
3.24,0.5095278024673462,0.004768391605466604,0.5405866503715515,0.0,0.0,0.0,0.4393124580383301,6.389400005340576,-0.9088543653488159,40234.0,42938.0,40852.0,40924.0,41237.8671875,0.4235163927078247,6.272946834564209,-0.906394362449646
3.26,0.5120519995689392,0.00622599758207798,0.5392993688583374,0.0,0.0,0.0,0.4225197434425354,6.135420799255371,-0.9069994688034058,39300.0,44436.0,41630.0,39118.0,41121.953125,0.4213132858276367,5.98435115814209,-0.9064035415649414
3.28,0.5142762064933777,0.0063528879545629025,0.534106433391571,0.0,0.0,0.0,0.4276420474052429,5.827957630157471,-0.9059488773345947,40952.0,43386.0,41294.0,41384.0,41658.0390625,0.42296913266181946,5.680215358734131,-0.8975045084953308
3.3,0.5156394839286804,0.0074999164789915085,0.5309777855873108,0.0,0.0,0.0,0.43859824538230896,5.535964012145996,-0.8910404443740845,39353.0,43691.0,42667.0,40577.0,41572.35546875,0.44870445132255554,5.368485927581787,-0.8843903541564941
3.32,0.5168077349662781,0.010566831566393375,0.5299348831176758,0.0,0.0,0.0,0.43942511081695557,5.215370178222656,-0.8637564778327942,40185.0,43307.0,40969.0,40791.0,41313.8203125,0.43120482563972473,5.053715705871582,-0.8634591698646545
3.34,0.5181745290756226,0.010775738395750523,0.5260538458824158,0.0,0.0,0.0,0.43638691306114197,4.886555194854736,-0.86798095703125,40349.0,43769.0,41435.0,40599.0,41538.296875,0.4325490891933441,4.720559120178223,-0.8673456311225891
3.36,0.5160236358642578,0.010830124840140343,0.5252780914306641,0.0,0.0,0.0,0.45510199666023254,4.52533483505249,-0.8656973242759705,39277.0,44309.0,41911.0,39375.0,41218.86328125,0.46008598804473877,4.318408489227295,-0.8606539964675903
3.38,0.5157071948051453,0.011703476309776306,0.5197862982749939,0.0,0.0,0.0,0.4849224388599396,4.124340534210205,-0.854897141456604,40476.0,43498.0,41706.0,41076.0,41689.2109375,0.5104703307151794,3.9132306575775146,-0.855588436126709
3.4,0.5181916356086731,0.011111021041870117,0.5184207558631897,0.0,0.0,0.0,0.5304585099220276,3.6855311393737793,-0.8492339253425598,39667.0,45333.0,41835.0,38685.0,41380.53125,0.5710926651954651,3.4393858909606934,-0.8389248251914978
3.42,0.5173512101173401,0.010140405967831612,0.518181562423706,0.0,0.0,0.0,0.6017053127288818,3.254643678665161,-0.8348316550254822,38990.0,41798.0,41966.0,41462.0,41054.1484375,0.5990629196166992,3.078024387359619,-0.8141149878501892
3.44,0.5175313353538513,0.01543990895152092,0.5169495940208435,0.0,0.0,0.0,0.546657383441925,2.893282651901245,-0.7932809591293335,39482.0,41956.0,41328.0,40982.0,40937.8984375,0.5464364290237427,2.730552911758423,-0.7981670498847961
3.46,0.5167869329452515,0.014253202825784683,0.5171898603439331,0.0,0.0,0.0,0.5218797922134399,2.495208978652954,-0.7823032140731812,39938.0,41806.0,39918.0,40642.0,40576.5546875,0.5256073474884033,2.285841464996338,-0.7768924832344055
3.48,0.5145243406295776,0.013881389982998371,0.5117079019546509,0.0,0.0,0.0,0.5474289655685425,2.071256637573242,-0.7744062542915344,39996.0,43142.0,40360.0,39118.0,40654.796875,0.5781174302101135,1.8398916721343994,-0.7713998556137085
3.5,0.5173268914222717,0.013155117630958557,0.5143289566040039,0.0,0.0,0.0,0.587963342666626,1.6059019565582275,-0.7548982501029968,37998.0,41922.0,41812.0,39596.0,40332.265625,0.5851800441741943,1.415921688079834,-0.7399954795837402
3.52,0.5128664374351501,0.01345514040440321,0.5151093006134033,0.0,0.0,0.0,0.572213888168335,1.2788827419281006,-0.7195761799812317,39095.0,42219.0,40011.0,38895.0,40055.328125,0.5685961246490479,1.1282581090927124,-0.7085016965866089
3.54,0.5109075903892517,0.013576236553490162,0.5184686183929443,0.0,0.0,0.0,0.5573713183403015,0.9823989868164062,-0.6949937343597412,39249.0,39521.0,38479.0,40231.0,39370.765625,0.5737910270690918,0.8087765574455261,-0.6921730041503906
3.56,0.5127944350242615,0.01214453112334013,0.5199469327926636,0.0,0.0,0.0,0.5653288960456848,0.6186051368713379,-0.682022213935852,38101.0,38871.0,39327.0,40213.0,39128.96484375,0.5701165199279785,0.4409858286380768,-0.6647289395332336
3.58,0.5112670660018921,0.012551266700029373,0.5142932534217834,0.0,0.0,0.0,0.5508996248245239,0.27701011300086975,-0.6493476629257202,38039.0,41275.0,40609.0,39145.0,39767.47265625,0.5083844661712646,0.133858785033226,-0.6269273161888123
3.6,0.5076301097869873,0.014901834540069103,0.5166108012199402,0.0,0.0,0.0,0.4776984453201294,0.015203027985990047,-0.6150146126747131,37940.0,42588.0,40654.0,37590.0,39693.0,0.46986913681030273,-0.0999731495976448,-0.6040113568305969
3.62,0.507564902305603,0.01342813391238451,0.5178513526916504,0.0,0.0,0.0,0.4768075942993164,-0.19670015573501587,-0.5976624488830566,38648.0,40402.0,39724.0,39530.0,39576.234375,0.46430519223213196,-0.3029477894306183,-0.5853279829025269
3.64,0.5061951279640198,0.01360422745347023,0.5220208764076233,0.0,0.0,0.0,0.4650326669216156,-0.41179147362709045,-0.578942060470581,38708.0,39160.0,38318.0,39598.0,38946.359375,0.4598347246646881,-0.5248659253120422,-0.573540210723877
3.66,0.5045599341392517,0.013592484407126904,0.5236116051673889,0.0,0.0,0.0,0.4548810124397278,-0.6522061228752136,-0.5665174126625061,37896.0,39596.0,39058.0,38874.0,38856.56640625,0.43587949872016907,-0.7744706273078918,-0.5516301393508911
3.68,0.5027182102203369,0.015440328046679497,0.5189833045005798,0.0,0.0,0.0,0.4308467209339142,-0.8426476716995239,-0.5389368534088135,38885.0,40871.0,38775.0,38369.0,39225.140625,0.4323089122772217,-0.9209752082824707,-0.5296350717544556
3.7,0.5018063187599182,0.01386253908276558,0.5228461623191833,0.0,0.0,0.0,0.42693108320236206,-1.0041694641113281,-0.5218865871429443,37661.0,40915.0,40105.0,38195.0,39219.515625,0.4308133125305176,-1.0635623931884766,-0.5128372311592102
3.72,0.5007991790771484,0.013532320037484169,0.5241737961769104,0.0,0.0,0.0,0.4279800355434418,-1.113603949546814,-0.5021531581878662,38566.0,40272.0,39066.0,38936.0,39210.04296875,0.41369926929473877,-1.1779996156692505,-0.4938656985759735
3.74,0.4984930157661438,0.013463241048157215,0.5283859372138977,0.0,0.0,0.0,0.3906702697277069,-1.2593916654586792,-0.4916187524795532,37231.0,39905.0,39083.0,38441.0,38665.15625,0.38774818181991577,-1.3156670331954956,-0.4883034825325012
3.76,0.49867013096809387,0.01222288515418768,0.5299348831176758,0.0,0.0,0.0,0.3825799524784088,-1.3765050172805786,-0.4929570257663727,37796.0,39834.0,38686.0,38296.0,38653.44921875,0.36669299006462097,-1.4277286529541016,-0.48809152841567993
3.78,0.49706023931503296,0.011289091780781746,0.527204155921936,0.0,0.0,0.0,0.3633368909358978,-1.4638547897338867,-0.484780490398407,37623.0,40599.0,39237.0,37497.0,38739.5859375,0.3585514724254608,-1.486313819885254,-0.476075679063797
3.8,0.4963422417640686,0.010775351896882057,0.5314201712608337,0.0,0.0,0.0,0.3404403626918793,-1.5109978914260864,-0.46286892890930176,37324.0,40510.0,39604.0,37750.0,38797.1328125,0.31473881006240845,-1.5294100046157837,-0.4466020464897156
3.82,0.49575284123420715,0.010277663357555866,0.5326970219612122,0.0,0.0,0.0,0.2885901629924774,-1.5321887731552124,-0.4371350407600403,38080.0,40500.0,39054.0,37826.0,38865.91796875,0.29055696725845337,-1.5228387117385864,-0.43305858969688416
3.84,0.4958910346031189,0.00962692592293024,0.5347740650177002,0.0,0.0,0.0,0.23973706364631653,-1.5186306238174438,-0.41545236110687256,38448.0,39272.0,38456.0,38844.0,38755.64453125,0.24097909033298492,-1.5324149131774902,-0.41050365567207336
3.86,0.49774089455604553,0.010515590198338032,0.5359607934951782,0.0,0.0,0.0,0.18280060589313507,-1.52472984790802,-0.3973470628261566,37740.0,41634.0,39048.0,36838.0,38815.75,0.16206470131874084,-1.5251402854919434,-0.39684394001960754
3.88,0.4973277449607849,0.006215892732143402,0.5310622453689575,0.0,0.0,0.0,0.1221311017870903,-1.521166205406189,-0.3948652744293213,38758.0,40212.0,39148.0,38834.0,39238.19921875,0.08359808474779129,-1.4967025518417358,-0.3927616775035858
3.9,0.49853166937828064,0.006412962451577187,0.5348811745643616,0.0,0.0,0.0,0.04744848981499672,-1.4729431867599487,-0.38637787103652954,37265.0,41005.0,40653.0,38285.0,39302.8046875,0.013782423920929432,-1.4580779075622559,-0.3855363428592682
3.92,0.5006202459335327,0.007473072502762079,0.5356308817863464,0.0,0.0,0.0,-0.015794267877936363,-1.399889588356018,-0.38024094700813293,38517.0,41433.0,39589.0,37897.0,39359.77734375,-0.043070558458566666,-1.3355075120925903,-0.3765904903411865
3.94,0.5050061345100403,0.005449535325169563,0.5393159985542297,0.0,0.0,0.0,-0.07928545773029327,-1.2806495428085327,-0.3701648712158203,38010.0,41182.0,39192.0,36928.0,38828.35546875,-0.08685501664876938,-1.186228632926941,-0.35982847213745117
3.96,0.5054372549057007,0.004845396615564823,0.5402750372886658,0.0,0.0,0.0,-0.08936788886785507,-1.0975277423858643,-0.35007739067077637,38103.0,39207.0,38899.0,39119.0,38832.984375,-0.11438290029764175,-1.019900918006897,-0.3414110839366913
3.98,0.5092543959617615,0.0026547398883849382,0.5359071493148804,0.0,0.0,0.0,-0.12780100107192993,-0.9581040143966675,-0.3399444818496704,38591.0,41029.0,39265.0,38195.0,39270.21484375,-0.17645981907844543,-0.9039209485054016,-0.33189478516578674
4.0,0.5158739686012268,0.0037814846727997065,0.5387046933174133,0.0,0.0,0.0,-0.20258602499961853,-0.8020678162574768,-0.32482999563217163,38368.0,41134.0,39876.0,37838.0,39304.2890625,-0.19696524739265442,-0.6993946433067322,-0.3165634274482727
4.02,0.5168876051902771,0.0010927076218649745,0.5393041968345642,0.0,0.0,0.0,-0.20826128125190735,-0.5501793622970581,-0.3025608956813812,45635.0,48239.0,32479.0,30931.0,39321.6171875,-0.26076966524124146,-0.3856023848056793,-0.2887933552265167
4.04,0.5171971917152405,0.00483990553766489,0.5412408709526062,0.0,0.0,0.0,-0.495147705078125,-0.23403844237327576,-0.2750215232372284,35318.0,38318.0,42430.0,40246.0,39078.26171875,-1.122652530670166,-0.08227113634347916,-0.26625707745552063
4.06,0.5177667737007141,0.01309153437614441,0.54157954454422,0.0,0.0,0.0,-1.163912057876587,-0.06093008071184158,-0.2608764171600342,32770.0,35376.0,44762.0,43424.0,39083.88671875,-3.4996330738067627,0.2670971751213074,-0.252427875995636
4.08,0.5250077843666077,0.011046385392546654,0.5395419001579285,0.0,0.0,0.0,-3.4996330738067627,0.2670971751213074,-0.252427875995636,35906.0,39990.0,42048.0,38740.0,39171.84765625,-6.309713363647461,0.6152657270431519,-0.24729418754577637
4.1,0.5243092775344849,0.006428726017475128,0.541678249835968,0.0,0.0,0.0,-6.309713363647461,0.6152657270431519,-0.24729418754577637,37788.0,40632.0,39850.0,37814.0,39021.53515625,-8.56723690032959,0.9476431012153625,-0.22879910469055176
4.12,0.5261929631233215,0.0014543229481205344,0.5423939228057861,0.0,0.0,0.0,-8.592915534973145,0.9541445970535278,-0.22552520036697388,38291.0,41379.0,39259.0,36907.0,38959.9921875,-10.266824722290039,1.1954209804534912,-0.21182142198085785
4.14,0.5275446772575378,-0.0019803172908723354,0.5454264879226685,0.0,0.0,0.0,-10.283690452575684,1.1990689039230347,-0.20974522829055786,37906.0,39434.0,38854.0,38062.0,38564.18359375,-11.675483703613281,1.3852531909942627,-0.1877478063106537
4.16,0.529664158821106,-0.0019365329062566161,0.5463241934776306,0.0,0.0,0.0,-11.683550834655762,1.3861565589904785,-0.18679650127887726,36741.0,40615.0,39849.0,37523.0,38682.3203125,-12.939054489135742,1.5447341203689575,-0.17612677812576294
4.18,0.5319162011146545,0.002424950012937188,0.5503978729248047,0.0,0.0,0.0,-12.958769798278809,1.5447680950164795,-0.17381581664085388,37840.0,40456.0,38876.0,36224.0,38349.49609375,-14.07628345489502,1.6891100406646729,-0.15911512076854706
4.2,0.5338269472122192,0.002495968248695135,0.5511270761489868,0.0,0.0,0.0,-14.07628345489502,1.6891100406646729,-0.15911512076854706,38280.0,39326.0,39502.0,37172.0,38570.72265625,-14.991634368896484,1.8633058071136475,-0.10635882616043091
4.22,0.5375311374664307,0.005900474730879068,0.551762044429779,0.0,0.0,0.0,-14.989679336547852,1.8431404829025269,-0.10509305447340012,37929.0,38891.0,40071.0,39137.0,39007.296875,-15.77334976196289,1.9786834716796875,-0.07449273020029068
4.24,0.5416446924209595,0.007683642208576202,0.551378071308136,0.0,0.0,0.0,-15.754378318786621,1.9559615850448608,-0.07432062923908234,37800.0,41754.0,40284.0,37458.0,39324.98828125,-16.438358306884766,2.062028646469116,-0.062358204275369644
4.26,0.543124794960022,0.013605726882815361,0.5513871312141418,0.0,0.0,0.0,-16.44447135925293,2.049400568008423,-0.059831179678440094,38723.0,40437.0,40423.0,39077.0,39665.203125,-16.85215187072754,2.1550421714782715,-0.05472850799560547
4.28,0.5434713363647461,0.01897580735385418,0.5521823167800903,0.0,0.0,0.0,-16.863513946533203,2.1507956981658936,-0.05258604511618614,39164.0,41950.0,40366.0,38492.0,39993.99609375,-17.055686950683594,2.2555956840515137,-0.0429220125079155
4.3,0.5449764728546143,0.02673201449215412,0.5508880615234375,0.0,0.0,0.0,-17.070541381835938,2.2419261932373047,-0.0381476953625679,39684.0,41408.0,40818.0,39126.0,40259.95703125,-16.97024917602539,2.349217414855957,-0.015179730951786041
4.32,0.546528160572052,0.037912506610155106,0.5501103401184082,0.0,0.0,0.0,-16.998592376708984,2.3437209129333496,-0.010250247083604336,40289.0,41937.0,40063.0,39807.0,40524.1796875,-16.615863800048828,2.418288469314575,-0.009713334031403065
4.34,0.5476400256156921,0.04719824343919754,0.5490914583206177,0.0,0.0,0.0,-16.648231506347656,2.417415142059326,-0.005377966444939375,39761.0,41695.0,40467.0,41001.0,40731.18359375,-16.056610107421875,2.4458515644073486,-0.03253825381398201
4.36,0.5476523041725159,0.061085622757673264,0.5480003356933594,0.0,0.0,0.0,-16.087858200073242,2.4431397914886475,-0.027648475021123886,40372.0,42838.0,40028.0,40302.0,40885.29296875,-15.294718742370605,2.4223077297210693,-0.05905269831418991
4.38,0.5506381392478943,0.06517138332128525,0.5420524477958679,0.0,0.0,0.0,-15.299639701843262,2.421112298965454,-0.05703941360116005,40618.0,42778.0,39984.0,40884.0,41066.59375,-14.324138641357422,2.4153192043304443,-0.0865621417760849
4.4,0.5509215593338013,0.08319848775863647,0.5446287393569946,0.0,0.0,0.0,-14.299466133117676,2.412461757659912,-0.08861228823661804,40347.0,43083.0,40971.0,39991.0,41098.875,-13.204380989074707,2.401395797729492,-0.10862983763217926
4.42,0.5511385798454285,0.0953863114118576,0.5437439680099487,0.0,0.0,0.0,-13.14039134979248,2.401397943496704,-0.11706117540597916,40043.0,44303.0,41659.0,38847.0,41213.3828125,-11.93775749206543,2.4102354049682617,-0.12229542434215546
4.44,0.549921989440918,0.11475352197885513,0.5416250228881836,0.0,0.0,0.0,-11.900774002075195,2.409088134765625,-0.12668929994106293,40447.0,44361.0,40611.0,39001.0,41105.15625,-10.520363807678223,2.3585381507873535,-0.13782349228858948
4.46,0.5511913299560547,0.1290057748556137,0.5408499240875244,0.0,0.0,0.0,-10.485398292541504,2.352785348892212,-0.13966596126556396,39918.0,43180.0,41246.0,39584.0,40982.12109375,-9.014338493347168,2.2955496311187744,-0.14627622067928314
4.48,0.5521790385246277,0.1448284536600113,0.5325618386268616,0.0,0.0,0.0,-9.037774085998535,2.2928526401519775,-0.14233306050300598,41248.0,43602.0,40710.0,40512.0,41518.9453125,-7.447366237640381,2.1933679580688477,-0.16183669865131378
4.5,0.5525861382484436,0.16415752470493317,0.534390926361084,0.0,0.0,0.0,-7.41840124130249,2.1829826831817627,-0.160131573677063,41544.0,45174.0,40326.0,38308.0,41338.4765625,-5.795001983642578,2.0249667167663574,-0.1667107790708542
4.52,0.5557560324668884,0.1761244535446167,0.5339973568916321,0.0,0.0,0.0,-5.730233192443848,2.00816011428833,-0.1661318987607956,40037.0,43547.0,41817.0,38603.0,41001.7265625,-4.109803199768066,1.9402638673782349,-0.15173693001270294
4.54,0.556410551071167,0.194019615650177,0.533998429775238,0.0,0.0,0.0,-4.045804500579834,1.936407208442688,-0.15834735333919525,40966.0,43086.0,40380.0,38412.0,40711.890625,-2.479708433151245,1.9200894832611084,-0.1449570655822754
4.56,0.5558640956878662,0.21379603445529938,0.5337546467781067,0.0,0.0,0.0,-2.4377667903900146,1.9130784273147583,-0.14669930934906006,41557.0,43439.0,39175.0,37253.0,40356.9140625,-0.8314542770385742,1.840489387512207,-0.1363343447446823
4.58,0.5557876229286194,0.22961930930614471,0.5292569994926453,0.0,0.0,0.0,-0.9149335622787476,1.8456782102584839,-0.12935104966163635,41149.0,42331.0,39969.0,39019.0,40617.23828125,0.6508959531784058,1.7779693603515625,-0.11123134195804596
4.6,0.5570027828216553,0.24967269599437714,0.530545175075531,0.0,0.0,0.0,0.607379674911499,1.7679648399353027,-0.09944584220647812,40509.0,43289.0,39839.0,38003.0,40410.5234375,2.081284999847412,1.6619478464126587,-0.10451783984899521
4.62,0.5557680726051331,0.2672923505306244,0.5307611227035522,0.0,0.0,0.0,2.045226573944092,1.6626397371292114,-0.09992821514606476,39936.0,43010.0,39776.0,37458.0,40045.390625,3.4834141731262207,1.5905678272247314,-0.10811059176921844
4.64,0.5555029511451721,0.28598323464393616,0.5320581197738647,0.0,0.0,0.0,3.43404483795166,1.5819226503372192,-0.09667147696018219,40244.0,42676.0,39276.0,37196.0,39848.25,4.811352729797363,1.5011118650436401,-0.08373010903596878
4.66,0.5551173090934753,0.3042948544025421,0.532680869102478,0.0,0.0,0.0,4.775625228881836,1.5016659498214722,-0.07918587327003479,40328.0,43074.0,39018.0,36276.0,39674.625,6.023028373718262,1.4173589944839478,-0.07887747138738632
4.68,0.5551702976226807,0.32232314348220825,0.5331283807754517,0.0,0.0,0.0,5.954530715942383,1.3997172117233276,-0.06125679984688759,39609.0,41729.0,38863.0,37387.0,39397.859375,7.132967948913574,1.3064124584197998,-0.055319879204034805
4.7,0.5564287304878235,0.3408418893814087,0.5351345539093018,0.0,0.0,0.0,7.076629638671875,1.296616792678833,-0.04362443834543228,40452.0,41200.0,37840.0,37896.0,39347.796875,8.144220352172852,1.1597719192504883,-0.03507738932967186
4.72,0.5581852197647095,0.3546251654624939,0.5360585451126099,0.0,0.0,0.0,8.1226806640625,1.1494433879852295,-0.0281590074300766,38477.0,41855.0,38059.0,35521.0,38478.546875,9.14370059967041,1.0711028575897217,-0.036265529692173004
4.74,0.5536776185035706,0.362120658159256,0.5413814783096313,0.0,0.0,0.0,9.190478324890137,1.0798869132995605,-0.04517717286944389,38718.0,41372.0,38068.0,35730.0,38472.5625,10.012370109558105,1.0123668909072876,-0.033225834369659424
4.76,0.5529682040214539,0.3825874924659729,0.5425458550453186,0.0,0.0,0.0,10.012370109558105,1.0123668909072876,-0.033225834369659424,38813.0,40667.0,37987.0,36549.0,38504.828125,10.692068099975586,0.9851917624473572,-0.021425649523735046
4.78,0.5533332228660583,0.39506441354751587,0.5450901389122009,0.0,0.0,0.0,10.7316312789917,0.9757998585700989,-0.023407256230711937,40793.0,41615.0,36519.0,35885.0,38703.8828125,11.278257369995117,0.9296424984931946,-0.008721062913537025
4.8,0.5542459487915039,0.4082428514957428,0.5446069240570068,0.0,0.0,0.0,11.310199737548828,0.9191784262657166,-0.009890592657029629,39821.0,40267.0,37763.0,37737.0,38897.75,11.809748649597168,0.8475410342216492,-1.7618634956306778e-05
4.82,0.5532180070877075,0.42152658104896545,0.5453500151634216,0.0,0.0,0.0,11.822875022888184,0.834714949131012,0.0008042349363677204,38705.0,42081.0,38977.0,35933.0,38924.4609375,12.16893196105957,0.7197837233543396,0.011472116224467754
4.84,0.5518161654472351,0.43374037742614746,0.5468114018440247,0.0,0.0,0.0,12.20268440246582,0.7089990973472595,0.009452233090996742,39228.0,41136.0,38634.0,37586.0,39146.03515625,12.436664581298828,0.6391911506652832,0.013467228971421719
4.86,0.551388680934906,0.44163602590560913,0.5472328662872314,0.0,0.0,0.0,12.468382835388184,0.6285005211830139,0.01127746980637312,38796.0,39950.0,39392.0,39314.0,39363.0625,12.557464599609375,0.5605054497718811,0.016883546486496925
4.88,0.5497299432754517,0.4521581530570984,0.5486567616462708,0.0,0.0,0.0,12.581562995910645,0.558950662612915,0.014828416518867016,38620.0,41536.0,38964.0,37468.0,39147.421875,12.593756675720215,0.4803526699542999,0.013384940102696419
4.9,0.5492011308670044,0.4619586765766144,0.5500630736351013,0.0,0.0,0.0,12.602643013000488,0.47126445174217224,0.01240397896617651,38587.0,40359.0,39705.0,38597.0,39312.8671875,12.519498825073242,0.40502122044563293,0.004901242908090353
4.92,0.5463247299194336,0.47390273213386536,0.550261378288269,0.0,0.0,0.0,12.501788139343262,0.41304630041122437,0.006831304170191288,38986.0,41236.0,39860.0,38718.0,39700.265625,12.332831382751465,0.33365753293037415,0.008342220447957516
4.94,0.5446990728378296,0.4787105321884155,0.5490007400512695,0.0,0.0,0.0,12.345721244812012,0.34282946586608887,0.008560314774513245,39352.0,41766.0,39808.0,38470.0,39849.140625,12.074883460998535,0.2864392101764679,0.005659866612404585
