time,x_kalman,y_kalman,z_kalman,x_lh,y_lh,z_lh,roll,pitch,yaw,F,R,Z,motor.m1,motor.m2,motor.m3,motor.m4,rpm.m1,rpm.m2,rpm.m3,rpm.m4,controller.cmd_thrust,controller.cmd_roll,controller.cmd_pitch,controller.cmd_yaw
0.0,-0.00013177380606066436,-0.0006305638235062361,0.008881502784788609,0.0,0.0,0.0,-1.688502311706543,-0.003694616025313735,0.008032073266804218,0.0,-1.0,0.008936621248722076,53238.0,54624.0,56446.0,55020.0,0,0,0,0,54832.3984375,2338.0,-1629.0,-103.0
0.02,-0.00014310273400042206,-0.0005901599070057273,0.009849696420133114,0.0,0.0,0.0,-1.6886179447174072,-0.007383876945823431,0.008053482510149479,0.0,-1.0,0.00995158776640892,54309.0,54591.0,55663.0,55721.0,0,0,0,0,55071.6796875,1853.0,-1285.0,81.0
0.04,-0.0002460887480992824,-0.00044356926809996367,0.010061373002827168,0.0,0.0,0.0,-1.7080211639404297,0.02711883746087551,0.013638392090797424,0.0,-1.0,0.01017734408378601,57548.0,61734.0,52994.0,49520.0,0,0,0,0,55449.0078125,-8504.0,-6316.0,-270.0
0.06,0.0007159150554798543,-0.0007893656147643924,0.010315997526049614,0.0,0.0,0.0,-1.6432170867919922,0.024777015671133995,0.011262107640504837,0.0,-1.0,0.010729051195085049,50987.0,61297.0,58659.0,50685.0,0,0,0,0,55407.0546875,-876.0,-6377.0,-604.0
0.08,0.00021471014770213515,-0.000787722528912127,0.011193418875336647,0.0,0.0,0.0,-1.1684831380844116,0.21827749907970428,-0.03275216370820999,0.0,-1.0,0.012054851278662682,50183.0,56715.0,56067.0,51823.0,0,0,0,0,53697.6953125,202.0,-7928.0,-664.0
0.1,-0.0007024718797765672,-0.0013520739739760756,0.013461248017847538,0.0,0.0,0.0,-0.7163527607917786,0.7058897018432617,-0.11624011397361755,0.0,-1.0,0.015511222183704376,48660.0,52988.0,51310.0,50014.0,0,0,0,0,50743.390625,182.0,-1886.0,-781.0
0.12,0.0019714131485670805,0.0017621485749259591,0.01770777627825737,0.0,0.0,0.0,-0.6328775882720947,1.0332770347595215,-0.19477947056293488,0.0,-1.0,0.021227587014436722,45506.0,52356.0,46696.0,43062.0,0,0,0,0,46905.390625,-5104.0,-6232.0,-782.0
0.14,-0.001252264017239213,0.004682005848735571,0.025438934564590454,0.0,0.0,0.0,-0.4680500626564026,1.4840807914733887,-0.29195699095726013,0.0,-1.0,0.030496908351778984,42096.0,47994.0,41938.0,39840.0,0,0,0,0,42967.046875,-83.0,-2386.0,-960.0
0.16,-0.012180471792817116,-0.0005379945505410433,0.02148154191672802,0.0,0.0,0.0,0.21852004528045654,2.1524248123168945,-0.4023958742618561,0.0,-1.0,0.027102600783109665,38317.0,43409.0,43845.0,42681.0,0,0,0,0,42063.22265625,2538.0,-3862.0,-983.0
0.18,-0.01314179040491581,0.0018011084757745266,0.03338203206658363,0.0,0.0,0.0,0.4638529121875763,1.9579671621322632,-0.5068666338920593,0.0,-1.0,0.04003278911113739,35544.0,41408.0,40876.0,39336.0,0,0,0,0,39291.17578125,-803.0,-3074.0,-1203.0
0.2,-0.02005765028297901,0.0019311746582388878,0.04655463621020317,0.0,0.0,0.0,0.4378320574760437,1.7533527612686157,-0.5965011715888977,0.0,-1.0,0.05393357202410698,35197.0,41875.0,38917.0,36483.0,0,0,0,0,38118.1328125,-2164.0,-6406.0,-1333.0
0.22,-0.027146723121404648,0.004644119646400213,0.05538102239370346,0.0,0.0,0.0,0.29475829005241394,1.485093355178833,-0.6935005784034729,0.0,-1.0,0.06296095997095108,34081.0,40199.0,36305.0,34999.0,0,0,0,0,36396.38671875,-1322.0,-1874.0,-1196.0
0.24,-0.026812922209501266,0.005943809635937214,0.0714210718870163,0.0,0.0,0.0,0.33442309498786926,0.8683156967163086,-0.8214949369430542,0.0,-1.0,0.07933928072452545,34754.0,36626.0,32564.0,36064.0,0,0,0,0,35002.65234375,-1287.0,900.0,-1316.0
0.26,-0.02671542577445507,0.004396705888211727,0.08802507817745209,0.0,0.0,0.0,0.5340801477432251,0.08909547328948975,-0.9352112412452698,0.0,-1.0,0.09609007090330124,35060.0,36168.0,30582.0,35034.0,0,0,0,0,34211.0625,-3721.0,-2339.0,-1441.0
0.28,-0.03038453310728073,0.004570323508232832,0.1030895859003067,0.0,0.0,0.0,0.6828758120536804,-0.6385096311569214,-1.0256190299987793,0.0,-1.0,0.1110764741897583,32654.0,36084.0,30728.0,35266.0,0,0,0,0,33683.9140625,-1776.0,-472.0,-1449.0
0.3,-0.026317935436964035,0.005432738922536373,0.11976279318332672,0.0,0.0,0.0,0.8550306558609009,-1.5936620235443115,-1.1517243385314941,0.0,-1.0,0.12765321135520935,32176.0,34316.0,31374.0,35246.0,0,0,0,0,33278.58203125,-2113.0,-380.0,-1448.0
0.32,-0.02726229466497898,0.004451831337064505,0.13550402224063873,0.0,0.0,0.0,1.0358490943908691,-2.2020180225372314,-1.2468689680099487,0.0,-1.0,0.1439523696899414,31478.0,36784.0,32038.0,32328.0,0,0,0,0,33157.734375,-1720.0,-2782.0,-1415.0
0.34,-0.029856417328119278,0.0010892689460888505,0.15217821300029755,0.0,0.0,0.0,1.2226155996322632,-2.610494375228882,-1.3159034252166748,0.0,-1.0,0.15963003039360046,30934.0,36056.0,32476.0,32690.0,0,0,0,0,33039.140625,-783.0,-1021.0,-1363.0
0.36,-0.03010905347764492,0.001545258448459208,0.1669725626707077,0.0,0.0,0.0,1.1418042182922363,-2.8507847785949707,-1.3839879035949707,0.0,-1.0,0.17412817478179932,30623.0,34075.0,33025.0,34949.0,0,0,0,0,33168.83203125,196.0,-804.0,-1348.0
0.38,-0.028051283210515976,0.0018162436317652464,0.18111436069011688,0.0,0.0,0.0,0.975695013999939,-3.0586376190185547,-1.4513379335403442,0.0,-1.0,0.18794284760951996,32664.0,33730.0,31446.0,35816.0,0,0,0,0,33414.5390625,-170.0,3.0,-1297.0
0.4,-0.025349512696266174,0.0007149092853069305,0.20290468633174896,0.0,0.0,0.0,0.7777422070503235,-3.2200729846954346,-1.50960111618042,0.0,-1.0,0.20979303121566772,30919.0,34555.0,30995.0,32483.0,0,0,0,0,32238.1796875,-1757.0,-1356.0,-1296.0
0.42,-0.025759780779480934,0.000349832494975999,0.21651104092597961,0.0,0.0,0.0,0.5611475706100464,-3.2094714641571045,-1.5330290794372559,0.0,-1.0,0.223045215010643,30682.0,35644.0,31520.0,32282.0,0,0,0,0,32532.630859375,-53.0,-163.0,-1280.0
0.44,-0.025686535984277725,0.0019095010356977582,0.22943148016929626,0.0,0.0,0.0,0.31364157795906067,-3.144310235977173,-1.5585260391235352,0.0,-1.0,0.23561367392539978,30686.0,37064.0,32544.0,31114.0,0,0,0,0,32852.16796875,-1326.0,-1410.0,-1205.0
0.46,-0.025928186252713203,0.0002789182763081044,0.24370194971561432,0.0,0.0,0.0,0.24945186078548431,-2.9723501205444336,-1.5567933320999146,0.0,-1.0,0.24962718784809113,31664.0,35576.0,31764.0,32452.0,0,0,0,0,32864.79296875,-1050.0,-2376.0,-1154.0
0.48,-0.025138843804597855,-0.0009180325432680547,0.25535500049591064,0.0,0.0,0.0,0.21305158734321594,-2.73363995552063,-1.5536350011825562,0.0,-1.0,0.2609141767024994,31604.0,35362.0,32716.0,33490.0,0,0,0,0,33293.05859375,55.0,-924.0,-1156.0
0.5,-0.024730762466788292,-0.0015076433774083853,0.26628804206848145,0.0,0.0,0.0,0.17080393433570862,-2.435214042663574,-1.54311203956604,0.0,-1.0,0.2714807093143463,31216.0,35912.0,33894.0,33930.0,0,0,0,0,33738.48046875,829.0,1529.0,-1224.0
0.52,-0.02179897390305996,-0.0021553721744567156,0.2814004123210907,0.0,0.0,0.0,0.06310856342315674,-2.269160270690918,-1.5478450059890747,0.0,-1.0,0.2864885628223419,31052.0,34686.0,33078.0,34444.0,0,0,0,0,33315.26171875,551.0,-1228.0,-1277.0
0.54,-0.020399846136569977,-0.003118316875770688,0.2913956046104431,0.0,0.0,0.0,-0.0805697962641716,-2.0769903659820557,-1.5438518524169922,0.0,-1.0,0.29614487290382385,31628.0,35920.0,33310.0,34038.0,0,0,0,0,33724.0078125,-275.0,-2654.0,-1182.0
0.56,-0.019111979752779007,-0.003933968022465706,0.30072546005249023,0.0,0.0,0.0,-0.2258187085390091,-1.8730411529541016,-1.545232892036438,0.0,-1.0,0.3051447868347168,32057.0,35169.0,33965.0,35489.0,0,0,0,0,34170.04296875,43.0,-139.0,-1182.0
0.58,-0.016516389325261116,-0.004876172170042992,0.30937930941581726,0.0,0.0,0.0,-0.3207128345966339,-1.661375880241394,-1.5372599363327026,0.0,-1.0,0.31823664903640747,31027.0,37791.0,34039.0,32179.0,0,0,0,0,33759.421875,-611.0,-431.0,-1208.0
0.6,-0.01443443913012743,-0.006142572965472937,0.3224233090877533,0.0,0.0,0.0,-0.3941420912742615,-1.4111554622650146,-1.5209614038467407,0.0,-1.0,0.32647573947906494,31478.0,37216.0,34370.0,33388.0,0,0,0,0,34113.24609375,-1704.0,-3581.0,-1218.0
0.62,-0.012104244902729988,-0.00669263768941164,0.3303820788860321,0.0,0.0,0.0,-0.4477374851703644,-1.0760736465454102,-1.5148998498916626,0.0,-1.0,0.3341591954231262,32261.0,37667.0,34313.0,33675.0,0,0,0,0,34479.58203125,-1060.0,-2726.0,-1182.0
0.64,-0.010007473640143871,-0.00794683862477541,0.3377930819988251,0.0,0.0,0.0,-0.508349597454071,-0.7187035083770752,-1.5035419464111328,0.0,-1.0,0.3413003385066986,32266.0,36698.0,33886.0,34562.0,0,0,0,0,34353.58984375,-280.0,-3111.0,-1244.0
0.66,-0.007174904458224773,-0.00927797146141529,0.3476236164569855,0.0,0.0,0.0,-0.575237512588501,-0.37439075112342834,-1.4951062202453613,0.0,-1.0,0.3510081470012665,32626.0,37064.0,34224.0,35006.0,0,0,0,0,34730.9296875,143.0,-882.0,-1304.0
0.68,-0.00485789030790329,-0.010823092423379421,0.3542613685131073,0.0,0.0,0.0,-0.6553767919540405,-0.046567294746637344,-1.493205189704895,0.0,-1.0,0.3573976755142212,32974.0,38142.0,34644.0,34560.0,0,0,0,0,35080.50390625,-1466.0,-2715.0,-1313.0
0.7,-0.002185084391385317,-0.011891791597008705,0.36041203141212463,0.0,0.0,0.0,-0.7571900486946106,0.2551853358745575,-1.4960638284683228,0.0,-1.0,0.363319993019104,32809.0,36859.0,34301.0,35439.0,0,0,0,0,34852.9765625,-391.0,-1880.0,-1278.0
0.72,0.00034397191484458745,-0.01302963588386774,0.3694539964199066,0.0,0.0,0.0,-0.8393669128417969,0.5963490605354309,-1.4918019771575928,0.0,-1.0,0.37231025099754333,33636.0,37958.0,34054.0,34900.0,0,0,0,0,35137.91796875,-1677.0,-2909.0,-1310.0
0.74,0.003425859147682786,-0.014836124144494534,0.37506207823753357,0.0,0.0,0.0,-0.8849163055419922,0.8902603983879089,-1.4880629777908325,0.0,-1.0,0.377719521522522,33831.0,37291.0,34265.0,36301.0,0,0,0,0,35422.98046875,122.0,-2156.0,-1363.0
0.76,0.006389918737113476,-0.016046378761529922,0.38027432560920715,0.0,0.0,0.0,-0.9364946484565735,1.15193510055542,-1.491572618484497,0.0,-1.0,0.38273885846138,33108.0,38692.0,35162.0,35130.0,0,0,0,0,35523.01953125,-154.0,-1349.0,-1356.0
0.78,0.008736477233469486,-0.017544373869895935,0.38621819019317627,0.0,0.0,0.0,-0.9956103563308716,1.4213812351226807,-1.4980552196502686,0.0,-1.0,0.3885616362094879,32659.0,39721.0,35973.0,34739.0,0,0,0,0,35773.00390625,-323.0,-1913.0,-1467.0
0.8,0.011762597598135471,-0.0190869327634573,0.39081987738609314,0.0,0.0,0.0,-1.0650933980941772,1.667364239692688,-1.50888192653656,0.0,-1.0,0.3930013179779053,34506.0,37424.0,34746.0,37360.0,0,0,0,0,36009.9765625,-404.0,-2774.0,-1405.0
0.82,0.013820179738104343,-0.02030991204082966,0.39244869351387024,0.0,0.0,0.0,-1.1300952434539795,1.9109303951263428,-1.5298967361450195,0.0,-1.0,0.3943467140197754,34131.0,40029.0,36405.0,36291.0,0,0,0,0,36714.703125,-774.0,-2684.0,-1507.0
0.84,0.01633186638355255,-0.02234688773751259,0.396173357963562,0.0,0.0,0.0,-1.1733416318893433,2.1009135246276855,-1.542311429977417,0.0,-1.0,0.39793550968170166,34176.0,39658.0,36686.0,37216.0,0,0,0,0,36934.4765625,-1401.0,-5152.0,-1529.0
0.86,0.01896776631474495,-0.023251080885529518,0.39964208006858826,0.0,0.0,0.0,-1.2265301942825317,2.2809834480285645,-1.5612431764602661,0.0,-1.0,0.4012993276119232,35626.0,39082.0,35542.0,38194.0,0,0,0,0,37111.57421875,-179.0,-1852.0,-1506.0
0.88,0.021917011588811874,-0.025013722479343414,0.40277916193008423,0.0,0.0,0.0,-1.2737048864364624,2.449653387069702,-1.5800659656524658,0.0,-1.0,0.4043474793434143,33376.0,40702.0,37732.0,37046.0,0,0,0,0,37214.796875,51.0,-4915.0,-1630.0
0.9,0.023808080703020096,-0.027600564062595367,0.4058831036090851,0.0,0.0,0.0,-1.3268558979034424,2.5744895935058594,-1.605461835861206,0.0,-1.0,0.4073929786682129,34721.0,39333.0,36357.0,38641.0,0,0,0,0,37263.1328125,338.0,-2402.0,-1651.0
0.92,0.026556113734841347,-0.028870290145277977,0.4088805615901947,0.0,0.0,0.0,-1.3891119956970215,2.703850269317627,-1.647361159324646,0.0,-1.0,0.41034382581710815,35758.0,41452.0,35902.0,37160.0,0,0,0,0,37568.96875,-1182.0,-2230.0,-1726.0
0.94,0.02894539013504982,-0.029641060158610344,0.41024020314216614,0.0,0.0,0.0,-1.5046509504318237,2.8027846813201904,-1.6814807653427124,0.0,-1.0,0.4115934371948242,34020.0,41048.0,37730.0,37542.0,0,0,0,0,37585.9609375,-906.0,-2607.0,-1742.0
0.96,0.030359655618667603,-0.031417038291692734,0.412930965423584,0.0,0.0,0.0,-1.5483779907226562,2.925455093383789,-1.7147480249404907,0.0,-1.0,0.4142515957355499,33791.0,41767.0,37821.0,37041.0,0,0,0,0,37605.4296875,-312.0,-1501.0,-1804.0
0.98,0.031926125288009644,-0.03284413367509842,0.41556403040885925,0.0,0.0,0.0,-1.6098978519439697,2.9640121459960938,-1.751104474067688,0.0,-1.0,0.41687220335006714,34386.0,41414.0,37108.0,37608.0,0,0,0,0,37629.96484375,-736.0,-1218.0,-1891.0
1.0,0.033577676862478256,-0.033325061202049255,0.417770653963089,0.0,0.0,0.0,-1.6493535041809082,3.0234334468841553,-1.7881890535354614,0.0,-1.0,0.419061541557312,34696.0,41490.0,36428.0,37670.0,0,0,0,0,37571.72265625,-852.0,-2386.0,-1963.0
1.02,0.034742288291454315,-0.03593497350811958,0.4203556776046753,0.0,0.0,0.0,-1.6506760120391846,3.0038623809814453,-1.8412206172943115,0.0,-1.0,0.4216514825820923,34801.0,39885.0,36255.0,39011.0,0,0,0,0,37488.65234375,177.0,-2661.0,-1921.0
1.04,0.03533659502863884,-0.036430682986974716,0.4229535758495331,0.0,0.0,0.0,-1.6648014783859253,3.044797658920288,-1.8950841426849365,0.0,-1.0,0.4243917465209961,33137.0,41777.0,36495.0,38139.0,0,0,0,0,37387.41015625,-488.0,-3799.0,-2047.0
1.06,0.037197861820459366,-0.03739369288086891,0.42551764845848083,0.0,0.0,0.0,-1.7017902135849,2.9935128688812256,-1.9460097551345825,0.0,-1.0,0.42682084441185,33104.0,41318.0,36180.0,38786.0,0,0,0,0,37347.3671875,227.0,-2218.0,-2165.0
1.08,0.0372014045715332,-0.03947310894727707,0.428128182888031,0.0,0.0,0.0,-1.7126544713974,2.9997763633728027,-1.9985928535461426,0.0,-1.0,0.4294348359107971,33612.0,41048.0,36574.0,37858.0,0,0,0,0,37273.15625,-225.0,-2516.0,-2179.0
1.1,0.037221599370241165,-0.04050590842962265,0.4307401776313782,0.0,0.0,0.0,-1.7406189441680908,2.9540340900421143,-2.062159538269043,0.0,-1.0,0.4326114356517792,33989.0,38925.0,34159.0,41455.0,0,0,0,0,37132.83984375,241.0,802.0,-2309.0
1.12,0.03828047215938568,-0.04152867943048477,0.4339383542537689,0.0,0.0,0.0,-1.7617781162261963,2.849522829055786,-2.1291167736053467,0.0,-1.0,0.4339383542537689,33702.0,41490.0,34044.0,39032.0,0,0,0,0,37067.0078125,-1475.0,-3110.0,-2333.0
1.14,0.038949862122535706,-0.042591989040374756,0.4365808069705963,0.0,0.0,0.0,-1.780039668083191,2.651625633239746,-2.209437131881714,0.0,-1.0,0.4365808069705963,32748.0,43290.0,35002.0,37016.0,0,0,0,0,37014.62109375,-1067.0,-2243.0,-2379.0
1.16,0.038822028785943985,-0.04322671517729759,0.4377674162387848,0.0,0.0,0.0,-1.769338607788086,2.533704996109009,-2.277336597442627,0.0,-1.0,0.4377674162387848,33882.0,40652.0,35980.0,38514.0,0,0,0,0,37257.2109375,-466.0,-4005.0,-2297.0
1.18,0.03881676495075226,-0.04359913617372513,0.44019627571105957,0.0,0.0,0.0,-1.7407114505767822,2.4430227279663086,-2.330382823944092,0.0,-1.0,0.44019627571105957,33890.0,42298.0,34784.0,38156.0,0,0,0,0,37282.73828125,-1441.0,-2986.0,-2403.0
1.2,0.03941769897937775,-0.04480726644396782,0.44256311655044556,0.0,0.0,0.0,-1.7490562200546265,2.2853214740753174,-2.376742362976074,0.0,-1.0,0.44256311655044556,33875.0,41479.0,35793.0,37985.0,0,0,0,0,37283.78125,-1259.0,-4565.0,-2441.0
1.22,0.03885817900300026,-0.04495625197887421,0.4444728493690491,0.0,0.0,0.0,-1.725763201713562,2.1169087886810303,-2.4279260635375977,0.0,-1.0,0.4444728493690491,34059.0,41491.0,35887.0,38023.0,0,0,0,0,37365.51953125,-211.0,-2901.0,-2369.0
1.24,0.03797333687543869,-0.04643181338906288,0.4466921091079712,0.0,0.0,0.0,-1.6484253406524658,1.9819670915603638,-2.4743449687957764,0.0,-1.0,0.4466921091079712,31616.0,41454.0,37936.0,38366.0,0,0,0,0,37343.71484375,1126.0,-5787.0,-2559.0
1.26,0.03736896440386772,-0.04660620912909508,0.4488828778266907,0.0,0.0,0.0,-1.6566460132598877,1.8580583333969116,-2.512244939804077,0.0,-1.0,0.4488828778266907,32239.0,42123.0,35921.0,38873.0,0,0,0,0,37289.53515625,575.0,-3226.0,-2631.0
1.28,0.03648076206445694,-0.046641137450933456,0.4510686993598938,0.0,0.0,0.0,-1.7506887912750244,1.8518940210342407,-2.5640859603881836,0.0,-1.0,0.4505678117275238,33836.0,42772.0,34564.0,38168.0,0,0,0,0,37335.9453125,-1238.0,-2179.0,-2545.0
1.3,0.036418039351701736,-0.04692560434341431,0.45269832015037537,0.0,0.0,0.0,-1.830824851989746,1.7378041744232178,-2.619619607925415,0.0,-1.0,0.45269832015037537,35695.0,41495.0,33477.0,38365.0,0,0,0,0,37258.95703125,-1305.0,-1762.0,-2436.0
1.32,0.035266581922769547,-0.04672630876302719,0.4548395276069641,0.0,0.0,0.0,-1.7556126117706299,1.5763123035430908,-2.648310899734497,0.0,-1.0,0.4548395276069641,32792.0,41626.0,36578.0,37792.0,0,0,0,0,37197.95703125,-294.0,-1559.0,-2418.0
1.34,0.034016259014606476,-0.047408051788806915,0.45699429512023926,0.0,0.0,0.0,-1.6019928455352783,1.3504747152328491,-2.662572145462036,0.0,-1.0,0.45699429512023926,32728.0,41156.0,36164.0,38400.0,0,0,0,0,37112.609375,250.0,-4678.0,-2543.0
1.36,0.03263350576162338,-0.046979308128356934,0.45915600657463074,0.0,0.0,0.0,-1.540328025817871,1.1740106344223022,-2.672318458557129,0.0,-1.0,0.45915600657463074,31940.0,42614.0,36490.0,37132.0,0,0,0,0,37044.625,-904.0,-2765.0,-2627.0
1.38,0.030058884993195534,-0.04621084779500961,0.46132180094718933,0.0,0.0,0.0,-1.548398494720459,1.1063207387924194,-2.693387746810913,0.0,-1.0,0.46132180094718933,32995.0,41205.0,35275.0,38365.0,0,0,0,0,36960.9609375,-971.0,-4645.0,-2629.0
1.4,0.028476357460021973,-0.04557940363883972,0.4628037214279175,0.0,0.0,0.0,-1.5537304878234863,1.0679477453231812,-2.715489149093628,0.0,-1.0,0.4628037214279175,33312.0,41486.0,34898.0,38160.0,0,0,0,0,36964.3046875,-337.0,-3017.0,-2667.0
1.42,0.02700001560151577,-0.044307515025138855,0.464957594871521,0.0,0.0,0.0,-1.5182464122772217,1.0090452432632446,-2.736959218978882,0.0,-1.0,0.464957594871521,33435.0,42317.0,34683.0,37013.0,0,0,0,0,36862.73828125,-1097.0,-2031.0,-2664.0
1.44,0.02616780810058117,-0.0450705923140049,0.46714475750923157,0.0,0.0,0.0,-1.407418966293335,0.8677945733070374,-2.7601656913757324,0.0,-1.0,0.46714475750923157,32776.0,41438.0,34962.0,37876.0,0,0,0,0,36763.5859375,-545.0,-1412.0,-2725.0
1.46,0.025992145761847496,-0.04490184038877487,0.4693565368652344,0.0,0.0,0.0,-1.269747257232666,0.660714328289032,-2.7785778045654297,0.0,-1.0,0.46965456008911133,32091.0,40303.0,34937.0,39097.0,0,0,0,0,36607.703125,1142.0,-1338.0,-2767.0
1.48,0.02510460466146469,-0.045103929936885834,0.4719093441963196,0.0,0.0,0.0,-1.1931546926498413,0.41024962067604065,-2.807511329650879,0.0,-1.0,0.4719093441963196,32732.0,40952.0,34078.0,38474.0,0,0,0,0,36559.046875,-47.0,-4879.0,-2858.0
1.5,0.024926912039518356,-0.04517971724271774,0.47414398193359375,0.0,0.0,0.0,-1.1745659112930298,0.16265562176704407,-2.8394126892089844,0.0,-1.0,0.47414398193359375,31993.0,41589.0,34621.0,37985.0,0,0,0,0,36547.76953125,-103.0,-3648.0,-2894.0
1.52,0.022736523300409317,-0.04262639954686165,0.476318359375,0.0,0.0,0.0,-1.1347744464874268,-0.0016461573541164398,-2.8727757930755615,0.0,-1.0,0.47571226954460144,32516.0,41864.0,33976.0,38372.0,0,0,0,0,36682.35546875,-103.0,-2884.0,-2984.0
1.54,0.020368356257677078,-0.041961248964071274,0.4777508080005646,0.0,0.0,0.0,-1.088892936706543,-0.13459062576293945,-2.911972999572754,0.0,-1.0,0.4777508080005646,32900.0,41424.0,33526.0,38954.0,0,0,0,0,36701.88671875,-2534.0,-3880.0,-3005.0
1.56,0.018007636070251465,-0.0405585914850235,0.4797198176383972,0.0,0.0,0.0,-0.9715825915336609,-0.2790754437446594,-2.95963191986084,0.0,-1.0,0.4797198176383972,33637.0,42193.0,33427.0,37551.0,0,0,0,0,36702.2578125,-2161.0,-3257.0,-2886.0
1.58,0.015540551394224167,-0.03952454403042793,0.4816417098045349,0.0,0.0,0.0,-0.7713960409164429,-0.40244483947753906,-2.989619493484497,0.0,-1.0,0.4822634160518646,33192.0,42038.0,34272.0,36666.0,0,0,0,0,36542.74609375,-1803.0,-2946.0,-2779.0
1.6,0.014643242582678795,-0.036531150341033936,0.4842289388179779,0.0,0.0,0.0,-0.5287089347839355,-0.545568585395813,-2.9955694675445557,0.0,-1.0,0.4842289388179779,32522.0,40946.0,35112.0,37456.0,0,0,0,0,36509.26953125,-1774.0,-3192.0,-2807.0
1.62,0.012033773586153984,-0.035763125866651535,0.4861679971218109,0.0,0.0,0.0,-0.25590547919273376,-0.6236984133720398,-2.986997604370117,0.0,-1.0,0.4861679971218109,33415.0,39533.0,34295.0,38653.0,0,0,0,0,36474.15625,-581.0,-1481.0,-2684.0
1.64,0.011241674423217773,-0.034888360649347305,0.48807719349861145,0.0,0.0,0.0,-0.09296490252017975,-0.7382940649986267,-2.978480100631714,0.0,-1.0,0.48807719349861145,33366.0,41048.0,35610.0,36552.0,0,0,0,0,36644.8828125,-1643.0,-3295.0,-2577.0
1.66,0.011345961131155491,-0.03226441890001297,0.4889141917228699,0.0,0.0,0.0,-0.01808536797761917,-0.8977473378181458,-2.9439566135406494,0.0,-1.0,0.4889141917228699,33438.0,41618.0,35456.0,36148.0,0,0,0,0,36665.765625,-3044.0,-1891.0,-2667.0
1.68,0.009848110377788544,-0.031149128451943398,0.4906136989593506,0.0,0.0,0.0,0.0898183137178421,-0.9711391925811768,-2.903373956680298,0.0,-1.0,0.4906136989593506,33842.0,39158.0,35316.0,38356.0,0,0,0,0,36668.15234375,-619.0,-1384.0,-2467.0
1.7,0.00912071019411087,-0.03141556307673454,0.49225783348083496,0.0,0.0,0.0,0.23268087208271027,-1.0775219202041626,-2.869199752807617,0.0,-1.0,0.49225783348083496,35144.0,40316.0,33874.0,36350.0,0,0,0,0,36421.12890625,-2059.0,-1346.0,-2423.0
1.72,0.010135478340089321,-0.029988696798682213,0.49575555324554443,0.0,0.0,0.0,0.29787904024124146,-1.288368821144104,-2.813276529312134,0.0,-1.0,0.49575555324554443,34797.0,39611.0,34557.0,36867.0,0,0,0,0,36458.86328125,-2220.0,-448.0,-2449.0
1.74,0.010514384135603905,-0.030152160674333572,0.497405081987381,0.0,0.0,0.0,0.4200426936149597,-1.4667350053787231,-2.7532200813293457,0.0,-1.0,0.497405081987381,33362.0,41822.0,34822.0,36126.0,0,0,0,0,36533.59375,-1525.0,-1428.0,-2440.0
1.76,0.010154797695577145,-0.03013540990650654,0.4990238845348358,0.0,0.0,0.0,0.553688108921051,-1.5554213523864746,-2.695128917694092,0.0,-1.0,0.4990238845348358,33666.0,40570.0,36102.0,36934.0,0,0,0,0,36818.921875,-1234.0,-1721.0,-2458.0
1.78,0.009233316406607628,-0.028686245903372765,0.49956053495407104,0.0,0.0,0.0,0.6130197644233704,-1.5852386951446533,-2.6459412574768066,0.0,-1.0,0.49956053495407104,33785.0,40377.0,36259.0,37507.0,0,0,0,0,36982.29296875,782.0,-866.0,-2412.0
1.8,0.008917951956391335,-0.02668479084968567,0.5007115602493286,0.0,0.0,0.0,0.5877017378807068,-1.5481706857681274,-2.6039438247680664,0.0,-1.0,0.5007115602493286,33521.0,39059.0,36661.0,39271.0,0,0,0,0,37128.02734375,804.0,-2805.0,-2435.0
1.82,0.008201065473258495,-0.025287015363574028,0.5017271637916565,0.0,0.0,0.0,0.47442156076431274,-1.4944261312484741,-2.564225435256958,0.0,-1.0,0.5017271637916565,33150.0,39896.0,36502.0,38144.0,0,0,0,0,36923.01953125,453.0,-2189.0,-2476.0
1.84,0.007463410031050444,-0.025198280811309814,0.5044949650764465,0.0,0.0,0.0,0.33390647172927856,-1.4179999828338623,-2.5273330211639404,0.0,-1.0,0.5044949650764465,32960.0,41120.0,35838.0,38062.0,0,0,0,0,36995.61328125,529.0,-825.0,-2574.0
1.86,0.00943997222930193,-0.026938961818814278,0.5055019855499268,0.0,0.0,0.0,0.23539821803569794,-1.3524047136306763,-2.500479221343994,0.0,-1.0,0.5055019855499268,33454.0,41664.0,35420.0,37734.0,0,0,0,0,37068.76953125,-1097.0,-1746.0,-2682.0
1.88,0.00908861868083477,-0.025773189961910248,0.5064354538917542,0.0,0.0,0.0,0.16087427735328674,-1.289005160331726,-2.492603063583374,0.0,-1.0,0.5064354538917542,32929.0,42439.0,35289.0,37815.0,0,0,0,0,37118.09375,-1913.0,-1355.0,-2789.0
1.9,0.008782463148236275,-0.02458919771015644,0.5088371634483337,0.0,0.0,0.0,0.1716758757829666,-1.2042089700698853,-2.5059635639190674,0.0,-1.0,0.5088371634483337,34144.0,41536.0,33000.0,38820.0,0,0,0,0,36875.33984375,-660.0,-124.0,-2962.0
1.92,0.0114081259816885,-0.02466728910803795,0.5098239779472351,0.0,0.0,0.0,0.2103448361158371,-1.1503995656967163,-2.534228563308716,0.0,-1.0,0.5098239779472351,33672.0,41176.0,33170.0,39618.0,0,0,0,0,36909.4453125,-566.0,-2441.0,-3053.0
1.94,0.011395513080060482,-0.023588338866829872,0.5107645988464355,0.0,0.0,0.0,0.21006877720355988,-1.1247925758361816,-2.578126907348633,0.0,-1.0,0.5107645988464355,31758.0,42410.0,34646.0,39006.0,0,0,0,0,36955.18359375,1244.0,-3518.0,-3208.0
1.96,0.012680865824222565,-0.023777678608894348,0.5108367204666138,0.0,0.0,0.0,0.19092366099357605,-1.0384591817855835,-2.628997325897217,0.0,-1.0,0.5108367204666138,30805.0,42885.0,35677.0,39157.0,0,0,0,0,37131.84375,-406.0,-6161.0,-3228.0
1.98,0.013584138825535774,-0.024537699297070503,0.5116018652915955,0.0,0.0,0.0,0.13366971909999847,-0.7890930771827698,-2.691359519958496,0.0,-1.0,0.5116018652915955,30312.0,43618.0,35894.0,38640.0,0,0,0,0,37116.99609375,444.0,-3413.0,-3318.0
2.0,0.014189853332936764,-0.025272496044635773,0.5123656392097473,0.0,0.0,0.0,0.05066339299082756,-0.42617711424827576,-2.7556540966033936,0.0,-1.0,0.5117805004119873,31906.0,43120.0,34366.0,39336.0,0,0,0,0,37182.90234375,-811.0,-2560.0,-3389.0
2.02,0.01815224438905716,-0.025983404368162155,0.5125036239624023,0.0,0.0,0.0,-0.04987453669309616,-0.13879281282424927,-2.8215370178222656,0.0,-1.0,0.5125036239624023,32167.0,43153.0,33993.0,39151.0,0,0,0,0,37116.93359375,-1702.0,-3599.0,-3400.0
2.04,0.019795147702097893,-0.027497515082359314,0.513266921043396,0.0,0.0,0.0,-0.1016179621219635,0.09350185841321945,-2.883699893951416,0.0,-1.0,0.513266921043396,31860.0,43142.0,33670.0,39568.0,0,0,0,0,37060.24609375,-372.0,-2714.0,-3627.0
2.06,0.021123474463820457,-0.027604760602116585,0.5140585899353027,0.0,0.0,0.0,-0.13251222670078278,0.23542296886444092,-2.945361852645874,0.0,-1.0,0.5140585899353027,30541.0,43971.0,33939.0,39169.0,0,0,0,0,36905.86328125,-747.0,-3880.0,-3732.0
2.08,0.02343055233359337,-0.028936363756656647,0.5156276226043701,0.0,0.0,0.0,-0.15301395952701569,0.3182792067527771,-3.0361266136169434,0.0,-1.0,0.5156276226043701,30064.0,42988.0,33904.0,40392.0,0,0,0,0,36837.66796875,-381.0,-3312.0,-3797.0
2.1,0.021688971668481827,-0.030464470386505127,0.5165346264839172,0.0,0.0,0.0,-0.1632687747478485,0.5339974761009216,-3.130849838256836,0.0,-1.0,0.5165346264839172,30901.0,42693.0,32477.0,41069.0,0,0,0,0,36785.515625,-606.0,-2339.0,-3950.0
2.12,0.02343023754656315,-0.030051639303565025,0.5174574851989746,0.0,0.0,0.0,-0.22526679933071136,0.7398688793182373,-3.2295124530792236,0.0,-1.0,0.5174574851989746,30607.0,42503.0,32841.0,40381.0,0,0,0,0,36583.890625,-411.0,-2122.0,-3899.0
2.14,0.023795729503035545,-0.029362328350543976,0.5194017887115479,0.0,0.0,0.0,-0.295873761177063,0.8678298592567444,-3.3232150077819824,0.0,-1.0,0.5194017887115479,32220.0,42384.0,31794.0,39742.0,0,0,0,0,36535.890625,-821.0,-126.0,-3801.0
2.16,0.02465817518532276,-0.032474763691425323,0.5204263925552368,0.0,0.0,0.0,-0.3367808759212494,0.9073734879493713,-3.394636392593384,0.0,-1.0,0.5204263925552368,32681.0,42851.0,31803.0,38749.0,0,0,0,0,36521.17578125,-2389.0,-917.0,-3800.0
2.18,0.024964967742562294,-0.0318959578871727,0.5214313268661499,0.0,0.0,0.0,-0.3443245589733124,0.8970105051994324,-3.4416699409484863,0.0,-1.0,0.5214313268661499,33005.0,40997.0,32399.0,39515.0,0,0,0,0,36479.55078125,-434.0,390.0,-3615.0
2.2,0.025034436956048012,-0.03197379782795906,0.522899866104126,0.0,0.0,0.0,-0.3257090449333191,0.9063632488250732,-3.4646365642547607,0.0,-1.0,0.522899866104126,33391.0,40659.0,32665.0,39461.0,0,0,0,0,36544.30859375,-605.0,-702.0,-3580.0
2.22,0.026796486228704453,-0.03303805738687515,0.5238076448440552,0.0,0.0,0.0,-0.3905349671840668,0.8823046684265137,-3.4643280506134033,0.0,-1.0,0.5238076448440552,33379.0,40005.0,32469.0,40647.0,0,0,0,0,36625.2421875,-214.0,-483.0,-3586.0
2.24,0.027115430682897568,-0.034077517688274384,0.5246220231056213,0.0,0.0,0.0,-0.44609928131103516,0.8500744700431824,-3.464038610458374,0.0,-1.0,0.5246220231056213,33473.0,41749.0,33619.0,39687.0,0,0,0,0,37132.03125,150.0,-992.0,-3625.0
2.26,0.027311857789754868,-0.03362131118774414,0.5229328870773315,0.0,0.0,0.0,-0.48307502269744873,0.7577177286148071,-3.460841178894043,0.0,-1.0,0.5229328870773315,33313.0,43783.0,34151.0,37645.0,0,0,0,0,37223.3125,-2681.0,-3782.0,-3620.0
2.28,0.022707374766469002,-0.03258915990591049,0.5233427882194519,0.0,0.0,0.0,-0.5575510263442993,0.6615597009658813,-3.4501852989196777,0.0,-1.0,0.5233427882194519,32698.0,42178.0,34600.0,39784.0,0,0,0,0,37315.7890625,-8.0,-330.0,-3640.0
2.3,0.021498728543519974,-0.03409554809331894,0.5236783027648926,0.0,0.0,0.0,-0.5433645844459534,0.5842148661613464,-3.4489057064056396,0.0,-1.0,0.5246847867965698,32767.0,40919.0,34741.0,40381.0,0,0,0,0,37202.515625,1772.0,1266.0,-3556.0
2.32,0.02129852958023548,-0.0334123820066452,0.5250729322433472,0.0,0.0,0.0,-0.5798941850662231,0.5233779549598694,-3.4410414695739746,0.0,-1.0,0.5250729322433472,32223.0,41589.0,35543.0,39529.0,0,0,0,0,37221.14453125,281.0,-4383.0,-3520.0
2.34,0.0209097508341074,-0.03475609049201012,0.525445282459259,0.0,0.0,0.0,-0.7275347709655762,0.4373408555984497,-3.422957181930542,0.0,-1.0,0.525445282459259,32225.0,42191.0,34815.0,39449.0,0,0,0,0,37170.109375,-37.0,-1418.0,-3651.0
2.36,0.01958119310438633,-0.0365658774971962,0.5258508324623108,0.0,0.0,0.0,-0.8614997267723083,0.5059496760368347,-3.4113738536834717,0.0,-1.0,0.5250231027603149,32115.0,42657.0,35115.0,39121.0,0,0,0,0,37252.546875,822.0,-2210.0,-3721.0
2.38,0.017489831894636154,-0.03867761418223381,0.5253940224647522,0.0,0.0,0.0,-0.9919430613517761,0.5604742169380188,-3.4051239490509033,0.0,-1.0,0.5253940224647522,32914.0,41842.0,34220.0,39772.0,0,0,0,0,37187.6171875,-1624.0,-2214.0,-3669.0
2.4,0.01600879617035389,-0.03982280567288399,0.5258150100708008,0.0,0.0,0.0,-1.0575282573699951,0.5788469910621643,-3.3995373249053955,0.0,-1.0,0.5258150100708008,34975.0,41221.0,32483.0,39681.0,0,0,0,0,37090.63671875,-2612.0,-426.0,-3563.0
2.42,0.015546833164989948,-0.039155829697847366,0.5263022184371948,0.0,0.0,0.0,-1.0636528730392456,0.5119891166687012,-3.3866164684295654,0.0,-1.0,0.5257086753845215,33559.0,42375.0,34279.0,38327.0,0,0,0,0,37135.21484375,-1655.0,-1419.0,-3524.0
2.44,0.01221532840281725,-0.03726436197757721,0.5261764526367188,0.0,0.0,0.0,-0.9761722683906555,0.40769681334495544,-3.3595025539398193,0.0,-1.0,0.5261764526367188,33487.0,40845.0,34825.0,39231.0,0,0,0,0,37097.73046875,-438.0,-2682.0,-3422.0
2.46,0.010632021352648735,-0.03693418949842453,0.5266911387443542,0.0,0.0,0.0,-0.8966138362884521,0.30051562190055847,-3.3162124156951904,0.0,-1.0,0.5266911387443542,33699.0,40105.0,34541.0,39827.0,0,0,0,0,37043.0234375,-763.0,-3017.0,-3408.0
2.48,0.00901105161756277,-0.036753203719854355,0.5272116661071777,0.0,0.0,0.0,-0.8782593607902527,0.23464259505271912,-3.2709808349609375,0.0,-1.0,0.5272116661071777,34071.0,40749.0,34131.0,40301.0,0,0,0,0,37313.36328125,499.0,-89.0,-3499.0
2.5,0.0071687642484903336,-0.036609355360269547,0.5259618163108826,0.0,0.0,0.0,-0.8832777142524719,0.18949687480926514,-3.2353177070617676,0.0,-1.0,0.5259618163108826,34332.0,41260.0,34214.0,39486.0,0,0,0,0,37323.58984375,-1501.0,-2183.0,-3438.0
2.52,0.006103719584643841,-0.036675117909908295,0.5263351202011108,0.0,0.0,0.0,-0.8795958161354065,0.08145376294851303,-3.201406955718994,0.0,-1.0,0.5263351202011108,34056.0,42466.0,34024.0,38750.0,0,0,0,0,37324.84375,-885.0,-2730.0,-2657.0
2.54,0.003126168390735984,-0.03500824049115181,0.5266891121864319,0.0,0.0,0.0,-0.8311068415641785,-0.02783319354057312,-3.1498498916625977,0.0,-1.0,0.5266891121864319,33454.0,40950.0,34450.0,39846.0,0,0,0,0,37175.04296875,465.0,-1344.0,-2630.0
2.56,0.0003057662397623062,-0.03315071389079094,0.5276415348052979,0.0,0.0,0.0,-0.7716306447982788,-0.11917243897914886,-3.0914745330810547,0.0,-1.0,0.5276415348052979,34660.0,39368.0,34406.0,39994.0,0,0,0,0,37107.703125,718.0,967.0,-3193.0
2.58,-0.003410044591873884,-0.03330852463841438,0.5281307101249695,0.0,0.0,0.0,-0.7439275979995728,-0.2152203768491745,-3.031081438064575,0.0,-1.0,0.5281307101249695,33248.0,41068.0,35804.0,37904.0,0,0,0,0,37006.41015625,-543.0,-1858.0,-3217.0
2.6,-0.0061354441568255424,-0.030190017074346542,0.5289199352264404,0.0,0.0,0.0,-0.7401703000068665,-0.32744303345680237,-2.964496374130249,0.0,-1.0,0.5289199352264404,32973.0,40433.0,34629.0,39873.0,0,0,0,0,36977.6875,125.0,-308.0,-2599.0
2.62,-0.009024860337376595,-0.02982557937502861,0.5295022130012512,0.0,0.0,0.0,-0.7294999361038208,-0.4561837613582611,-2.903696298599243,0.0,-1.0,0.5295022130012512,32885.0,41451.0,34699.0,38897.0,0,0,0,0,36983.265625,-453.0,-2734.0,-2751.0
2.64,-0.01352632511407137,-0.029826730489730835,0.530041515827179,0.0,0.0,0.0,-0.6937649846076965,-0.6151801347732544,-2.855891466140747,0.0,-1.0,0.530041515827179,33197.0,41075.0,34017.0,39387.0,0,0,0,0,36919.2265625,-713.0,-475.0,-2937.0
2.66,-0.014983019791543484,-0.027746068313717842,0.5310032367706299,0.0,0.0,0.0,-0.6574360728263855,-0.8456272482872009,-2.8170156478881836,0.0,-1.0,0.5310032367706299,33391.0,40403.0,33945.0,40085.0,0,0,0,0,36956.27734375,-192.0,-1561.0,-2985.0
2.68,-0.014224433340132236,-0.02626330778002739,0.5315161347389221,0.0,0.0,0.0,-0.5856583714485168,-1.0871303081512451,-2.7901575565338135,0.0,-1.0,0.5315161347389221,33922.0,40430.0,33320.0,40396.0,0,0,0,0,37017.96875,-62.0,-751.0,-3167.0
2.7,-0.017051352187991142,-0.025513479486107826,0.5317497253417969,0.0,0.0,0.0,-0.5398041009902954,-1.3043720722198486,-2.763218402862549,0.0,-1.0,0.5319706797599792,33891.0,42281.0,33441.0,38555.0,0,0,0,0,37042.3203125,-1239.0,-774.0,-3112.0
2.72,-0.02012818306684494,-0.021380241960287094,0.5324023365974426,0.0,0.0,0.0,-0.4085347056388855,-1.5004668235778809,-2.740222215652466,0.0,-1.0,0.5324023365974426,32530.0,40766.0,34730.0,40330.0,0,0,0,0,37089.38671875,-569.0,-660.0,-3451.0
2.74,-0.024535680189728737,-0.022114673629403114,0.5325972437858582,0.0,0.0,0.0,-0.33816367387771606,-1.5428093671798706,-2.7328929901123047,0.0,-1.0,0.5327788591384888,32528.0,41434.0,34860.0,39718.0,0,0,0,0,37135.4921875,331.0,1183.0,-3373.0
2.76,-0.02368284948170185,-0.020539121702313423,0.5329494476318359,0.0,0.0,0.0,-0.2712724208831787,-1.6822062730789185,-2.7342469692230225,0.0,-1.0,0.5331110954284668,33093.0,41923.0,33109.0,38479.0,0,0,0,0,36651.25390625,-1120.0,-1317.0,-3577.0
2.78,-0.023388130590319633,-0.019501477479934692,0.5360749363899231,0.0,0.0,0.0,-0.18980662524700165,-1.7874321937561035,-2.7289555072784424,0.0,-1.0,0.5363684296607971,33216.0,41546.0,32912.0,38978.0,0,0,0,0,36663.21484375,-1503.0,-2589.0,-3647.0
2.8,-0.024649295955896378,-0.016501495614647865,0.5366535186767578,0.0,0.0,0.0,-0.06652064621448517,-1.854718565940857,-2.7321372032165527,0.0,-1.0,0.5369285941123962,31709.0,42865.0,34207.0,38055.0,0,0,0,0,36709.85546875,-2425.0,-1524.0,-4067.0
2.82,-0.025493750348687172,-0.013636128976941109,0.5371888279914856,0.0,0.0,0.0,0.07461743801832199,-1.9505516290664673,-2.7439045906066895,0.0,-1.0,0.5374350547790527,33326.0,42100.0,33714.0,39816.0,0,0,0,0,37239.95703125,-2482.0,-3980.0,-4072.0
2.84,-0.025183269754052162,-0.011096564121544361,0.534972071647644,0.0,0.0,0.0,0.24269522726535797,-2.0076797008514404,-2.775287628173828,0.0,-1.0,0.5350555777549744,30966.0,43768.0,35898.0,38504.0,0,0,0,0,37284.2109375,-915.0,-5479.0,-4424.0
2.86,-0.026729002594947815,-0.010781597346067429,0.5351313352584839,0.0,0.0,0.0,0.402455598115921,-1.998941421508789,-2.8084020614624023,0.0,-1.0,0.5351993441581726,30763.0,43557.0,35905.0,39003.0,0,0,0,0,37307.3203125,1476.0,-1883.0,-4473.0
2.88,-0.028088927268981934,-0.010606382973492146,0.5352643132209778,0.0,0.0,0.0,0.5236636996269226,-1.8260027170181274,-2.858116626739502,0.0,-1.0,0.5353271961212158,32153.0,43971.0,34333.0,38599.0,0,0,0,0,37264.890625,-346.0,-3904.0,-4516.0
2.9,-0.024964140728116035,-0.00812297873198986,0.5356723070144653,0.0,0.0,0.0,0.5225751996040344,-1.647245168685913,-2.905815362930298,0.0,-1.0,0.535751223564148,32610.0,42172.0,33572.0,40498.0,0,0,0,0,37213.5546875,6.0,-721.0,-4707.0
2.92,-0.02334766462445259,-0.008567407727241516,0.5358403921127319,0.0,0.0,0.0,0.5759900808334351,-1.4677557945251465,-2.9527175426483154,0.0,-1.0,0.5359411239624023,33008.0,44322.0,32740.0,38666.0,0,0,0,0,37184.5390625,-335.0,-720.0,-5112.0
2.94,-0.021472953259944916,-0.009234446100890636,0.5360469222068787,0.0,0.0,0.0,0.668689489364624,-1.4158499240875244,-3.012500524520874,0.0,-1.0,0.5361554026603699,32006.0,44102.0,33794.0,38690.0,0,0,0,0,37148.75390625,-839.0,-1780.0,-4943.0
2.96,-0.022688299417495728,-0.00835767388343811,0.5366060733795166,0.0,0.0,0.0,0.7890270352363586,-1.3982406854629517,-3.0872254371643066,0.0,-1.0,0.5367462635040283,31651.0,43387.0,33843.0,39203.0,0,0,0,0,37021.3671875,-726.0,-4611.0,-4800.0
2.98,-0.02194596827030182,-0.008875996805727482,0.5368982553482056,0.0,0.0,0.0,0.9237986207008362,-1.2757837772369385,-3.1473803520202637,0.0,-1.0,0.537064254283905,30630.0,44260.0,34622.0,38276.0,0,0,0,0,36947.36328125,-606.0,-4365.0,-4868.0
3.0,-0.02236153371632099,-0.0077490974217653275,0.5372430086135864,0.0,0.0,0.0,0.9856622219085693,-1.0780688524246216,-3.1977460384368896,0.0,-1.0,0.5374317169189453,19493.0,57067.0,45735.0,25265.0,0,0,0,0,36890.8984375,-1830.0,-26834.0,-4769.0
3.02,-0.020443269982933998,-0.007369081489741802,0.5376276969909668,0.0,0.0,0.0,0.9717780351638794,-0.8358732461929321,-3.2494165897369385,0.0,-1.0,0.536948025226593,26775.0,47107.0,38597.0,35493.0,0,0,0,0,36993.12109375,49.0,-8138.0,-4631.0
3.04,-0.014109757728874683,-0.004943582229316235,0.5371102690696716,0.0,0.0,0.0,0.870539128780365,-0.7050303816795349,-3.2960803508758545,0.0,-1.0,0.5372949838638306,36033.0,39133.0,29193.0,42785.0,0,0,0,0,36786.6328125,-2259.0,9052.0,-3954.0
3.06,-0.006648654583841562,-0.0044408515095710754,0.5375117063522339,0.0,0.0,0.0,0.723030686378479,-1.3636947870254517,-3.3141725063323975,0.0,-1.0,0.5377823710441589,37455.0,40569.0,26539.0,41529.0,0,0,0,0,36523.56640625,-4555.0,7345.0,-4749.0
3.08,-0.002948952605947852,-0.006805902812629938,0.5380885004997253,0.0,0.0,0.0,0.5635972619056702,-3.646982192993164,-3.2943153381347656,0.0,-1.0,0.5391666889190674,35202.0,43128.0,27856.0,38782.0,0,0,0,0,36242.8359375,-6189.0,-2097.0,-5228.0
3.1,-0.0075536263175308704,-0.008848948404192924,0.5395846366882324,0.0,0.0,0.0,0.6872034072875977,-6.500003814697266,-3.3205254077911377,0.0,-1.0,0.540005087852478,31965.0,43091.0,31577.0,38047.0,0,0,0,0,36170.09765625,-2725.0,-1445.0,-4510.0
3.12,-0.01549490075558424,-0.008577304892241955,0.5404717326164246,0.0,0.0,0.0,0.9734141826629639,-8.86159896850586,-3.3623950481414795,0.0,-1.0,0.5408985018730164,29800.0,41204.0,34074.0,39762.0,0,0,0,0,36210.21875,1515.0,-2991.0,-4073.0
3.14,-0.013445842079818249,-0.0070412964560091496,0.5413086414337158,0.0,0.0,0.0,1.0633381605148315,-10.633920669555664,-3.363903284072876,0.0,-1.0,0.5472309589385986,27945.0,40917.0,34387.0,38191.0,0,0,0,0,35360.62890625,-231.0,-6689.0,-3977.0
3.16,-0.007379228714853525,-0.006153073627501726,0.5478329062461853,0.0,0.0,0.0,0.7678499817848206,-12.006428718566895,-3.344872236251831,0.0,-1.0,0.5484104752540588,28385.0,42027.0,34337.0,37187.0,0,0,0,0,35484.65625,836.0,-4508.0,-3896.0
3.18,-0.003322403412312269,-0.004145036451518536,0.5489456653594971,0.0,0.0,0.0,0.2989640235900879,-13.041192054748535,-3.3286147117614746,0.0,-1.0,0.5494313836097717,30124.0,42196.0,33200.0,37404.0,0,0,0,0,35731.0625,-694.0,-3265.0,-3734.0
3.2,-0.000693384965416044,-0.006693549454212189,0.5498692989349365,0.0,0.0,0.0,-0.05937106907367706,-13.845281600952148,-3.298192262649536,0.0,-1.0,0.5529436469078064,31581.0,41589.0,31353.0,37537.0,0,0,0,0,35515.80078125,-1733.0,371.0,-3661.0
3.22,0.004639135207980871,-0.008361989632248878,0.5533773303031921,0.0,0.0,0.0,-0.2769201695919037,-14.60981273651123,-3.262362003326416,0.0,-1.0,0.5537446737289429,31760.0,41810.0,32002.0,37652.0,0,0,0,0,35806.0390625,-1423.0,-2204.0,-3443.0
3.24,0.011210132390260696,-0.009836154989898205,0.5540403127670288,0.0,0.0,0.0,-0.3552601933479309,-15.311978340148926,-3.2244904041290283,0.0,-1.0,0.5542680621147156,32597.0,40113.0,32035.0,39855.0,0,0,0,0,36150.5234375,-1621.0,-4267.0,-3171.0
3.26,0.01647835783660412,-0.009224389679729939,0.5544427633285522,0.0,0.0,0.0,-0.3814586400985718,-15.78458023071289,-3.173906087875366,0.0,-1.0,0.5579038262367249,31261.0,40887.0,33089.0,38335.0,0,0,0,0,35893.07421875,-544.0,-4595.0,-2877.0
3.28,0.023552028462290764,-0.007645709440112114,0.558092474937439,0.0,0.0,0.0,-0.48003384470939636,-15.982612609863281,-3.111603260040283,0.0,-1.0,0.5581901669502258,31777.0,40505.0,33771.0,38939.0,0,0,0,0,36248.34765625,883.0,-2526.0,-2750.0
3.3,0.03213272616267204,-0.009094114415347576,0.5582183003425598,0.0,0.0,0.0,-0.6221543550491333,-15.919317245483398,-3.0251970291137695,0.0,-1.0,0.5581695437431335,32518.0,40946.0,33674.0,39394.0,0,0,0,0,36633.4375,-2.0,-861.0,-3510.0
3.32,0.0495111308991909,-0.008814935572445393,0.557814359664917,0.0,0.0,0.0,-0.8713003396987915,-15.529943466186523,-2.889188289642334,0.0,-1.0,0.557814359664917,32396.0,42324.0,34426.0,38310.0,0,0,0,0,36864.19140625,-739.0,-2621.0,-3469.0
3.34,0.06127011403441429,-0.009645185433328152,0.5584659576416016,0.0,0.0,0.0,-0.9531311988830566,-15.100192070007324,-2.7769486904144287,0.0,-1.0,0.5584659576416016,32125.0,43301.0,35435.0,38155.0,0,0,0,0,37254.7421875,-1081.0,-5617.0,-3504.0
3.36,0.07308299839496613,-0.009939596056938171,0.5576300621032715,0.0,0.0,0.0,-0.9589903354644775,-14.383079528808594,-2.6777310371398926,0.0,-1.0,0.5576300621032715,32122.0,43744.0,35954.0,38704.0,0,0,0,0,37631.0703125,-1229.0,-5719.0,-2726.0
3.38,0.08421559631824493,-0.009977131150662899,0.5565617084503174,0.0,0.0,0.0,-0.9744365811347961,-13.391366958618164,-2.5895464420318604,0.0,-1.0,0.5565617084503174,31114.0,44158.0,37652.0,38484.0,0,0,0,0,37852.40625,-287.0,-7953.0,-2622.0
3.4,0.0957358255982399,-0.009800572879612446,0.5558586716651917,0.0,0.0,0.0,-1.0116521120071411,-12.207345008850098,-2.5096065998077393,0.0,-1.0,0.5558586716651917,32131.0,44367.0,37273.0,38593.0,0,0,0,0,38091.50390625,1276.0,-3750.0,-2440.0
3.42,0.11251963675022125,-0.01143943052738905,0.5544663667678833,0.0,0.0,0.0,-1.0519487857818604,-10.900996208190918,-2.414811611175537,0.0,-1.0,0.5544663667678833,33128.0,45514.0,36786.0,37508.0,0,0,0,0,38234.09765625,-1803.0,-5914.0,-2081.0
3.44,0.11903934180736542,-0.011555084027349949,0.5502166748046875,0.0,0.0,0.0,-1.085341453552246,-10.259222984313965,-2.3625435829162598,0.0,-1.0,0.5493217706680298,33541.0,42855.0,38125.0,41311.0,0,0,0,0,38958.8203125,913.0,-3843.0,-1884.0
3.46,0.1321822851896286,-0.01169645320624113,0.5484561920166016,0.0,0.0,0.0,-1.081311583518982,-8.83285140991211,-2.2489326000213623,0.0,-1.0,0.5475702285766602,33351.0,44895.0,38689.0,39085.0,0,0,0,0,39005.76953125,222.0,-6823.0,-1548.0
3.48,0.14849792420864105,-0.016011888161301613,0.5467024445533752,0.0,0.0,0.0,-1.1281747817993164,-7.504119873046875,-2.106588840484619,0.0,-1.0,0.5458564162254333,34427.0,43957.0,37575.0,39765.0,0,0,0,0,38931.9453125,-49.0,-2335.0,-2972.0
3.5,0.16645416617393494,-0.016673743724822998,0.5450517535209656,0.0,0.0,0.0,-1.1650681495666504,-6.102787971496582,-1.9791462421417236,0.0,-1.0,0.5385648012161255,35472.0,45036.0,38596.0,40024.0,0,0,0,0,39782.921875,-1236.0,-4620.0,-1458.0
3.52,0.1842711716890335,-0.01752166636288166,0.5375670790672302,0.0,0.0,0.0,-1.167724609375,-4.740076541900635,-1.847524881362915,0.0,-1.0,0.5366374850273132,36121.0,44077.0,38101.0,40093.0,0,0,0,0,39598.3203125,-1061.0,-4724.0,-1161.0
3.54,0.20064425468444824,-0.01830313540995121,0.5357911586761475,0.0,0.0,0.0,-1.1145302057266235,-3.2967703342437744,-1.714224934577942,0.0,-1.0,0.5349975228309631,34564.0,45382.0,39200.0,37970.0,0,0,0,0,39279.109375,-776.0,-7427.0,-974.0
3.56,0.21348750591278076,-0.02004542201757431,0.5343486666679382,0.0,0.0,0.0,-0.9702195525169373,-1.7556313276290894,-1.5656284093856812,0.0,-1.0,0.49725577235221863,41250.0,50720.0,45104.0,44910.0,0,0,0,0,45496.54296875,-1204.0,-6348.0,-1007.0
3.58,0.2073051929473877,-0.02204480767250061,0.4949832260608673,0.0,0.0,0.0,-0.8918776512145996,-0.4034399092197418,-1.3831995725631714,0.0,-1.0,0.4927101135253906,42580.0,47276.0,43168.0,48056.0,0,0,0,0,45270.83203125,359.0,-933.0,-1056.0
3.6,0.23871836066246033,-0.023572824895381927,0.4904513955116272,0.0,0.0,0.0,-0.8366872668266296,1.0101162195205688,-1.2487144470214844,0.0,-1.0,0.488451212644577,40902.0,49888.0,43118.0,43956.0,0,0,0,0,44466.546875,-2440.0,-4642.0,-1259.0
3.62,0.28379878401756287,-0.029325544834136963,0.4864027798175812,0.0,0.0,0.0,-0.8054860234260559,2.0023722648620605,-1.1175963878631592,0.0,-1.0,0.3251025378704071,53835.0,65535.0,57181.0,55765.0,0,0,0,0,62767.0,-3282.0,-6868.0,-1639.0
3.64,0.2615396976470947,-0.04702358320355415,0.3158145844936371,0.0,0.0,0.0,-0.7296446561813354,2.022282600402832,-0.8594400882720947,0.0,-1.0,0.3068659007549286,60292.0,65510.0,61030.0,64236.0,0,0,0,0,62767.0,-1459.0,-4300.0,-1758.0
3.66,0.24796992540359497,-0.05701734870672226,0.2987021207809448,0.0,0.0,0.0,-0.698801577091217,3.3839592933654785,-0.7575893402099609,0.0,-1.0,0.2906276285648346,54263.0,65535.0,60975.0,58803.0,0,0,0,0,62767.0,408.0,-7921.0,-2021.0
3.68,0.2794712483882904,-0.05387203022837639,0.2829814553260803,0.0,0.0,0.0,-0.8349876999855042,4.417845726013184,-0.7101702690124512,0.0,-1.0,0.27617979049682617,46715.0,65535.0,55537.0,46925.0,0,0,0,0,62767.0,-4619.0,-12166.0,-2347.0
3.7,0.23479175567626953,-0.06612379103899002,0.22315435111522675,0.0,0.0,0.0,-1.0210145711898804,5.481817722320557,-0.6185626983642578,0.0,-1.0,0.2157185971736908,56611.0,65535.0,62367.0,63991.0,0,0,0,0,62767.0,2097.0,-3279.0,-2498.0
3.72,0.25756460428237915,-0.05338246747851372,0.20911921560764313,0.0,0.0,0.0,-1.3511971235275269,6.365004062652588,-0.6274957060813904,0.0,-1.0,0.2033885270357132,55769.0,65535.0,59175.0,59257.0,0,0,0,0,62767.0,-1404.0,-4457.0,-2378.0
3.74,0.2612411379814148,-0.05932337045669556,0.19872911274433136,0.0,0.0,0.0,-1.639039397239685,6.911619186401367,-0.6031784415245056,0.0,-1.0,0.1947031170129776,54659.0,65535.0,58579.0,57911.0,0,0,0,0,62767.0,-2381.0,-4248.0,-2583.0
3.76,0.26604384183883667,-0.05807206407189369,0.20286649465560913,0.0,0.0,0.0,-1.9294312000274658,6.996313095092773,-0.598875880241394,0.0,-1.0,0.20120231807231903,51569.0,65535.0,59009.0,55375.0,0,0,0,0,58782.51171875,-2231.0,-8061.0,-2754.0
3.78,0.2585696578025818,-0.059979867190122604,0.20072385668754578,0.0,0.0,0.0,-1.9947165250778198,6.98079776763916,-0.6023542881011963,0.0,-1.0,0.20090527832508087,48604.0,59480.0,55204.0,54256.0,0,0,0,0,54386.44140625,-375.0,-7010.0,-2713.0
3.8,0.2410230189561844,-0.054211776703596115,0.2023417055606842,0.0,0.0,0.0,-2.1352579593658447,6.9271559715271,-0.6123701333999634,0.0,-1.0,0.20433302223682404,41470.0,48912.0,44580.0,46482.0,0,0,0,0,45361.28125,78.0,-2209.0,-2336.0
3.82,0.2449653595685959,-0.0609750859439373,0.23439566791057587,0.0,0.0,0.0,-2.197974681854248,6.4431023597717285,-0.6594783663749695,0.0,-1.0,0.2393774539232254,65535.0,40993.0,7000.0,40993.0,0,0,0,0,41114.453125,-32767.0,32767.0,-4263.0
3.84,0.19836094975471497,-0.07882974296808243,0.24542368948459625,0.0,0.0,0.0,-2.10813570022583,5.876391410827637,-0.6992127299308777,0.0,-1.0,0.2516060769557953,65535.0,35749.0,7000.0,35749.0,0,0,0,0,44440.16796875,-32767.0,32767.0,32767.0
3.86,0.5313520431518555,-0.1909557580947876,0.24918897449970245,0.0,0.0,0.0,5.064322471618652,-14.068109512329102,-0.30692195892333984,0.0,-1.0,0.25258785486221313,65535.0,24331.0,7000.0,24331.0,0,0,0,0,52187.26171875,-32767.0,32767.0,32767.0
3.88,0.7254799604415894,-0.21577966213226318,0.23605014383792877,0.0,0.0,0.0,17.213279724121094,-53.07341003417969,8.526476860046387,0.0,-1.0,0.23699741065502167,65535.0,7000.0,7000.0,7000.0,0,0,0,0,58916.234375,-32767.0,32767.0,32767.0
3.9,0.7551931738853455,-0.22195596992969513,0.23714545369148254,0.0,0.0,0.0,90.34561157226562,-78.86268615722656,80.59420776367188,0.0,-1.0,0.2360203117132187,65535.0,7000.0,7000.0,7000.0,0,0,0,0,62767.0,-32767.0,32767.0,32767.0
3.92,0.8166510462760925,-0.24983704090118408,0.23829028010368347,0.0,0.0,0.0,160.9365234375,-57.464439392089844,153.1670379638672,0.0,-1.0,0.2342226505279541,65535.0,7000.0,7000.0,7000.0,0,0,0,0,62767.0,-32767.0,32767.0,32767.0
3.94,0.9578942656517029,-0.27689382433891296,0.223619282245636,0.0,0.0,0.0,166.3621063232422,-32.259952545166016,165.5847625732422,0.0,-1.0,0.2147962599992752,65535.0,7000.0,22063.0,7000.0,0,0,0,0,62767.0,2542.0,32767.0,32767.0
3.96,1.041593074798584,-0.2787725329399109,0.20269647240638733,0.0,0.0,0.0,160.96743774414062,-13.68777084350586,173.9415283203125,0.0,-1.0,0.18950584530830383,7000.0,7000.0,7000.0,65535.0,0,0,0,0,62767.0,32767.0,22591.0,-32767.0
3.98,1.087323546409607,-0.29135262966156006,0.17779825627803802,0.0,0.0,0.0,147.03564453125,-2.511687755584717,-177.9368438720703,0.0,-1.0,0.16077299416065216,32767.0,65535.0,7000.0,65535.0,0,0,0,0,62767.0,-32767.0,32767.0,6490.0
4.0,1.0557585954666138,-0.3600987493991852,0.1714889258146286,0.0,0.0,0.0,124.64046478271484,-0.10684386640787125,-171.55755615234375,0.0,-1.0,0.1527670919895172,7000.0,65535.0,7000.0,16939.0,0,0,0,0,62767.0,-32767.0,-1607.0,-32767.0
4.02,1.234018325805664,-0.4071783125400543,0.17804160714149475,0.0,0.0,0.0,128.33926391601562,11.354394912719727,-164.79270935058594,0.0,-1.0,0.17804160714149475,7000.0,65535.0,7000.0,27311.0,0,0,0,0,62767.0,-32767.0,4223.0,-32767.0
4.04,1.363821268081665,-0.5088291168212891,0.2420390546321869,0.0,0.0,0.0,152.7137908935547,15.258968353271484,-168.2091827392578,0.0,-1.0,0.2420390546321869,20763.0,65535.0,7000.0,53531.0,0,0,0,0,62767.0,-32767.0,20897.0,-32767.0
4.06,1.3786430358886719,-0.5425532460212708,0.2632448673248291,0.0,0.0,0.0,177.72996520996094,16.86494255065918,-174.648193359375,0.0,-1.0,0.2632448673248291,7000.0,7000.0,7000.0,65535.0,0,0,0,0,62767.0,32767.0,-32767.0,32767.0
4.08,1.3642328977584839,-0.5470477938652039,0.24154147505760193,0.0,0.0,0.0,-166.46250915527344,18.287153244018555,177.57615661621094,0.0,-1.0,0.24154147505760193,65535.0,32767.0,65535.0,7000.0,0,0,0,0,62767.0,-32767.0,-32767.0,32767.0
4.1,1.3122501373291016,-0.5991751551628113,0.22756758332252502,0.0,0.0,0.0,-139.76014709472656,3.500328540802002,174.635009765625,0.0,-1.0,0.22756758332252502,7000.0,7000.0,7000.0,65535.0,0,0,0,0,62767.0,-32767.0,32767.0,22212.0
4.12,1.1162517070770264,-0.6216983795166016,0.1958574801683426,0.0,0.0,0.0,-124.06122589111328,-9.096892356872559,-179.0779571533203,0.0,-1.0,0.1679120659828186,7000.0,65535.0,32767.0,65535.0,0,0,0,0,62767.0,32767.0,32767.0,-13088.0
4.14,1.2470906972885132,-0.60515296459198,0.14323027431964874,0.0,0.0,0.0,-135.78846740722656,-8.304600715637207,-178.84893798828125,0.0,-1.0,0.12044458091259003,7000.0,7000.0,7000.0,65535.0,0,0,0,0,62767.0,28652.0,32767.0,-32767.0
4.16,1.4278062582015991,-0.5498124957084656,0.202668234705925,0.0,0.0,0.0,-144.01763916015625,-16.771957397460938,-173.2910919189453,0.0,-1.0,0.18907201290130615,7000.0,23643.0,7000.0,65535.0,0,0,0,0,62767.0,-32767.0,-32767.0,-32767.0
4.18,1.4698905944824219,-0.5182690620422363,0.17330515384674072,0.0,0.0,0.0,-151.56723022460938,-13.345488548278809,-175.1110076904297,0.0,-1.0,0.1561008244752884,7000.0,7000.0,7000.0,65535.0,0,0,0,0,62767.0,-18428.0,32767.0,-32767.0
4.2,1.4084386825561523,-0.4497758746147156,0.14137201011180878,0.0,0.0,0.0,-146.6742401123047,-11.464566230773926,-177.8789520263672,0.0,-1.0,0.1223943680524826,7000.0,7000.0,7000.0,65535.0,0,0,0,0,62767.0,32767.0,-2161.0,-32767.0
4.22,1.3741352558135986,-0.3187029957771301,0.12512578070163727,0.0,0.0,0.0,-149.03182983398438,-12.811315536499023,-177.58609008789062,0.0,-1.0,0.11088231205940247,7000.0,65535.0,32767.0,65535.0,0,0,0,0,62767.0,32767.0,-31562.0,-32767.0
4.24,1.3440964221954346,-0.17416849732398987,0.11300427466630936,0.0,0.0,0.0,-152.88339233398438,-12.071131706237793,-177.8203887939453,0.0,-1.0,0.10025239735841751,7000.0,35151.0,7000.0,65535.0,0,0,0,0,62767.0,32767.0,-32767.0,-32767.0
4.26,1.2281252145767212,0.13813896477222443,0.12772402167320251,0.0,0.0,0.0,-161.11526489257812,-10.222023963928223,-178.06497192382812,0.0,-1.0,0.11955757439136505,7000.0,38487.0,7000.0,65535.0,0,0,0,0,62767.0,32767.0,9513.0,-32767.0
4.28,1.1954339742660522,0.21607568860054016,0.11489925533533096,0.0,0.0,0.0,-162.63685607910156,-9.979530334472656,-177.93910217285156,0.0,-1.0,0.107469841837883,7000.0,53939.0,21171.0,65535.0,0,0,0,0,62767.0,32767.0,-19855.0,-32767.0
4.3,1.0402474403381348,0.4785023629665375,0.13424241542816162,0.0,0.0,0.0,-168.80589294433594,-8.309420585632324,-177.642822265625,0.0,-1.0,0.13027481734752655,0.0,0.0,0.0,0.0,0,0,0,0,0.0,0.0,0.0,0.0
4.32,0.9162085056304932,0.6143527030944824,0.1346561461687088,0.0,0.0,0.0,-173.76979064941406,-7.284367084503174,-177.3253173828125,0.0,-1.0,0.13197658956050873,0.0,0.0,0.0,0.0,0,0,0,0,0.0,0.0,0.0,0.0
4.34,0.920475959777832,0.6486100554466248,0.12937037646770477,0.0,0.0,0.0,-173.6634979248047,-7.673381805419922,-177.36570739746094,0.0,-1.0,0.12685739994049072,0.0,0.0,0.0,0.0,0,0,0,0,0.0,0.0,0.0,0.0
4.36,0.8403693437576294,0.7531289458274841,0.13939176499843597,0.0,0.0,0.0,-175.8583526611328,-7.246438503265381,-177.0443878173828,0.0,-1.0,0.13851743936538696,0.0,0.0,0.0,0.0,0,0,0,0,0.0,0.0,0.0,0.0
4.38,0.7703092098236084,0.8389899134635925,0.14895562827587128,0.0,0.0,0.0,-177.95875549316406,-6.972195148468018,-176.71595764160156,0.0,-1.0,0.14925341308116913,0.0,0.0,0.0,0.0,0,0,0,0,0.0,0.0,0.0,0.0
4.4,0.7867482304573059,0.8630063533782959,0.14829511940479279,0.0,0.0,0.0,-177.4718017578125,-7.473398685455322,-176.80223083496094,0.0,-1.0,0.1485210359096527,0.0,0.0,0.0,0.0,0,0,0,0,0.0,0.0,0.0,0.0
4.42,0.7470651865005493,0.9306972026824951,0.16194714605808258,0.0,0.0,0.0,-178.4630126953125,-7.413486003875732,-176.5959014892578,0.0,-1.0,0.1632944941520691,0.0,0.0,0.0,0.0,0,0,0,0,0.0,0.0,0.0,0.0
4.44,0.7181832194328308,0.984491765499115,0.1723511666059494,0.0,0.0,0.0,-179.4264373779297,-7.4489970207214355,-176.4334716796875,0.0,-1.0,0.1743701994419098,0.0,0.0,0.0,0.0,0,0,0,0,0.0,0.0,0.0,0.0
4.46,0.704623281955719,1.0249011516571045,0.17956623435020447,0.0,0.0,0.0,-179.9925994873047,-7.621850490570068,-176.3494110107422,0.0,-1.0,0.18188366293907166,0.0,0.0,0.0,0.0,0,0,0,0,0.0,0.0,0.0,0.0
4.48,0.6855183243751526,1.0689222812652588,0.1893375664949417,0.0,0.0,0.0,179.24549865722656,-7.692216873168945,-176.23287963867188,0.0,-1.0,0.19208236038684845,0.0,0.0,0.0,0.0,0,0,0,0,0.0,0.0,0.0,0.0
4.5,0.6702796220779419,1.1064627170562744,0.197899729013443,0.0,0.0,0.0,178.5225830078125,-7.843414783477783,-176.13848876953125,0.0,-1.0,0.20093342661857605,0.0,0.0,0.0,0.0,0,0,0,0,0.0,0.0,0.0,0.0
4.52,0.6597975492477417,1.139723777770996,0.20553839206695557,0.0,0.0,0.0,178.01121520996094,-7.995846748352051,-176.0777587890625,0.0,-1.0,0.208746537566185,0.0,0.0,0.0,0.0,0,0,0,0,0.0,0.0,0.0,0.0
4.54,0.6521527171134949,1.1712621450424194,0.21326030790805817,0.0,0.0,0.0,177.71424865722656,-8.142807960510254,-176.03878784179688,0.0,-1.0,0.21659240126609802,0.0,0.0,0.0,0.0,0,0,0,0,0.0,0.0,0.0,0.0
4.56,0.6673367619514465,1.193092942237854,0.21687914431095123,0.0,0.0,0.0,178.61099243164062,-8.570267677307129,-176.16087341308594,0.0,-1.0,0.21994392573833466,0.0,0.0,0.0,0.0,0,0,0,0,0.0,0.0,0.0,0.0
4.58,0.6699156165122986,1.2169474363327026,0.21958045661449432,0.0,0.0,0.0,178.77505493164062,-8.882966041564941,-176.19349670410156,0.0,-1.0,0.22247126698493958,0.0,0.0,0.0,0.0,0,0,0,0,0.0,0.0,0.0,0.0
4.6,0.6670480966567993,1.24588143825531,0.22537019848823547,0.0,0.0,0.0,178.7808074951172,-9.114130020141602,-176.19615173339844,0.0,-1.0,0.2282755970954895,0.0,0.0,0.0,0.0,0,0,0,0,0.0,0.0,0.0,0.0
4.62,0.6466033458709717,1.2961859703063965,0.25373321771621704,0.0,0.0,0.0,178.02073669433594,-9.140308380126953,-176.08731079101562,0.0,-1.0,0.2577308714389801,0.0,0.0,0.0,0.0,0,0,0,0,0.0,0.0,0.0,0.0
4.64,0.6394461393356323,1.3243447542190552,0.26240819692611694,0.0,0.0,0.0,177.83236694335938,-9.318531036376953,-176.06883239746094,0.0,-1.0,0.2664746046066284,0.0,0.0,0.0,0.0,0,0,0,0,0.0,0.0,0.0,0.0
4.66,0.6354925632476807,1.3542792797088623,0.271981418132782,0.0,0.0,0.0,178.042724609375,-9.509892463684082,-176.0924835205078,0.0,-1.0,0.2760714888572693,0.0,0.0,0.0,0.0,0,0,0,0,0.0,0.0,0.0,0.0
4.68,0.639062225818634,1.38240647315979,0.27791279554367065,0.0,0.0,0.0,178.7738494873047,-9.883543968200684,-176.16372680664062,0.0,-1.0,0.2817554771900177,0.0,0.0,0.0,0.0,0,0,0,0,0.0,0.0,0.0,0.0
4.7,0.6376953721046448,1.410309910774231,0.2810245454311371,0.0,0.0,0.0,179.22854614257812,-10.163629531860352,-176.2054901123047,0.0,-1.0,0.284579336643219,0.0,0.0,0.0,0.0,0,0,0,0,0.0,0.0,0.0,0.0
4.72,0.6371917724609375,1.432995080947876,0.2745364308357239,0.0,0.0,0.0,179.77540588378906,-10.473270416259766,-176.24925231933594,0.0,-1.0,0.27745896577835083,0.0,0.0,0.0,0.0,0,0,0,0,0.0,0.0,0.0,0.0
4.74,0.6322841644287109,1.4523780345916748,0.2635815441608429,0.0,0.0,0.0,179.982177734375,-10.707243919372559,-176.2547607421875,0.0,-1.0,0.26587235927581787,0.0,0.0,0.0,0.0,0,0,0,0,0.0,0.0,0.0,0.0
4.76,0.6244757771492004,1.4680238962173462,0.2456716150045395,0.0,0.0,0.0,-179.9031219482422,-10.845003128051758,-176.25160217285156,0.0,-1.0,0.24717019498348236,0.0,0.0,0.0,0.0,0,0,0,0,0.0,0.0,0.0,0.0
4.78,0.6150938868522644,1.4827451705932617,0.2281593531370163,0.0,0.0,0.0,-179.99838256835938,-10.967154502868652,-176.22840881347656,0.0,-1.0,0.22901898622512817,0.0,0.0,0.0,0.0,0,0,0,0,0.0,0.0,0.0,0.0
4.8,0.6066519618034363,1.5345605611801147,0.24974122643470764,0.0,0.0,0.0,-179.62049865722656,-11.146342277526855,-176.27268981933594,0.0,-1.0,0.2511082887649536,0.0,0.0,0.0,0.0,0,0,0,0,0.0,0.0,0.0,0.0
4.82,0.5961409211158752,1.5832453966140747,0.26698973774909973,0.0,0.0,0.0,-179.32054138183594,-11.262472152709961,-176.30374145507812,0.0,-1.0,0.26870715618133545,0.0,0.0,0.0,0.0,0,0,0,0,0.0,0.0,0.0,0.0
4.84,0.585985541343689,1.6124199628829956,0.26138579845428467,0.0,0.0,0.0,-179.18484497070312,-11.39736557006836,-176.29417419433594,0.0,-1.0,0.26277098059654236,0.0,0.0,0.0,0.0,0,0,0,0,0.0,0.0,0.0,0.0
4.86,0.5746021866798401,1.6392678022384644,0.25008025765419006,0.0,0.0,0.0,-179.02865600585938,-11.460474967956543,-176.28114318847656,0.0,-1.0,0.2509707510471344,0.0,0.0,0.0,0.0,0,0,0,0,0.0,0.0,0.0,0.0
4.88,0.5628390312194824,1.6616299152374268,0.23503945767879486,0.0,0.0,0.0,-179.0052032470703,-11.509568214416504,-176.2550048828125,0.0,-1.0,0.23540642857551575,0.0,0.0,0.0,0.0,0,0,0,0,0.0,0.0,0.0,0.0
4.9,0.55050128698349,1.7010310888290405,0.23587025701999664,0.0,0.0,0.0,-178.78515625,-11.547422409057617,-176.26817321777344,0.0,-1.0,0.23615455627441406,0.0,0.0,0.0,0.0,0,0,0,0,0.0,0.0,0.0,0.0
4.92,0.5379106998443604,1.731690526008606,0.2270529419183731,0.0,0.0,0.0,-178.6803436279297,-11.538363456726074,-176.25828552246094,0.0,-1.0,0.22701801359653473,0.0,0.0,0.0,0.0,0,0,0,0,0.0,0.0,0.0,0.0
4.94,0.5250441431999207,1.762520670890808,0.21753700077533722,0.0,0.0,0.0,-178.5766143798828,-11.490620613098145,-176.24810791015625,0.0,-1.0,0.21718403697013855,0.0,0.0,0.0,0.0,0,0,0,0,0.0,0.0,0.0,0.0
4.96,0.5123978853225708,1.7938487529754639,0.20865270495414734,0.0,0.0,0.0,-178.49722290039062,-11.438518524169922,-176.23483276367188,0.0,-1.0,0.2080286145210266,0.0,0.0,0.0,0.0,0,0,0,0,0.0,0.0,0.0,0.0
4.98,0.49790245294570923,1.9070603847503662,0.26663294434547424,0.0,0.0,0.0,-177.33963012695312,-11.693263053894043,-176.4129638671875,0.0,-1.0,0.2672725319862366,0.0,0.0,0.0,0.0,0,0,0,0,0.0,0.0,0.0,0.0
5.0,0.48569899797439575,1.9525907039642334,0.26731348037719727,0.0,0.0,0.0,-177.128662109375,-11.825632095336914,-176.40969848632812,0.0,-1.0,0.26780086755752563,0.0,0.0,0.0,0.0,0,0,0,0,0.0,0.0,0.0,0.0
5.02,0.4724930226802826,2.0017964839935303,0.26776769757270813,0.0,0.0,0.0,-176.85305786132812,-11.90256404876709,-176.41175842285156,0.0,-1.0,0.2680642604827881,0.0,0.0,0.0,0.0,0,0,0,0,0.0,0.0,0.0,0.0
5.04,0.4586237370967865,2.042926073074341,0.2740938663482666,0.0,0.0,0.0,-176.89988708496094,-12.00390625,-176.42678833007812,0.0,-1.0,0.2746291756629944,0.0,0.0,0.0,0.0,0,0,0,0,0.0,0.0,0.0,0.0
5.06,0.44369110465049744,2.079545021057129,0.28176039457321167,0.0,0.0,0.0,-177.0511474609375,-12.027020454406738,-176.44668579101562,0.0,-1.0,0.28264477849006653,0.0,0.0,0.0,0.0,0,0,0,0,0.0,0.0,0.0,0.0
