time,x_kalman,y_kalman,z_kalman,x_lh,y_lh,z_lh,roll,pitch,yaw,F,R,Z,motor.m1,motor.m2,motor.m3,motor.m4,rpm.m1,rpm.m2,rpm.m3,rpm.m4,controller.cmd_thrust,controller.cmd_roll,controller.cmd_pitch,controller.cmd_yaw
0.0,0.0002832996833603829,-0.0010058231418952346,0.012971860356628895,0.0,0.0,0.0,-1.7597085237503052,-0.3452869653701782,0.015057431533932686,-0.000347957102349028,2.8649678230285645,0.012973538599908352,53776.0,54146.0,55098.0,54496.0,0,0,0,0,54691.9765625,1430.0,-388.0,70.0
0.02,-0.00015774408529978245,-0.0002509206533432007,0.012648586183786392,0.0,0.0,0.0,-1.788554310798645,-0.3356887996196747,0.01929743029177189,-0.0003463983885012567,2.864603281021118,0.012657073326408863,53564.0,51650.0,56346.0,58020.0,0,0,0,0,55226.93359375,1126.0,885.0,-37.0
0.04,-0.00017044808191712946,-0.0002914824872277677,0.012371323071420193,0.0,0.0,0.0,-1.7762739658355713,-0.33072084188461304,0.018194882199168205,-0.00033636434818618,2.86844539642334,0.012419547885656357,55229.0,59663.0,54695.0,52141.0,0,0,0,0,55441.4375,-4339.0,-1461.0,-413.0
0.06,-5.0189239118481055e-05,-0.0014467122964560986,0.013502531684935093,0.0,0.0,0.0,-1.554993987083435,-0.36549320816993713,-0.03660689294338226,-0.0003406261093914509,2.8689253330230713,0.013494811952114105,58907.0,61961.0,50937.0,49839.0,0,0,0,0,54864.3359375,-5731.0,-3433.0,-483.0
0.08,-0.0005225054919719696,-0.0014095122460275888,0.014653935097157955,0.0,0.0,0.0,-0.8971700668334961,-0.06194191426038742,-0.09956847876310349,-0.00031473609851673245,2.8689780235290527,0.01469647791236639,55575.0,55137.0,51791.0,53377.0,0,0,0,0,52908.19140625,-2604.0,2404.0,-347.0
0.1,-0.0009531753603368998,-0.004169165156781673,0.017170317471027374,0.0,0.0,0.0,-0.11688345670700073,0.14133065938949585,-0.14615368843078613,-0.0003129758406430483,2.8704612255096436,0.016976673156023026,47480.0,54312.0,54940.0,49668.0,0,0,0,0,50730.328125,2471.0,-5096.0,-386.0
0.12,-0.002145044505596161,-0.012737086042761803,0.01838197186589241,0.0,0.0,0.0,0.3167426288127899,0.33369332551956177,-0.19282853603363037,-0.00030343825346790254,2.868724822998047,0.018464570865035057,44546.0,55696.0,52346.0,43792.0,0,0,0,0,47338.00390625,138.0,-6487.0,-683.0
0.14,-0.0037847619969397783,-0.008666260167956352,0.02635393664240837,0.0,0.0,0.0,-0.1428719311952591,0.8740114569664001,-0.2575976848602295,-0.00019423999765422195,2.8690075874328613,0.02669641561806202,46787.0,44777.0,42515.0,48021.0,0,0,0,0,43797.5,-2785.0,449.0,-933.0
0.16,-0.0043558720499277115,-0.007981718517839909,0.03153372183442116,0.0,0.0,0.0,-0.2525864243507385,1.1275793313980103,-0.2993234395980835,0.028081810101866722,2.925474166870117,0.03647398203611374,40204.0,46428.0,42476.0,39880.0,0,0,0,0,40789.578125,-1689.0,-5614.0,-940.0
0.18,-0.010878629982471466,-0.013658036477863789,0.042143817991018295,0.0,0.0,0.0,-0.045802660286426544,1.3456170558929443,-0.40467098355293274,0.028546374291181564,2.9259660243988037,0.04940933361649513,37362.0,42298.0,39130.0,38598.0,0,0,0,0,38443.578125,-312.0,-4391.0,-1211.0
0.2,-0.01282798033207655,-0.02014334499835968,0.054984256625175476,0.0,0.0,0.0,0.22281934320926666,1.2886781692504883,-0.5180988311767578,0.027656348422169685,2.9250216484069824,0.062252406030893326,33832.0,39686.0,38928.0,37266.0,0,0,0,0,35866.4140625,2556.0,-3402.0,-1415.0
0.22,-0.010671259835362434,-0.012860341928899288,0.07355333864688873,0.0,0.0,0.0,-0.3000943958759308,1.051784873008728,-0.6333386301994324,0.03198525682091713,2.910259246826172,0.08132470399141312,31977.0,36697.0,34659.0,37103.0,0,0,0,0,34623.72265625,857.0,-3789.0,-1628.0
0.24,-0.014477523043751717,-0.01748979277908802,0.08842743933200836,0.0,0.0,0.0,-0.47540515661239624,1.0236341953277588,-0.7942715883255005,0.031816013157367706,2.910085439682007,0.09701502323150635,32803.0,36809.0,31585.0,34903.0,0,0,0,0,33917.75390625,-3177.0,-4036.0,-1685.0
0.26,-0.01956573873758316,-0.021708430722355843,0.1032247543334961,0.0,0.0,0.0,-0.6614865660667419,0.9590213894844055,-0.9712388515472412,0.0306137353181839,2.9088521003723145,0.11133177578449249,31830.0,38120.0,30128.0,31362.0,0,0,0,0,32633.64453125,-3045.0,-2635.0,-1619.0
0.28,-0.019874779507517815,-0.02443995699286461,0.12354684621095657,0.0,0.0,0.0,-0.7117695212364197,0.6025881171226501,-1.1418484449386597,0.02803337760269642,2.9188523292541504,0.1288270205259323,32194.0,36798.0,30466.0,32730.0,0,0,0,0,33056.234375,-1432.0,-288.0,-1609.0
0.3,-0.02071191929280758,-0.026508716866374016,0.1364031285047531,0.0,0.0,0.0,-0.6654424071311951,0.25067049264907837,-1.2758904695510864,0.028453383594751358,2.919295072555542,0.14493189752101898,32416.0,34480.0,30032.0,34928.0,0,0,0,0,31369.7734375,-371.0,310.0,-1694.0
0.32,-0.018185434862971306,-0.029306894168257713,0.16216057538986206,0.0,0.0,0.0,-0.6814898252487183,-0.37032023072242737,-1.4076653718948364,0.029816260561347008,2.9249536991119385,0.16999320685863495,28613.0,33799.0,30897.0,32563.0,0,0,0,0,31630.423828125,-1307.0,-256.0,-1612.0
0.34,-0.018858589231967926,-0.03226783499121666,0.17405755817890167,0.0,0.0,0.0,-0.8327587842941284,-0.8761849403381348,-1.5152356624603271,0.027710646390914917,2.9288341999053955,0.18137101829051971,29715.0,35201.0,31783.0,32769.0,0,0,0,0,32052.220703125,2459.0,-114.0,-1508.0
0.36,-0.02003142423927784,-0.033689338713884354,0.19168436527252197,0.0,0.0,0.0,-1.1753883361816406,-1.2562658786773682,-1.5933821201324463,0.02852160856127739,2.9307501316070557,0.19874665141105652,29863.0,34545.0,31643.0,33129.0,0,0,0,0,32569.84375,602.0,-1616.0,-1471.0
0.38,-0.020485637709498405,-0.036435067653656006,0.20540453493595123,0.0,0.0,0.0,-1.5292905569076538,-1.5593067407608032,-1.655179500579834,0.028457222506403923,2.9306893348693848,0.2119838446378708,30511.0,35427.0,32185.0,33237.0,0,0,0,0,33139.50390625,-758.0,-2173.0,-1493.0
0.4,-0.02121102809906006,-0.03725592792034149,0.2183402180671692,0.0,0.0,0.0,-1.9186749458312988,-1.6879656314849854,-1.6971341371536255,0.028046879917383194,2.9311611652374268,0.22356511652469635,31474.0,35846.0,32586.0,34434.0,0,0,0,0,35126.85546875,777.0,-860.0,-1472.0
0.42,-0.020183894783258438,-0.036726079881191254,0.22167295217514038,0.0,0.0,0.0,-2.2841763496398926,-1.7662404775619507,-1.7330785989761353,0.0260536577552557,2.9270875453948975,0.22701208293437958,33395.0,38089.0,34357.0,36139.0,0,0,0,0,35858.66796875,-37.0,-556.0,-1521.0
0.44,-0.021097948774695396,-0.0361030250787735,0.2320106327533722,0.0,0.0,0.0,-2.575443983078003,-1.7845896482467651,-1.7601069211959839,0.02604161947965622,2.9270753860473633,0.2368651181459427,35239.0,39079.0,34111.0,36347.0,0,0,0,0,36501.57421875,-1332.0,-1958.0,-1533.0
0.46,-0.022232666611671448,-0.036842867732048035,0.24148069322109222,0.0,0.0,0.0,-2.744658946990967,-1.8250945806503296,-1.784645676612854,0.025998126715421677,2.927031993865967,0.24587199091911316,36862.0,40696.0,35342.0,37272.0,0,0,0,0,37837.609375,-2281.0,-21.0,-1480.0
0.48,-0.02055264823138714,-0.039912961423397064,0.24436070024967194,0.0,0.0,0.0,-2.698601007461548,-1.9226230382919312,-1.800470232963562,0.02372695691883564,2.9285035133361816,0.24820655584335327,37032.0,41192.0,36476.0,38128.0,0,0,0,0,38441.32421875,-2549.0,-717.0,-1457.0
0.5,-0.020137649029493332,-0.04012639820575714,0.25189492106437683,0.0,0.0,0.0,-2.659203052520752,-1.9480094909667969,-1.8089346885681152,0.02368970774114132,2.928466320037842,0.2554608881473541,36969.0,41211.0,37365.0,38995.0,0,0,0,0,38792.40234375,682.0,-1804.0,-1474.0
0.52,-0.01979530043900013,-0.04046668857336044,0.2589176893234253,0.0,0.0,0.0,-2.5981600284576416,-1.9071998596191406,-1.8055613040924072,0.023651324212551117,2.9284279346466064,0.2622511386871338,36641.0,41859.0,38213.0,39031.0,0,0,0,0,38448.37890625,-458.0,-1021.0,-1462.0
0.54,-0.019129574298858643,-0.03991495817899704,0.2693553566932678,0.0,0.0,0.0,-2.620496988296509,-1.7847336530685425,-1.8057622909545898,0.02448887936770916,2.926166534423828,0.27012261748313904,36889.0,42003.0,37873.0,38799.0,0,0,0,0,38911.87890625,-1260.0,-2908.0,-1541.0
0.56,-0.019941076636314392,-0.03991091996431351,0.2733941078186035,0.0,0.0,0.0,-2.642284393310547,-1.5986560583114624,-1.8013324737548828,0.024469692260026932,2.9261474609375,0.2764691114425659,37212.0,41534.0,37666.0,39340.0,0,0,0,0,38955.546875,-1181.0,-1943.0,-1522.0
0.58,-0.020770318806171417,-0.036788757890462875,0.2795879542827606,0.0,0.0,0.0,-2.673858165740967,-1.4224199056625366,-1.810874104499817,0.024457400664687157,2.9261350631713867,0.28264912962913513,36974.0,41472.0,37918.0,39376.0,0,0,0,0,38067.0703125,-944.0,346.0,-1490.0
0.6,-0.01962355338037014,-0.036327116191387177,0.2909790575504303,0.0,0.0,0.0,-2.5411312580108643,-1.2877141237258911,-1.8139986991882324,0.025932766497135162,2.9241302013397217,0.29405492544174194,36006.0,42080.0,36852.0,37218.0,0,0,0,0,37983.58203125,-1355.0,-2255.0,-1643.0
0.62,-0.017899220809340477,-0.03544516861438751,0.2972850501537323,0.0,0.0,0.0,-2.3970587253570557,-1.185782790184021,-1.8139455318450928,0.02592720091342926,2.9241244792938232,0.30049026012420654,36008.0,41814.0,36428.0,37450.0,0,0,0,0,37891.8046875,-1244.0,-1513.0,-1696.0
0.64,-0.01672745682299137,-0.035147033631801605,0.3036835193634033,0.0,0.0,0.0,-2.205033302307129,-1.0425028800964355,-1.8273030519485474,0.025865640491247177,2.924062728881836,0.30675145983695984,36439.0,40451.0,36021.0,38649.0,0,0,0,0,36917.3515625,-1833.0,173.0,-1677.0
0.66,-0.01536017656326294,-0.03329869732260704,0.3156995475292206,0.0,0.0,0.0,-2.0071444511413574,-0.9081259965896606,-1.8512626886367798,0.027213241904973984,2.921677350997925,0.3189733326435089,35695.0,40551.0,35473.0,37345.0,0,0,0,0,37259.265625,-1415.0,-2154.0,-1672.0
0.68,-0.013847929425537586,-0.03173007071018219,0.3200588822364807,0.0,0.0,0.0,-1.7990883588790894,-0.8237130045890808,-1.8735719919204712,0.0269855298101902,2.92095947265625,0.3231161832809448,34540.0,40714.0,36792.0,37070.0,0,0,0,0,37316.05859375,-1094.0,-1922.0,-1609.0
0.7,-0.011157368309795856,-0.03044597990810871,0.32623177766799927,0.0,0.0,0.0,-1.5661543607711792,-0.7163143157958984,-1.8879066705703735,0.02693501114845276,2.9209086894989014,0.3291822075843811,35887.0,40765.0,35705.0,37099.0,0,0,0,0,37415.02734375,-1673.0,-2417.0,-1621.0
0.72,-0.009464925155043602,-0.028363043442368507,0.33218565583229065,0.0,0.0,0.0,-1.3401480913162231,-0.519970715045929,-1.8917373418807983,0.02701176516711712,2.9194319248199463,0.33294108510017395,35406.0,40222.0,37052.0,38624.0,0,0,0,0,37881.72265625,-205.0,-848.0,-1612.0
0.74,-0.0067506218329072,-0.026322966441512108,0.3357122540473938,0.0,0.0,0.0,-1.1088591814041138,-0.32497134804725647,-1.891790509223938,0.026988066732883453,2.919408082962036,0.33835792541503906,35819.0,41317.0,36831.0,37849.0,0,0,0,0,38021.796875,-488.0,-2029.0,-1614.0
0.76,-0.005278856493532658,-0.024068869650363922,0.3410027325153351,0.0,0.0,0.0,-0.8987655639648438,-0.09594715386629105,-1.8921281099319458,0.026955129578709602,2.919374942779541,0.3435192108154297,35617.0,41829.0,37361.0,37529.0,0,0,0,0,38151.24609375,-1031.0,-577.0,-1594.0
0.78,-0.0030427444726228714,-0.021777097135782242,0.3460344076156616,0.0,0.0,0.0,-0.6698054075241089,0.11741545796394348,-1.8872249126434326,0.0269167460501194,2.9189274311065674,0.3452030420303345,36593.0,42425.0,37343.0,37979.0,0,0,0,0,38652.01171875,-1037.0,-2183.0,-1563.0
0.8,-0.00034346096799708903,-0.01951499655842781,0.34869876503944397,0.0,0.0,0.0,-0.4400708079338074,0.30798104405403137,-1.880349040031433,0.02710159309208393,2.9179704189300537,0.3509227931499481,37467.0,42861.0,36979.0,37545.0,0,0,0,0,38756.75390625,-898.0,-1869.0,-1294.0
0.82,0.002027366543188691,-0.017004676163196564,0.3553106486797333,0.0,0.0,0.0,-0.053499847650527954,0.5980249047279358,-1.862027883529663,0.02707223780453205,2.917940855026245,0.35525068640708923,35901.0,41185.0,38617.0,39445.0,0,0,0,0,38685.82421875,-1242.0,-2067.0,-1381.0
0.84,0.00419972836971283,-0.014228764921426773,0.3602425754070282,0.0,0.0,0.0,0.1906033754348755,0.7585025429725647,-1.8460806608200073,0.02704375982284546,2.9180121421813965,0.3602130115032196,37284.0,42370.0,37126.0,37996.0,0,0,0,0,38505.60546875,-1361.0,-1225.0,-1288.0
0.86,0.007616731338202953,-0.012625212781131268,0.3654414713382721,0.0,0.0,0.0,0.4296315312385559,0.9052597880363464,-1.8272614479064941,0.02712678536772728,2.917395830154419,0.36540940403938293,36881.0,41863.0,37119.0,38145.0,0,0,0,0,38533.26953125,-2210.0,-2943.0,-1212.0
0.88,0.01024540513753891,-0.009207713417708874,0.36943137645721436,0.0,0.0,0.0,0.6282343864440918,1.076802372932434,-1.8020535707473755,0.027123725041747093,2.917370319366455,0.3694557845592499,36703.0,42335.0,37405.0,37677.0,0,0,0,0,38525.76171875,-335.0,-2284.0,-1295.0
0.9,0.013099783100187778,-0.0075710429809987545,0.3735162615776062,0.0,0.0,0.0,0.847925066947937,1.2954951524734497,-1.780383825302124,0.027109423652291298,2.917356014251709,0.3735460638999939,36231.0,41471.0,37765.0,38589.0,0,0,0,0,38312.0546875,-1570.0,-2162.0,-1468.0
0.92,0.014674614183604717,-0.0056673502549529076,0.378567099571228,0.0,0.0,0.0,1.0054433345794678,1.51070237159729,-1.7704529762268066,0.027170663699507713,2.916856527328491,0.3785741627216339,36816.0,42656.0,37114.0,37590.0,0,0,0,0,38539.8359375,-906.0,-1787.0,-1585.0
0.94,0.016878463327884674,-0.003328964114189148,0.3812254071235657,0.0,0.0,0.0,1.1585533618927002,1.669969081878662,-1.7703155279159546,0.027217326685786247,2.91670560836792,0.3812469244003296,36766.0,41696.0,37154.0,38556.0,0,0,0,0,38542.51953125,-3385.0,-2990.0,-1606.0
0.96,0.01810580864548683,-0.003245177213102579,0.38315674662590027,0.0,0.0,0.0,1.248380422592163,1.7305352687835693,-1.7717841863632202,0.027198869735002518,2.91668701171875,0.3850550949573517,37563.0,42777.0,36297.0,37531.0,0,0,0,0,38532.99609375,-1760.0,-1210.0,-1666.0
0.98,0.02126822993159294,5.876103023183532e-05,0.38689124584198,0.0,0.0,0.0,1.3876826763153076,1.8114328384399414,-1.7735258340835571,0.02729993313550949,2.9158122539520264,0.39022865891456604,36510.0,41582.0,36862.0,38006.0,0,0,0,0,38240.24609375,-1682.0,-3726.0,-1546.0
1.0,0.022394243627786636,0.0012761193793267012,0.39216741919517517,0.0,0.0,0.0,1.5703598260879517,1.8632339239120483,-1.7767524719238281,0.0272956732660532,2.9158079624176025,0.3940621614456177,35880.0,41968.0,37504.0,37616.0,0,0,0,0,38242.99609375,-1053.0,-2958.0,-1528.0
1.02,0.024128055199980736,0.002680949168279767,0.3959520757198334,0.0,0.0,0.0,1.7355881929397583,1.9842084646224976,-1.7657833099365234,0.027302894741296768,2.9158151149749756,0.3978113532066345,35780.0,41664.0,37888.0,37672.0,0,0,0,0,38251.4375,-347.0,-1645.0,-1408.0
1.04,0.026189832016825676,0.004167577251791954,0.39963582158088684,0.0,0.0,0.0,1.8573603630065918,2.1682517528533936,-1.753818392753601,0.02732488512992859,2.9157285690307617,0.400116503238678,35769.0,40541.0,37819.0,38707.0,0,0,0,0,38209.83203125,-1210.0,-1431.0,-1390.0
1.06,0.027506757527589798,0.005387603305280209,0.4035002291202545,0.0,0.0,0.0,1.929243564605713,2.3371524810791016,-1.7249175310134888,0.027492836117744446,2.914796829223633,0.40526503324508667,37865.0,40949.0,35795.0,38391.0,0,0,0,0,38250.2578125,-2376.0,-3963.0,-1422.0
1.08,0.029197797179222107,0.00726683484390378,0.40699753165245056,0.0,0.0,0.0,1.943953037261963,2.4132301807403564,-1.6934409141540527,0.027490446344017982,2.914794683456421,0.40870583057403564,36894.0,42560.0,37038.0,36760.0,0,0,0,0,38313.9765625,-1584.0,-1723.0,-1429.0
1.1,0.030447756871581078,0.007090523838996887,0.411512553691864,0.0,0.0,0.0,2.0216877460479736,2.427969217300415,-1.6638946533203125,0.027797138318419456,2.9137299060821533,0.40719282627105713,38362.0,41846.0,37328.0,39636.0,0,0,0,0,39293.36328125,-1620.0,-1379.0,-1371.0
1.12,0.03155609220266342,0.008061285130679607,0.40852972865104675,0.0,0.0,0.0,2.1017675399780273,2.3982293605804443,-1.6339713335037231,0.027797138318419456,2.9137299060821533,0.4098247289657593,37618.0,42978.0,38494.0,38722.0,0,0,0,0,39453.68359375,-237.0,-860.0,-1369.0
1.14,0.032571159303188324,0.009287556633353233,0.41107696294784546,0.0,0.0,0.0,2.141706943511963,2.3327574729919434,-1.6022588014602661,0.027792613953351974,2.9137253761291504,0.4123031198978424,37308.0,43834.0,39288.0,37810.0,0,0,0,0,39560.3984375,-1162.0,-3715.0,-1308.0
1.16,0.03289331868290901,0.009955449029803276,0.41086819767951965,0.0,0.0,0.0,2.068425178527832,2.308476209640503,-1.5663366317749023,0.028096718713641167,2.9123191833496094,0.41444724798202515,36553.0,43249.0,39947.0,38435.0,0,0,0,0,39546.171875,-1071.0,-4435.0,-1254.0
1.18,0.03429257124662399,0.01100591104477644,0.4156638979911804,0.0,0.0,0.0,1.9902762174606323,2.3653106689453125,-1.5274122953414917,0.02809353731572628,2.912315845489502,0.4169008433818817,37522.0,43096.0,38610.0,38400.0,0,0,0,0,39407.3828125,-1826.0,-2422.0,-1374.0
1.2,0.03400251641869545,0.010798457078635693,0.4181622266769409,0.0,0.0,0.0,1.924831748008728,2.5026252269744873,-1.4923814535140991,0.028094612061977386,2.9123170375823975,0.41945260763168335,37694.0,44162.0,38330.0,37586.0,0,0,0,0,39443.4140625,-2173.0,-2720.0,-1384.0
1.22,0.0346967987716198,0.010549738071858883,0.41944146156311035,0.0,0.0,0.0,1.8502779006958008,2.5417659282684326,-1.4759933948516846,0.02812613546848297,2.9122259616851807,0.42072901129722595,37819.0,44475.0,38195.0,36635.0,0,0,0,0,39281.296875,-3611.0,-3625.0,-1238.0
1.24,0.03436989337205887,0.010651299729943275,0.42177265882492065,0.0,0.0,0.0,1.8075426816940308,2.5043275356292725,-1.4529502391815186,0.028104988858103752,2.9123384952545166,0.4231053590774536,38374.0,42238.0,37276.0,38420.0,0,0,0,0,39077.75,-3491.0,-2701.0,-1152.0
1.26,0.03456534072756767,0.008577076718211174,0.42396190762519836,0.0,0.0,0.0,1.890087366104126,2.4765655994415283,-1.4160939455032349,0.028116878122091293,2.912299394607544,0.4253053665161133,39112.0,42496.0,36484.0,38020.0,0,0,0,0,39028.69140625,-1192.0,-1118.0,-1216.0
1.28,0.03390863165259361,0.008340626023709774,0.4266570508480072,0.0,0.0,0.0,1.9039908647537231,2.3856539726257324,-1.365532398223877,0.028116818517446518,2.912299394607544,0.4280092418193817,36785.0,41495.0,38685.0,38827.0,0,0,0,0,38948.86328125,-2127.0,-437.0,-1259.0
1.3,0.03331070393323898,0.0074510821141302586,0.4299754500389099,0.0,0.0,0.0,1.8232232332229614,2.2311370372772217,-1.3297981023788452,0.028158893808722496,2.9120988845825195,0.4313679039478302,38189.0,40637.0,37325.0,39985.0,0,0,0,0,39034.94921875,-625.0,-1146.0,-1307.0
1.32,0.03282022476196289,0.007894693873822689,0.4311671257019043,0.0,0.0,0.0,1.6321319341659546,2.0513038635253906,-1.3020155429840088,0.028187619522213936,2.9119603633880615,0.4324572682380676,38374.0,41966.0,37414.0,38210.0,0,0,0,0,38991.09375,-1300.0,-2779.0,-1142.0
1.34,0.030213691294193268,0.008201729506254196,0.4337645173072815,0.0,0.0,0.0,1.3751554489135742,1.8456367254257202,-1.2757247686386108,0.028194919228553772,2.9119677543640137,0.4350588917732239,36238.0,42220.0,39054.0,38308.0,0,0,0,0,38955.50390625,-2879.0,-4083.0,-1144.0
1.36,0.02988189272582531,0.004426564089953899,0.4386657178401947,0.0,0.0,0.0,1.1619083881378174,1.5961560010910034,-1.2391560077667236,0.0283320602029562,2.9113078117370605,0.44008392095565796,36538.0,42462.0,38828.0,36988.0,0,0,0,0,38704.3359375,-1989.0,-1935.0,-996.0
1.38,0.029869461432099342,0.0038802139461040497,0.44001656770706177,0.0,0.0,0.0,0.9787845015525818,1.4175058603286743,-1.2040040493011475,0.02836032584309578,2.911182403564453,0.4413560926914215,37080.0,42948.0,38296.0,36132.0,0,0,0,0,38614.01171875,-2497.0,-3875.0,-921.0
1.4,0.027831124141812325,0.0008454087073914707,0.4426945447921753,0.0,0.0,0.0,0.8123981952667236,1.3256691694259644,-1.155442714691162,0.028357714414596558,2.911179780960083,0.4440368413925171,38066.0,41330.0,37018.0,37746.0,0,0,0,0,38540.0,-1983.0,-4088.0,-1011.0
1.42,0.025493832305073738,-0.0006141464691609144,0.4453788697719574,0.0,0.0,0.0,0.6144842505455017,1.2546178102493286,-1.0932554006576538,0.02846708334982395,2.910649061203003,0.44903823733329773,37280.0,41146.0,37162.0,37364.0,0,0,0,0,38238.875,-2802.0,-2607.0,-921.0
1.44,0.02478698641061783,-0.002426773775368929,0.44909682869911194,0.0,0.0,0.0,0.3862779140472412,1.1146600246429443,-1.0487034320831299,0.028495218604803085,2.9105260372161865,0.4505147933959961,36120.0,41180.0,38588.0,36560.0,0,0,0,0,38112.66796875,-2479.0,-3109.0,-757.0
1.46,0.022695297375321388,-0.0035620525013655424,0.4519389569759369,0.0,0.0,0.0,0.16032545268535614,0.9033145308494568,-0.9931114912033081,0.02849237062036991,2.910522937774658,0.4533546268939972,37263.0,41307.0,37103.0,36439.0,0,0,0,0,38028.46484375,-1628.0,-2466.0,-770.0
1.48,0.02215755172073841,-0.006432522553950548,0.4547756314277649,0.0,0.0,0.0,-0.05123771354556084,0.7126026749610901,-0.9284868836402893,0.028511472046375275,2.910425901412964,0.4542119801044464,36096.0,41344.0,37600.0,35608.0,0,0,0,0,37662.4921875,-2313.0,-2216.0,-846.0
1.5,0.020021572709083557,-0.007436949759721756,0.4593280553817749,0.0,0.0,0.0,-0.2753659784793854,0.5164848566055298,-0.8635720610618591,0.028816286474466324,2.9090189933776855,0.46078580617904663,36029.0,41401.0,37187.0,35987.0,0,0,0,0,37651.6015625,-1406.0,-1387.0,-1011.0
1.52,0.018016068264842033,-0.010637186467647552,0.46222183108329773,0.0,0.0,0.0,-0.44775354862213135,0.31314969062805176,-0.8247330784797668,0.028813496232032776,2.9090161323547363,0.4636203646659851,36569.0,42613.0,36583.0,35047.0,0,0,0,0,37703.48828125,-2365.0,-2486.0,-1153.0
1.54,0.016692252829670906,-0.011050825007259846,0.4650684595108032,0.0,0.0,0.0,-0.6538196206092834,0.022657575085759163,-0.8156252503395081,0.028816470876336098,2.909024238586426,0.4664008915424347,36336.0,41990.0,36724.0,36070.0,0,0,0,0,37780.87890625,-3723.0,-3339.0,-1330.0
1.56,0.015809478238224983,-0.011945364065468311,0.47080814838409424,0.0,0.0,0.0,-0.779690682888031,-0.25510168075561523,-0.8308312892913818,0.02902120351791382,2.908090591430664,0.4722397029399872,36903.0,39221.0,34829.0,38175.0,0,0,0,0,37282.5859375,-1724.0,-1920.0,-1434.0
1.58,0.013623403385281563,-0.01415405236184597,0.4708629548549652,0.0,0.0,0.0,-0.8648303151130676,-0.4757259488105774,-0.8686382174491882,0.02905828319489956,2.907902240753174,0.4720463156700134,36201.0,41371.0,36301.0,37947.0,0,0,0,0,37955.35546875,224.0,-1280.0,-1596.0
1.6,0.011673657223582268,-0.016383666545152664,0.4742644429206848,0.0,0.0,0.0,-1.0647233724594116,-0.8191035985946655,-0.9659007787704468,0.02905638888478279,2.907900333404541,0.4742588698863983,35070.0,41386.0,37726.0,38426.0,0,0,0,0,38152.265625,2138.0,-2748.0,-1803.0
1.62,0.00829209852963686,-0.016015702858567238,0.4780813455581665,0.0,0.0,0.0,-1.3482013940811157,-0.9767210483551025,-1.0435035228729248,0.029151899740099907,2.9074699878692627,0.47807884216308594,32694.0,40898.0,39038.0,39170.0,0,0,0,0,37950.4375,1310.0,-4936.0,-2123.0
1.64,0.005795517470687628,-0.016695577651262283,0.47893381118774414,0.0,0.0,0.0,-1.7314950227737427,-1.0087803602218628,-1.159207820892334,0.029165979474782944,2.907391309738159,0.47893092036247253,33227.0,42355.0,38547.0,38927.0,0,0,0,0,38264.31640625,-505.0,-4353.0,-2328.0
1.66,0.0035109822638332844,-0.02028600685298443,0.48079150915145874,0.0,0.0,0.0,-2.0921428203582764,-0.9693384766578674,-1.304835319519043,0.02916683442890644,2.9073920249938965,0.4807927906513214,35462.0,43124.0,36318.0,38196.0,0,0,0,0,38275.359375,-525.0,-2274.0,-2428.0
1.68,0.0034852037206292152,-0.020265908911824226,0.4818589985370636,0.0,0.0,0.0,-2.3108367919921875,-0.9744020104408264,-1.4506502151489258,0.029134541749954224,2.9075517654418945,0.4818606376647949,35050.0,42588.0,37994.0,40076.0,0,0,0,0,38927.515625,-2590.0,-4480.0,-2382.0
1.7,0.0023053246550261974,-0.021158533170819283,0.48072025179862976,0.0,0.0,0.0,-2.426652669906616,-1.0608878135681152,-1.591209053993225,0.029171405360102654,2.907369375228882,0.48071983456611633,35301.0,42327.0,37885.0,40211.0,0,0,0,0,38931.2578125,415.0,-2651.0,-2350.0
1.72,0.001945939613506198,-0.021794909611344337,0.48211073875427246,0.0,0.0,0.0,-2.4584383964538574,-1.1374355554580688,-1.702030062675476,0.02917148359119892,2.907369375228882,0.4821092188358307,35655.0,43219.0,37349.0,39277.0,0,0,0,0,38875.56640625,-2119.0,-5380.0,-2433.0
1.74,0.0009440087014809251,-0.02228851057589054,0.4824514091014862,0.0,0.0,0.0,-2.473247766494751,-1.1548237800598145,-1.7515466213226318,0.029166022315621376,2.907397747039795,0.48315635323524475,34747.0,42997.0,37767.0,39845.0,0,0,0,0,38839.65625,440.0,-3703.0,-2586.0
1.76,-0.0008337338804267347,-0.022544117644429207,0.4838772416114807,0.0,0.0,0.0,-2.4565625190734863,-1.154099941253662,-1.8471624851226807,0.029165707528591156,2.9073972702026367,0.4846137464046478,34402.0,42446.0,37686.0,40378.0,0,0,0,0,38728.265625,-318.0,-3023.0,-2686.0
1.78,-0.0029569531325250864,-0.022511275485157967,0.4853639304637909,0.0,0.0,0.0,-2.4392483234405518,-1.1310011148452759,-1.9576934576034546,0.029150910675525665,2.9074668884277344,0.4877014458179474,33129.0,43241.0,37925.0,39109.0,0,0,0,0,38351.359375,-458.0,-1648.0,-2804.0
1.8,-0.004410664085298777,-0.022307565435767174,0.48855236172676086,0.0,0.0,0.0,-2.44535231590271,-1.1492458581924438,-2.0740480422973633,0.02914506010711193,2.9074950218200684,0.4893052279949188,34689.0,43651.0,36167.0,38685.0,0,0,0,0,38298.234375,-2754.0,-1558.0,-2831.0
1.82,-0.006802159361541271,-0.02221342734992504,0.4901609420776367,0.0,0.0,0.0,-2.420409679412842,-1.1674705743789673,-2.193676710128784,0.029146282002329826,2.907496213912964,0.4910302758216858,34623.0,42819.0,35791.0,38679.0,0,0,0,0,37978.37890625,-1656.0,-3048.0,-2750.0
1.84,-0.0077232904732227325,-0.020716659724712372,0.4930601418018341,0.0,0.0,0.0,-2.2830169200897217,-1.2705986499786377,-2.2968549728393555,0.029130615293979645,2.907555341720581,0.493996798992157,33857.0,42189.0,36419.0,39175.0,0,0,0,0,37910.0390625,248.0,-1760.0,-2786.0
1.86,-0.008579006418585777,-0.021151086315512657,0.49493253231048584,0.0,0.0,0.0,-2.0661981105804443,-1.3809796571731567,-2.3793325424194336,0.02919980138540268,2.9072329998016357,0.4972652196884155,33802.0,42300.0,35822.0,38520.0,0,0,0,0,37611.1015625,12.0,-2427.0,-2812.0
1.88,-0.010448451153934002,-0.01898404024541378,0.49825572967529297,0.0,0.0,0.0,-1.9493346214294434,-1.5092360973358154,-2.44769024848938,0.029227130115032196,2.907104730606079,0.49695053696632385,33725.0,43857.0,36811.0,37827.0,0,0,0,0,38055.11328125,-979.0,-2275.0,-2743.0
1.9,-0.01138389017432928,-0.017908142879605293,0.497775137424469,0.0,0.0,0.0,-1.853171706199646,-1.6274839639663696,-2.5100595951080322,0.029226167127490044,2.9071037769317627,0.49857527017593384,36098.0,41826.0,34544.0,39984.0,0,0,0,0,38113.6640625,328.0,785.0,-2843.0
1.92,-0.012876098044216633,-0.014994651079177856,0.5017381906509399,0.0,0.0,0.0,-1.703627109527588,-1.7099708318710327,-2.5594122409820557,0.029343854635953903,2.906562089920044,0.502633273601532,34697.0,42537.0,35461.0,38989.0,0,0,0,0,37921.59765625,-558.0,-1979.0,-2861.0
1.94,-0.013735336251556873,-0.014568530954420567,0.5023115277290344,0.0,0.0,0.0,-1.5030723810195923,-1.8210195302963257,-2.6039786338806152,0.029356930404901505,2.906484842300415,0.5030936002731323,35218.0,42836.0,35060.0,38766.0,0,0,0,0,37970.79296875,-1469.0,-2531.0,-2860.0
1.96,-0.015160172246396542,-0.01336981076747179,0.5038674473762512,0.0,0.0,0.0,-1.2945232391357422,-1.9125937223434448,-2.6496798992156982,0.029362959787249565,2.9064910411834717,0.5046244859695435,34825.0,42441.0,35381.0,39349.0,0,0,0,0,37999.8203125,-674.0,-2380.0,-2869.0
1.98,-0.014722535386681557,-0.01171348337084055,0.5042116641998291,0.0,0.0,0.0,-1.0191781520843506,-1.9602229595184326,-2.686607599258423,0.02930707298219204,2.9067394733428955,0.505395770072937,35408.0,42800.0,35284.0,39236.0,0,0,0,0,38182.625,-1063.0,-1891.0,-2810.0
2.0,-0.014396212995052338,-0.009924868121743202,0.5060420632362366,0.0,0.0,0.0,-0.7328853011131287,-1.9672921895980835,-2.718777656555176,0.02930586040019989,2.906738042831421,0.5066674947738647,35717.0,43019.0,35067.0,39329.0,0,0,0,0,38283.0234375,-1752.0,1368.0,-2837.0
2.02,-0.01419671531766653,-0.007915733382105827,0.5072541236877441,0.0,0.0,0.0,-0.4686942398548126,-1.9924273490905762,-2.7393341064453125,0.02930295467376709,2.9067351818084717,0.5078145861625671,36258.0,42778.0,34886.0,39690.0,0,0,0,0,38403.89453125,-1707.0,-1778.0,-2843.0
2.04,-0.014222764410078526,-0.006344451103359461,0.5083491206169128,0.0,0.0,0.0,-0.20700405538082123,-2.004625082015991,-2.759528875350952,0.029356254264712334,2.9064881801605225,0.5104789733886719,36442.0,43558.0,34964.0,39008.0,0,0,0,0,38493.73046875,-2921.0,-141.0,-2801.0
2.06,-0.013286992907524109,-0.003531260648742318,0.5094038248062134,0.0,0.0,0.0,0.07853563129901886,-1.9929863214492798,-2.7697272300720215,0.029375135898590088,2.906386137008667,0.5098693370819092,36120.0,43516.0,35638.0,39074.0,0,0,0,0,38587.640625,-1944.0,-1200.0,-2671.0
2.08,-0.013532738201320171,-0.0005125328316353261,0.5103114247322083,0.0,0.0,0.0,0.36183100938796997,-1.9449855089187622,-2.772550106048584,0.02937319502234459,2.906384229660034,0.5107370018959045,35090.0,43358.0,37072.0,39140.0,0,0,0,0,38665.88671875,-3639.0,-887.0,-2589.0
2.1,-0.013781469315290451,0.002507176250219345,0.5111439228057861,0.0,0.0,0.0,0.6114757061004639,-1.8869218826293945,-2.754636287689209,0.029376043006777763,2.9063868522644043,0.5115390419960022,36043.0,43365.0,35697.0,38679.0,0,0,0,0,38446.8515625,-1546.0,-2018.0,-2527.0
2.12,-0.014048807322978973,0.0029551058541983366,0.5131392478942871,0.0,0.0,0.0,0.8990897536277771,-1.7515311241149902,-2.723919153213501,0.029431413859128952,2.9061224460601807,0.513553261756897,35679.0,44079.0,36513.0,38109.0,0,0,0,0,38595.23828125,-1169.0,-1368.0,-2524.0
2.14,-0.01199291180819273,0.003964041825383902,0.5139537453651428,0.0,0.0,0.0,1.1522976160049438,-1.597861886024475,-2.685237169265747,0.029433155432343483,2.9061243534088135,0.5143486261367798,36396.0,42746.0,36092.0,39330.0,0,0,0,0,38641.046875,-1797.0,-2332.0,-2423.0
2.16,-0.012492211535573006,0.005699266213923693,0.5147243738174438,0.0,0.0,0.0,1.3446842432022095,-1.4330651760101318,-2.6479859352111816,0.02943306975066662,2.9061243534088135,0.5150893330574036,35374.0,43364.0,37114.0,38912.0,0,0,0,0,38691.82421875,-875.0,-3324.0,-2426.0
2.18,-0.01116434670984745,0.005085217300802469,0.5154070854187012,0.0,0.0,0.0,1.5116221904754639,-1.2569286823272705,-2.5972399711608887,0.029458027333021164,2.906010866165161,0.5157517790794373,34803.0,44087.0,37905.0,38113.0,0,0,0,0,38727.9140625,-653.0,-3329.0,-2406.0
2.2,-0.010098343715071678,0.006858685053884983,0.5160926580429077,0.0,0.0,0.0,1.5991485118865967,-1.00192391872406,-2.5512027740478516,0.02945678122341633,2.9060096740722656,0.5164332389831543,34803.0,43019.0,38063.0,38999.0,0,0,0,0,38721.25390625,-1266.0,-3142.0,-1600.0
2.22,-0.007475537247955799,0.00965844001621008,0.5171056389808655,0.0,0.0,0.0,1.5844368934631348,-0.6038599014282227,-2.4713029861450195,0.02945161797106266,2.9060046672821045,0.5171006917953491,35737.0,43583.0,37411.0,38129.0,0,0,0,0,38715.69140625,-1876.0,-4173.0,-1343.0
2.24,-0.005787490401417017,0.010568026453256607,0.5190644860267639,0.0,0.0,0.0,1.5949716567993164,-0.29907768964767456,-2.407114028930664,0.029543180018663406,2.9055933952331543,0.5190644860267639,36245.0,42553.0,36965.0,37953.0,0,0,0,0,38429.02734375,-2953.0,-3362.0,-587.0
2.26,-0.0048123435117304325,0.009565269574522972,0.519930362701416,0.0,0.0,0.0,1.6726789474487305,0.060840047895908356,-2.30743670463562,0.029538549482822418,2.9055888652801514,0.5199239253997803,37610.0,42512.0,35934.0,37360.0,0,0,0,0,38354.5703125,-2690.0,-2056.0,99.0
2.28,-0.000599666906055063,0.010364038869738579,0.5189327001571655,0.0,0.0,0.0,1.8104832172393799,0.26270559430122375,-2.1679043769836426,0.029552150517702103,2.9055144786834717,0.5189302563667297,38076.0,42240.0,36534.0,37786.0,0,0,0,0,38659.2578125,-3067.0,-1482.0,622.0
2.3,0.0008501337142661214,0.011095946654677391,0.520943820476532,0.0,0.0,0.0,1.9532318115234375,0.343417227268219,-1.993386149406433,0.029613424092531204,2.9052395820617676,0.520943820476532,38014.0,41014.0,36422.0,38334.0,0,0,0,0,38446.5703125,-1627.0,133.0,677.0
2.32,0.002102634869515896,0.01153858657926321,0.5217039585113525,0.0,0.0,0.0,2.031161069869995,0.3782553970813751,-1.8170298337936401,0.029623838141560555,2.90519118309021,0.5205729603767395,37961.0,42551.0,37319.0,37145.0,0,0,0,0,38744.69921875,-2908.0,-946.0,761.0
2.34,0.0037129917182028294,0.011827121488749981,0.5211162567138672,0.0,0.0,0.0,2.0059149265289307,0.4017041325569153,-1.641706943511963,0.029623012989759445,2.9051904678344727,0.5211158990859985,38617.0,42197.0,37119.0,37535.0,0,0,0,0,38867.0,-3156.0,-3362.0,-989.0
2.36,0.004534900654107332,0.0118977390229702,0.5213720202445984,0.0,0.0,0.0,1.9851710796356201,0.4626729190349579,-1.5494740009307861,0.029623256996273994,2.905174970626831,0.5216558575630188,37862.0,42094.0,38194.0,37702.0,0,0,0,0,38963.89453125,-2251.0,-1148.0,-935.0
2.38,0.0068990024738013744,0.010831404477357864,0.5218545198440552,0.0,0.0,0.0,1.9163261651992798,0.5850927829742432,-1.3809012174606323,0.029627058655023575,2.9051504135131836,0.5214864611625671,37505.0,42893.0,39049.0,37093.0,0,0,0,0,39135.32421875,-1671.0,-3148.0,-893.0
2.4,0.009084527380764484,0.011877885088324547,0.5216341018676758,0.0,0.0,0.0,1.8231732845306396,0.7045761346817017,-1.219014048576355,0.029626430943608284,2.9051499366760254,0.5217723846435547,38103.0,42713.0,38397.0,37475.0,0,0,0,0,39172.47265625,-1670.0,-1602.0,-854.0
2.42,0.011127419769763947,0.011056328192353249,0.5219123959541321,0.0,0.0,0.0,1.7197707891464233,0.8933006525039673,-1.0722284317016602,0.02970421314239502,2.904759168624878,0.5245939493179321,37245.0,39885.0,38693.0,38857.0,0,0,0,0,38670.41796875,-2450.0,-3643.0,-655.0
2.44,0.014693045988678932,0.008771357126533985,0.5233134031295776,0.0,0.0,0.0,1.5750746726989746,1.0093445777893066,-0.9332241415977478,0.029722264036536217,2.9046874046325684,0.5235238075256348,38431.0,41341.0,38565.0,37455.0,0,0,0,0,38948.99609375,-2698.0,-2594.0,-449.0
2.46,0.011937791481614113,0.008411888033151627,0.5237443447113037,0.0,0.0,0.0,1.3800811767578125,1.2199591398239136,-0.7843636870384216,0.029725247994065285,2.9046902656555176,0.5239790081977844,38351.0,41937.0,38877.0,36315.0,0,0,0,0,38870.75390625,-2695.0,-3396.0,-188.0
2.48,0.010872426442801952,0.006012792699038982,0.5242276191711426,0.0,0.0,0.0,1.2223968505859375,1.4148813486099243,-0.6133221387863159,0.029724692925810814,2.9046897888183594,0.5245022177696228,39246.0,40878.0,38030.0,36914.0,0,0,0,0,38767.04296875,-2718.0,-1576.0,-22.0
2.5,0.009462575428187847,0.004813513718545437,0.5255364179611206,0.0,0.0,0.0,1.1024798154830933,1.5926610231399536,-0.4228475093841553,0.02980494685471058,2.9043047428131104,0.5258793234825134,39127.0,40119.0,38333.0,36577.0,0,0,0,0,38539.63671875,-1342.0,-1648.0,348.0
2.52,0.01150105707347393,0.003940920811146498,0.5262331366539001,0.0,0.0,0.0,0.959196150302887,1.5419222116470337,-0.22279655933380127,0.029800735414028168,2.9043006896972656,0.5265876054763794,38454.0,40956.0,39352.0,35178.0,0,0,0,0,38485.01171875,-1816.0,-1766.0,387.0
2.54,0.012328493408858776,0.0010298932902514935,0.5269514322280884,0.0,0.0,0.0,0.7777518630027771,1.430946707725525,0.011064941994845867,0.029800135642290115,2.9043002128601074,0.5273054838180542,38429.0,41295.0,39451.0,34801.0,0,0,0,0,38494.4140625,-1295.0,-2719.0,468.0
2.56,0.012348688207566738,-0.0002041126135736704,0.5282622575759888,0.0,0.0,0.0,0.5551164746284485,1.4037213325500488,0.23373618721961975,0.029804889112710953,2.9042904376983643,0.52864009141922,39006.0,38852.0,38660.0,36994.0,0,0,0,0,38378.4296875,-1820.0,-3726.0,466.0
2.58,0.012290474958717823,-0.001583283650688827,0.5290106534957886,0.0,0.0,0.0,0.3339921236038208,1.4168509244918823,0.437631219625473,0.029801681637763977,2.904287338256836,0.5293765664100647,38466.0,41242.0,39158.0,34630.0,0,0,0,0,38374.1875,-3257.0,-3381.0,409.0
2.6,0.011330927722156048,-0.0027695992030203342,0.5297664403915405,0.0,0.0,0.0,0.11478379368782043,1.3865400552749634,0.6134014129638672,0.029800308868288994,2.9042868614196777,0.530131459236145,37257.0,40627.0,40277.0,35195.0,0,0,0,0,38339.44140625,-2680.0,-4276.0,430.0
2.62,0.010031594894826412,-0.004992004483938217,0.5327871441841125,0.0,0.0,0.0,-0.07138500362634659,1.370909333229065,0.7637746334075928,0.029892433434724808,2.903853416442871,0.533292293548584,36047.0,38941.0,40541.0,35815.0,0,0,0,0,37836.984375,948.0,-1993.0,469.0
2.64,0.008660619147121906,-0.005990840494632721,0.5338006615638733,0.0,0.0,0.0,-0.3075101375579834,1.3737611770629883,0.8945998549461365,0.029902761802077293,2.903792142868042,0.5326730608940125,38031.0,38465.0,39055.0,36985.0,0,0,0,0,38134.32421875,-534.0,-2937.0,445.0
2.66,0.008483908139169216,-0.008625796064734459,0.5330680012702942,0.0,0.0,0.0,-0.6286090612411499,1.3249447345733643,1.0156879425048828,0.029900824651122093,2.90378999710083,0.5334355235099792,36710.0,38066.0,40144.0,37956.0,0,0,0,0,38219.78125,-51.0,-3082.0,121.0
2.68,0.007854710333049297,-0.0098385289311409,0.5337814688682556,0.0,0.0,0.0,-0.9770007729530334,1.1859381198883057,1.1045246124267578,0.029903803020715714,2.9037926197052,0.5340928435325623,35839.0,39657.0,40773.0,37175.0,0,0,0,0,38361.2578125,-52.0,-5541.0,-119.0
2.7,0.006962874438613653,-0.013661702163517475,0.5343597531318665,0.0,0.0,0.0,-1.323988676071167,1.016281008720398,1.1404534578323364,0.029912641271948814,2.9037210941314697,0.5327690243721008,36182.0,41620.0,41100.0,36578.0,0,0,0,0,38870.57421875,-95.0,-4690.0,-206.0
2.72,0.004606175236403942,-0.014320437796413898,0.53287672996521,0.0,0.0,0.0,-1.6619234085083008,0.952718198299408,1.1339164972305298,0.029913077130913734,2.903721332550049,0.5329670906066895,36622.0,41502.0,40572.0,37184.0,0,0,0,0,38970.2734375,-18.0,-4088.0,-418.0
2.74,0.003738745581358671,-0.01435333676636219,0.533043384552002,0.0,0.0,0.0,-1.899259090423584,0.954366147518158,1.1059736013412476,0.029912352561950684,2.9037208557128906,0.5331090688705444,37301.0,41203.0,40079.0,38193.0,0,0,0,0,39194.85546875,88.0,-3109.0,-561.0
2.76,0.0012046388583257794,-0.01513044536113739,0.5321356058120728,0.0,0.0,0.0,-2.074856758117676,0.8758128881454468,1.0496060848236084,0.029889406636357307,2.90382981300354,0.5321357846260071,38354.0,40148.0,38856.0,39670.0,0,0,0,0,39257.68359375,1166.0,-2601.0,-618.0
2.78,0.0008520273840986192,-0.017403488978743553,0.5321361422538757,0.0,0.0,0.0,-2.2273313999176025,0.6870057582855225,0.9719632863998413,0.029886551201343536,2.9038267135620117,0.5321494340896606,36963.0,39651.0,40301.0,39957.0,0,0,0,0,39218.12890625,-614.0,-2408.0,-573.0
2.8,-0.0018351374892517924,-0.017446869984269142,0.532179057598114,0.0,0.0,0.0,-2.3565073013305664,0.4826758801937103,0.8939559459686279,0.02988588623702526,2.9038259983062744,0.5322323441505432,37020.0,40472.0,40444.0,38572.0,0,0,0,0,39127.15234375,-1453.0,-3704.0,-445.0
2.82,-0.0044929105788469315,-0.01852700486779213,0.5331246852874756,0.0,0.0,0.0,-2.3947460651397705,0.2698532044887543,0.8330464363098145,0.029913654550909996,2.9036760330200195,0.5319061279296875,38910.0,40010.0,38824.0,38932.0,0,0,0,0,39169.98828125,-768.0,-1091.0,-348.0
2.84,-0.00785037036985159,-0.01868158020079136,0.5319660902023315,0.0,0.0,0.0,-2.395350694656372,0.10260412096977234,0.808077871799469,0.029910869896411896,2.9036731719970703,0.5320419073104858,38158.0,40802.0,40000.0,37540.0,0,0,0,0,39125.55859375,246.0,-1650.0,-30.0
2.86,-0.011539755389094353,-0.020204680040478706,0.5321210622787476,0.0,0.0,0.0,-2.375948667526245,-0.15588954091072083,0.8027896285057068,0.029907098039984703,2.9036693572998047,0.5322096943855286,37971.0,41191.0,40075.0,37187.0,0,0,0,0,39106.37890625,-368.0,-2215.0,-17.0
2.88,-0.01411110907793045,-0.01886351965367794,0.5343119502067566,0.0,0.0,0.0,-2.3765451908111572,-0.5172234773635864,0.8273800611495972,0.029919080436229706,2.9035894870758057,0.5345137715339661,38549.0,40561.0,38835.0,36883.0,0,0,0,0,38707.9453125,-2500.0,-3708.0,-48.0
2.9,-0.01732407696545124,-0.01864207163453102,0.5347254872322083,0.0,0.0,0.0,-2.31618332862854,-0.8136789798736572,0.8535270690917969,0.029919585213065147,2.903590202331543,0.5349456071853638,38733.0,40831.0,39015.0,36077.0,0,0,0,0,38664.40234375,-1744.0,-3210.0,304.0
2.92,-0.01889623887836933,-0.018478456884622574,0.5351609587669373,0.0,0.0,0.0,-2.132845163345337,-1.0583120584487915,0.8907055258750916,0.02991938404738903,2.903589963912964,0.5353719592094421,40526.0,40116.0,37496.0,36646.0,0,0,0,0,38696.67578125,-1817.0,164.0,338.0
2.94,-0.020263763144612312,-0.01749301142990589,0.5353004336357117,0.0,0.0,0.0,-1.8995280265808105,-1.25253427028656,0.9679149389266968,0.029924729838967323,2.9035634994506836,0.5355938673019409,40713.0,38375.0,37355.0,38581.0,0,0,0,0,38756.109375,-1424.0,173.0,288.0
2.96,-0.02275005728006363,-0.015462222509086132,0.5357603430747986,0.0,0.0,0.0,-1.616665244102478,-1.5702540874481201,1.0372141599655151,0.029922740533947945,2.903561592102051,0.5359131097793579,39031.0,38743.0,39079.0,38555.0,0,0,0,0,38852.60546875,-1351.0,-2112.0,209.0
2.98,-0.023966146633028984,-0.015409933403134346,0.5360366702079773,0.0,0.0,0.0,-1.3589861392974854,-1.951250433921814,1.0938133001327515,0.02992495894432068,2.903548002243042,0.535713791847229,38051.0,41127.0,40303.0,36695.0,0,0,0,0,39044.96875,-1494.0,-2630.0,165.0
3.0,-0.027291148900985718,-0.014723517000675201,0.5357706546783447,0.0,0.0,0.0,-1.201789379119873,-2.1893513202667236,1.1344596147537231,0.02993624098598957,2.90348219871521,0.5362282395362854,27392.0,51486.0,51128.0,26262.0,0,0,0,0,39067.1875,2529.0,-24717.0,203.0
3.02,-0.02870747447013855,-0.011451364494860172,0.53627610206604,0.0,0.0,0.0,-1.0425645112991333,-2.2736566066741943,1.164947509765625,0.029934126883745193,2.903480052947998,0.5363188982009888,35858.0,43940.0,42914.0,34136.0,0,0,0,0,39212.6796875,-1488.0,-4508.0,195.0
3.04,-0.029899168759584427,-0.008201640099287033,0.5358322262763977,0.0,0.0,0.0,-0.824411928653717,-2.388012170791626,1.1970552206039429,0.02994086779654026,2.903465747833252,0.5358600616455078,42732.0,38182.0,36220.0,39510.0,0,0,0,0,39161.40234375,-2939.0,4726.0,370.0
3.06,-0.026756776496767998,-0.006312434561550617,0.5359120965003967,0.0,0.0,0.0,-0.49690696597099304,-3.5857410430908203,1.2222118377685547,0.029943261295557022,2.903468132019043,0.5359842777252197,43052.0,40294.0,36064.0,37214.0,0,0,0,0,39156.84375,-4522.0,3129.0,369.0
3.08,-0.026226725429296494,-0.00912779476493597,0.5355026125907898,0.0,0.0,0.0,0.04692571237683296,-5.939045429229736,1.2731549739837646,0.02992914617061615,2.9035422801971436,0.5355507135391235,41200.0,40620.0,36560.0,36296.0,0,0,0,0,38669.3984375,-3552.0,-1933.0,254.0
3.1,-0.02691762149333954,-0.008566220290958881,0.5382089614868164,0.0,0.0,0.0,0.6867005825042725,-8.405935287475586,1.3362492322921753,0.029910791665315628,2.9036271572113037,0.5383918881416321,38138.0,39786.0,39694.0,36930.0,0,0,0,0,38637.57421875,-2287.0,-5358.0,377.0
3.12,-0.0219748392701149,-0.007514533121138811,0.538608968257904,0.0,0.0,0.0,1.2691583633422852,-10.372282981872559,1.398671269416809,0.029918257147073746,2.903634548187256,0.5388361215591431,36091.0,40019.0,41523.0,35799.0,0,0,0,0,38358.1015625,-602.0,-4439.0,377.0
3.14,-0.022838063538074493,-0.0055921743623912334,0.5408744812011719,0.0,0.0,0.0,1.6352803707122803,-11.830561637878418,1.4629899263381958,0.029934465885162354,2.9035420417785645,0.5446313619613647,37343.0,39675.0,38663.0,35751.0,0,0,0,0,37858.5625,-1810.0,-3679.0,77.0
3.16,-0.02009553648531437,-0.004638262093067169,0.5450009107589722,0.0,0.0,0.0,1.8284727334976196,-12.92152214050293,1.5078569650650024,0.02993670105934143,2.9035444259643555,0.5453463792800903,36833.0,40187.0,39123.0,35937.0,0,0,0,0,38020.73046875,-1890.0,-5192.0,-52.0
3.18,-0.019411426037549973,-0.00595430564135313,0.5407230854034424,0.0,0.0,0.0,1.956787347793579,-13.94711971282959,1.5140324831008911,0.029809610918164253,2.9041616916656494,0.5406850576400757,37556.0,43924.0,38692.0,33068.0,0,0,0,0,38310.80078125,-3729.0,-4609.0,-153.0
3.2,-0.015855858102440834,-0.007348878309130669,0.5455489754676819,0.0,0.0,0.0,2.062530755996704,-14.79254150390625,1.49564790725708,0.029766103252768517,2.904348373413086,0.5456509590148926,37262.0,42548.0,39930.0,34636.0,0,0,0,0,38594.84765625,-1868.0,-5040.0,-45.0
3.22,-0.009846866130828857,-0.0032182822469621897,0.5457082390785217,0.0,0.0,0.0,2.2370660305023193,-15.461617469787598,1.4405663013458252,0.029767751693725586,2.9043500423431396,0.5457248687744141,37654.0,41944.0,39642.0,36112.0,0,0,0,0,38838.84765625,-1416.0,-4893.0,-244.0
3.24,-0.004267892800271511,-0.0011962492717429996,0.5456798672676086,0.0,0.0,0.0,2.402045249938965,-15.97456169128418,1.4043898582458496,0.029765117913484573,2.9628617763519287,0.5455703139305115,38124.0,40850.0,37812.0,36614.0,0,0,0,0,38350.91015625,-2868.0,-2414.0,-389.0
3.26,0.0038560766261070967,-0.0012602730421349406,0.5497276782989502,0.0,0.0,0.0,2.439117431640625,-16.491350173950195,1.3491989374160767,0.029744712635874748,2.9667165279388428,0.5497482419013977,39869.0,40539.0,36671.0,37405.0,0,0,0,0,38621.60546875,-3163.0,269.0,-353.0
3.28,0.01174256019294262,0.000676836643833667,0.5497146844863892,0.0,0.0,0.0,2.4880530834198,-17.04547691345215,1.2780067920684814,0.029750430956482887,2.9667279720306396,0.5496234893798828,40838.0,40720.0,36440.0,37794.0,0,0,0,0,38948.44921875,-3447.0,-2070.0,-280.0
3.3,0.0202910415828228,-0.0004490432620514184,0.5487850904464722,0.0,0.0,0.0,2.5641798973083496,-17.586624145507812,1.2207180261611938,0.029739679768681526,2.98018217086792,0.5514897704124451,39785.0,41309.0,37559.0,37163.0,0,0,0,0,38954.39453125,-4503.0,-1587.0,-195.0
3.32,0.030412085354328156,2.0072702682227828e-05,0.551304280757904,0.0,0.0,0.0,2.6563446521759033,-17.910865783691406,1.1742851734161377,0.02976883389055729,2.980231761932373,0.5510786175727844,39082.0,42042.0,39662.0,36426.0,0,0,0,0,39303.578125,-3249.0,-4555.0,188.0
3.34,0.04154801741242409,-9.861631406238303e-05,0.5507071018218994,0.0,0.0,0.0,2.6924257278442383,-17.938196182250977,1.1407541036605835,0.029708312824368477,2.9801292419433594,0.5502045154571533,38345.0,43643.0,41743.0,34989.0,0,0,0,0,39680.1015625,-318.0,-5003.0,332.0
3.36,0.05341845005750656,5.99343293288257e-05,0.5498908758163452,0.0,0.0,0.0,2.6319103240966797,-17.57549285888672,1.1450754404067993,0.029718197882175446,2.9893343448638916,0.5519182085990906,39438.0,41220.0,40112.0,37606.0,0,0,0,0,39594.7109375,-284.0,-3658.0,248.0
3.38,0.07043538987636566,0.0007436945452354848,0.5514931082725525,0.0,0.0,0.0,2.4011998176574707,-16.92407989501953,1.1539037227630615,0.029713662341237068,2.9893276691436768,0.5509715676307678,39153.0,40447.0,41369.0,38479.0,0,0,0,0,39862.84375,-1710.0,-2808.0,279.0
3.4,0.08262330293655396,0.0005900327232666314,0.5505627989768982,0.0,0.0,0.0,2.099501848220825,-16.27014923095703,1.161783218383789,0.029729606583714485,2.9893500804901123,0.5499306917190552,40011.0,41089.0,40739.0,38477.0,0,0,0,0,40079.58203125,-1355.0,-3733.0,306.0
3.42,0.09723217040300369,0.0025259775575250387,0.5494990944862366,0.0,0.0,0.0,1.7900652885437012,-15.549529075622559,1.1622912883758545,0.029774226248264313,2.9884331226348877,0.5466545224189758,38654.0,43286.0,42834.0,37622.0,0,0,0,0,40599.46484375,-920.0,-3412.0,277.0
3.44,0.11053567379713058,0.0007625008001923561,0.5460819602012634,0.0,0.0,0.0,1.6017050743103027,-14.68083667755127,1.1830813884735107,0.029760736972093582,3.042572021484375,0.5452187657356262,38902.0,43778.0,42308.0,37876.0,0,0,0,0,40716.1484375,-546.0,-5017.0,85.0
3.46,0.12817494571208954,-0.0014662856701761484,0.5447006225585938,0.0,0.0,0.0,1.4184540510177612,-13.66461181640625,1.1910899877548218,0.029732631519436836,3.0425171852111816,0.5437458753585815,38116.0,42384.0,43552.0,39132.0,0,0,0,0,40796.34765625,-1146.0,-6903.0,43.0
3.48,0.14732176065444946,-0.0014743617502972484,0.5433416366577148,0.0,0.0,0.0,1.1227262020111084,-12.549562454223633,1.1605584621429443,0.029757890850305557,3.0418145656585693,0.5413898229598999,39502.0,43478.0,41956.0,38300.0,0,0,0,0,40809.75,66.0,-2963.0,-190.0
3.5,0.16956128180027008,-0.0025607922580093145,0.5413104891777039,0.0,0.0,0.0,0.7891916632652283,-11.401337623596191,1.1301213502883911,0.029738537967205048,3.029503107070923,0.5405452251434326,39082.0,45124.0,41280.0,37322.0,0,0,0,0,40702.8828125,-1298.0,-2758.0,-338.0
3.52,0.1897604912519455,-0.0012944721383973956,0.5401994585990906,0.0,0.0,0.0,0.4601878225803375,-10.311600685119629,1.0631622076034546,0.029762648046016693,3.029539108276367,0.5395253300666809,38941.0,44415.0,43107.0,39213.0,0,0,0,0,41419.12890625,-1061.0,-4836.0,-403.0
3.54,0.20759841799736023,-0.0011429443256929517,0.5341063141822815,0.0,0.0,0.0,0.2436281442642212,-9.246116638183594,0.9947256445884705,0.029881451278924942,3.0264008045196533,0.533402681350708,37573.0,46439.0,42363.0,38541.0,0,0,0,0,41229.5859375,-1071.0,-4715.0,-565.0
3.56,0.23241250216960907,-0.00392739987000823,0.5340840220451355,0.0,0.0,0.0,0.06266658753156662,-8.12877368927002,0.9309874773025513,0.02992986887693405,3.017174482345581,0.5337916016578674,37762.0,45864.0,42148.0,36750.0,0,0,0,0,40631.78125,-1178.0,-6201.0,-744.0
3.58,0.250820517539978,-0.004606754519045353,0.5334479212760925,0.0,0.0,0.0,-0.11032910645008087,-6.954147815704346,0.8466247320175171,0.030275864526629448,3.017709255218506,0.5339311361312866,36354.0,45788.0,42490.0,36224.0,0,0,0,0,40214.328125,-1370.0,-7791.0,-894.0
3.6,0.24920368194580078,-0.007067113649100065,0.5337576866149902,0.0,0.0,0.0,-0.25918203592300415,-5.6369757652282715,0.7695473432540894,0.43762829899787903,2.9404797554016113,0.5343987941741943,35295.0,44021.0,42881.0,37031.0,0,0,0,0,39807.16015625,-767.0,-6935.0,-978.0
3.62,0.23019418120384216,-0.0030165044590830803,0.5349880456924438,0.0,0.0,0.0,-0.47292402386665344,-4.266143798828125,0.6533202528953552,0.43882665038108826,2.9417238235473633,0.5358202457427979,33608.0,45136.0,41454.0,36958.0,0,0,0,0,39289.23046875,-1536.0,-7649.0,-1222.0
3.64,0.21954435110092163,-0.0015977525617927313,0.5362828373908997,0.0,0.0,0.0,-0.6973100304603577,-3.16971755027771,0.5430039763450623,0.44024237990379333,2.94319748878479,0.5379527807235718,32851.0,42207.0,43707.0,36287.0,0,0,0,0,38763.88671875,1598.0,-5933.0,-1110.0
3.66,0.24437423050403595,0.021618571132421494,0.537708580493927,0.0,0.0,0.0,-1.0430383682250977,-2.540827989578247,0.3000138998031616,0.40835583209991455,2.932705879211426,0.5370385646820068,37921.0,40781.0,37455.0,38279.0,0,0,0,0,38609.94140625,-1766.0,-1368.0,-1254.0
3.68,0.35604655742645264,0.013304119929671288,0.5350147485733032,0.0,0.0,0.0,-1.0562955141067505,-2.792553424835205,0.21288521587848663,0.4051932990550995,2.9297664165496826,0.5342905521392822,40776.0,41478.0,34126.0,39104.0,0,0,0,0,38871.7109375,-3523.0,-543.0,-1384.0
3.7,0.45278894901275635,0.01570269837975502,0.5319854021072388,0.0,0.0,0.0,-0.8761023879051208,-3.1148180961608887,0.07496654987335205,0.402066171169281,2.9268651008605957,0.5311131477355957,36953.0,42763.0,37229.0,36719.0,0,0,0,0,38416.30859375,-2438.0,-4801.0,-1462.0
3.72,0.555014967918396,0.005157626699656248,0.5329341888427734,0.0,0.0,0.0,-0.42684677243232727,-3.281766653060913,-0.01612299121916294,0.392244428396225,2.7609376907348633,0.5322437286376953,35986.0,42982.0,39286.0,37906.0,0,0,0,0,39040.70703125,-1791.0,-6281.0,-1433.0
3.74,0.6264082193374634,-0.007431813981384039,0.530362069606781,0.0,0.0,0.0,-0.05158047378063202,-2.6957666873931885,-0.0760803297162056,0.3897385597229004,2.7580485343933105,0.5295946598052979,34723.0,44987.0,41121.0,37197.0,0,0,0,0,39507.08984375,-1883.0,-6051.0,-1584.0
3.76,0.6967424154281616,-0.014623463153839111,0.5260727405548096,0.0,0.0,0.0,0.06083792448043823,-1.5781432390213013,-0.15599937736988068,0.3863922953605652,2.753523111343384,0.5243640542030334,36828.0,45108.0,40564.0,38860.0,0,0,0,0,40340.2734375,-917.0,-5279.0,-1644.0
3.78,0.8014292120933533,-0.012985055334866047,0.5193668603897095,0.0,0.0,0.0,-0.08478312939405441,-0.3762396574020386,-0.2856886684894562,0.38120248913764954,0.7256003022193909,0.5173322558403015,37991.0,44105.0,41483.0,41453.0,0,0,0,0,41258.3046875,-646.0,-3519.0,-1505.0
3.8,0.8654927611351013,-0.01833295077085495,0.5157073140144348,0.0,0.0,0.0,-0.30501922965049744,1.2371147871017456,-0.372769832611084,0.38115671277046204,0.7252494692802429,0.516471803188324,36706.0,46316.0,42598.0,39268.0,0,0,0,0,41222.02734375,-2437.0,-6808.0,-1612.0
3.82,0.8964049816131592,-0.016898594796657562,0.5154041647911072,0.0,0.0,0.0,-0.6054627299308777,3.1608526706695557,-0.4474214017391205,0.38151344656944275,0.7256690263748169,0.5166516304016113,36291.0,47023.0,42015.0,38455.0,0,0,0,0,40946.8359375,-908.0,-6871.0,-1810.0
3.84,0.9190509915351868,-0.02064642496407032,0.5164806246757507,0.0,0.0,0.0,-0.7529918551445007,5.227696895599365,-0.5032672882080078,0.3827494978904724,0.7258319854736328,0.5185229778289795,35357.0,46209.0,41611.0,38335.0,0,0,0,0,40378.24609375,-116.0,-6231.0,-1931.0
3.86,0.935062050819397,-0.018608296290040016,0.5188530683517456,0.0,0.0,0.0,-0.9467239379882812,7.157894134521484,-0.5945216417312622,-0.002796582877635956,0.7273173928260803,0.5206802487373352,35048.0,44824.0,40694.0,38482.0,0,0,0,0,39762.87890625,-551.0,-5691.0,-1921.0
3.88,0.9520039558410645,-0.019380394369363785,0.5211736559867859,0.0,0.0,0.0,-1.1273670196533203,8.737008094787598,-0.6814053058624268,-0.0013393666595220566,0.7285966277122498,0.5231136679649353,35400.0,44936.0,39480.0,36872.0,0,0,0,0,39172.68359375,-1683.0,-5329.0,-1854.0
3.9,0.9664673805236816,-0.01675288937985897,0.5182576775550842,0.0,0.0,0.0,-1.3007014989852905,9.907532691955566,-0.7593984603881836,0.004435220267623663,0.7261580228805542,0.5200619101524353,34979.0,44785.0,40643.0,37989.0,0,0,0,0,39599.12109375,-627.0,-5266.0,-1735.0
3.92,0.980442225933075,-0.017035508528351784,0.5206311941146851,0.0,0.0,0.0,-1.3380863666534424,10.720504760742188,-0.8317995071411133,0.0053268661722540855,0.7271729111671448,0.5220007300376892,35850.0,44430.0,39290.0,37354.0,0,0,0,0,39231.05859375,-941.0,-5198.0,-1687.0
3.94,0.9980156421661377,-0.017445942386984825,0.5227964520454407,0.0,0.0,0.0,-1.333135724067688,11.26029109954834,-0.8792997598648071,0.005996998865157366,0.7277736067771912,0.5239314436912537,36257.0,44685.0,39149.0,37541.0,0,0,0,0,39408.01171875,-2490.0,-5864.0,-1711.0
3.96,1.0083497762680054,-0.019303109496831894,0.5223078727722168,0.0,0.0,0.0,-1.2927700281143188,11.562655448913574,-0.914395272731781,0.00637291232123971,0.7267808318138123,0.5231929421424866,35929.0,45115.0,40127.0,37545.0,0,0,0,0,39679.953125,-2117.0,-5446.0,-1638.0
3.98,1.0209732055664062,-0.01897379569709301,0.5201279520988464,0.0,0.0,0.0,-1.231052041053772,11.678777694702148,-0.9442421197891235,0.004271357785910368,0.7288209199905396,0.521166980266571,35674.0,43338.0,40026.0,38702.0,0,0,0,0,39435.91796875,-414.0,-4679.0,-1580.0
4.0,1.0317130088806152,-0.021097863093018532,0.522153377532959,0.0,0.0,0.0,-1.1740620136260986,11.705284118652344,-0.9707606434822083,0.004984276369214058,0.7294694781303406,0.5230847597122192,35979.0,43715.0,38935.0,38311.0,0,0,0,0,39235.0859375,-1641.0,-4041.0,-1567.0
4.02,1.043114185333252,-0.021343184635043144,0.5231106877326965,0.0,0.0,0.0,-1.183419108390808,11.523975372314453,-0.9891808032989502,0.005156614352017641,0.7294226884841919,0.5239008665084839,36759.0,44549.0,38665.0,37135.0,0,0,0,0,39277.8515625,-883.0,-5215.0,-1621.0
4.04,1.0512548685073853,-0.02075447514653206,0.5240249633789062,0.0,0.0,0.0,-1.1628650426864624,11.20544719696045,-1.0081981420516968,0.005073087755590677,0.7299326062202454,0.5247247815132141,36312.0,43236.0,38778.0,38266.0,0,0,0,0,39148.36328125,-1111.0,-3271.0,-1526.0
4.06,1.0619487762451172,-0.021712683141231537,0.5255106091499329,0.0,0.0,0.0,-1.0944281816482544,10.748096466064453,-1.022503137588501,0.005413945764303207,0.7302349209785461,0.526261568069458,36868.0,42126.0,38256.0,38802.0,0,0,0,0,39013.08203125,-2356.0,-3066.0,-1434.0
4.08,1.077249526977539,-0.020574869588017464,0.5276088714599609,0.0,0.0,0.0,-1.0638940334320068,10.145051002502441,-1.0244381427764893,0.0058333673514425755,0.7307302355766296,0.5283318758010864,37400.0,42254.0,37264.0,38282.0,0,0,0,0,38800.578125,-1183.0,-1067.0,-1462.0
4.1,1.0852012634277344,-0.02021639794111252,0.5282748937606812,0.0,0.0,0.0,-1.0303784608840942,9.440947532653809,-1.0140655040740967,0.005455443635582924,0.7308650016784668,0.5288211107254028,38168.0,41356.0,36738.0,39090.0,0,0,0,0,38838.5234375,-2394.0,-2652.0,-1402.0
4.12,1.1041616201400757,-0.019695231691002846,0.5293657779693604,0.0,0.0,0.0,-0.9425237774848938,8.579374313354492,-1.0077015161514282,0.005539649166166782,0.7309311032295227,0.5300737023353577,37429.0,42485.0,37691.0,37491.0,0,0,0,0,38774.56640625,-931.0,-3539.0,-1359.0
4.14,1.1131278276443481,-0.01747691072523594,0.5305569767951965,0.0,0.0,0.0,-0.8301824331283569,7.807814121246338,-0.989147961139679,0.005519447382539511,0.7309029698371887,0.5310928821563721,36723.0,40933.0,38007.0,38653.0,0,0,0,0,38579.07421875,-2318.0,-2071.0,-1427.0
4.16,1.124392032623291,-0.016368668526411057,0.533059298992157,0.0,0.0,0.0,-0.7093703746795654,7.107297897338867,-0.9700813889503479,0.006325801368802786,0.7306749820709229,0.5336764454841614,37015.0,41701.0,38023.0,37485.0,0,0,0,0,38556.8046875,-1818.0,-3265.0,-1453.0
4.18,1.1255148649215698,-0.013131821528077126,0.5342375636100769,0.0,0.0,0.0,-0.6632130146026611,6.51144552230835,-0.9517892599105835,0.006306609604507685,0.7306474447250366,0.5347752571105957,36688.0,42140.0,37660.0,37768.0,0,0,0,0,38564.4296875,-1365.0,-2319.0,-1428.0
4.2,1.141374111175537,-0.012212367728352547,0.5353001952171326,0.0,0.0,0.0,-0.5854899883270264,5.837793827056885,-0.9417712092399597,0.005446546711027622,0.7293694019317627,0.5326382517814636,37020.0,41970.0,38100.0,38970.0,0,0,0,0,39015.859375,-2255.0,-2317.0,-1454.0
4.22,1.1416523456573486,-0.012649375014007092,0.5347262620925903,0.0,0.0,0.0,-0.46212127804756165,5.263392925262451,-0.9365062117576599,0.006200023926794529,0.7289122343063354,0.5351129770278931,36591.0,42783.0,38447.0,37507.0,0,0,0,0,38832.33203125,-2973.0,-2468.0,-1400.0
4.24,1.1429566144943237,-0.013485169038176537,0.5354810357093811,0.0,0.0,0.0,-0.3062405288219452,4.638692378997803,-0.9306374788284302,0.006071697920560837,0.7287718653678894,0.5358249545097351,37533.0,42119.0,38041.0,37755.0,0,0,0,0,38862.05859375,-2992.0,-3248.0,-1440.0
4.26,1.1430658102035522,-0.011331558227539062,0.5361384153366089,0.0,0.0,0.0,-0.15553095936775208,4.0302414894104,-0.9055152535438538,0.0055868844501674175,0.7280321717262268,0.5346992611885071,37299.0,41937.0,38979.0,38237.0,0,0,0,0,39113.9453125,-1090.0,-2963.0,-1360.0
4.28,1.1507965326309204,-0.00915038213133812,0.5340385437011719,0.0,0.0,0.0,-0.03039601445198059,3.3495125770568848,-0.8760023713111877,0.0050856503657996655,0.7281972169876099,0.5342311859130859,38196.0,41916.0,38462.0,38426.0,0,0,0,0,39250.29296875,-1726.0,-3500.0,-1281.0
4.3,1.1499273777008057,-0.009125610813498497,0.5343853235244751,0.0,0.0,0.0,0.06769514828920364,2.693127393722534,-0.8460266590118408,0.004877912811934948,0.7279804348945618,0.5345694422721863,38779.0,42771.0,37887.0,37575.0,0,0,0,0,39253.828125,-1776.0,-2194.0,-1254.0
4.32,1.148809790611267,-0.009360031224787235,0.5347068905830383,0.0,0.0,0.0,0.17528805136680603,2.062317132949829,-0.8139815926551819,0.004915069323033094,0.7283427119255066,0.5373017191886902,37341.0,41327.0,38535.0,38033.0,0,0,0,0,38809.49609375,-660.0,-1613.0,-1176.0
4.34,1.1519618034362793,-0.008068918250501156,0.5376943945884705,0.0,0.0,0.0,0.2989029586315155,1.3999240398406982,-0.7718188166618347,0.004751081578433514,0.7281067371368408,0.5379766225814819,37905.0,41533.0,38303.0,37247.0,0,0,0,0,38747.109375,-3123.0,-2507.0,-1183.0
4.36,1.1519790887832642,-0.006031550467014313,0.5382607579231262,0.0,0.0,0.0,0.3556751608848572,0.7296356558799744,-0.7267772555351257,0.004530063830316067,0.727880597114563,0.5385481119155884,37851.0,42351.0,38029.0,36641.0,0,0,0,0,38718.2109375,-2535.0,-3226.0,-1208.0
